#enable_time_secs=1556708349	enable_time_usecs=083284	siftrver=1.2.4	hz=1000	tcp_rtt_scale=32	sysname=FreeBSD	sysver=1001000	ipmode=4
o,0xa34b9d3b,1556708349.083301,10.1.1.67,22,10.1.1.11,18879,1073725440,20330,0,66560,66608,6,6,4,1448,191,1,16778212,238,33304,208,66608,0,156,0,1
o,0x598cbb98,1556708349.083307,10.1.1.67,22,10.1.1.11,18879,1073725440,20330,0,66560,66608,6,6,4,1448,191,1,16778212,238,33304,260,66608,0,208,0,1
o,0xdc2307f2,1556708349.083515,10.1.1.67,22,10.1.1.11,18879,1073725440,20330,0,66560,66608,6,6,4,1448,191,1,16778212,238,33304,296,66608,0,260,0,1
i,0x96580369,1556708349.083518,10.1.1.67,22,10.1.1.11,18879,1073725440,20330,0,66560,66608,6,6,4,1448,191,1,16778212,238,33304,296,66608,0,296,0,1
i,0xa692c5c8,1556708349.083521,10.1.1.67,22,10.1.1.11,18879,1073725440,20486,0,66496,66608,6,6,4,1448,192,1,996,230,33304,140,66608,0,140,0,1
o,0x12d0ab92,1556708349.083659,10.1.1.67,22,10.1.1.11,18879,1073725440,20590,0,66432,66608,6,6,4,1448,168,1,16778212,230,33304,140,66608,0,36,0,1
i,0x03dffca9,1556708349.083913,10.1.1.67,22,10.1.1.11,18879,1073725440,20590,0,66432,66608,6,6,4,1448,168,1,16778212,230,33304,140,66608,0,140,0,1
i,0xaa383450,1556708349.084219,10.1.1.67,22,10.1.1.11,18879,1073725440,20730,0,66496,66608,6,6,4,1448,151,1,996,230,33304,0,66608,0,0,0,1
i,0xe100e935,1556708349.097904,10.1.1.67,22,10.1.1.11,18879,1073725440,20730,0,66560,66608,6,6,4,1448,151,1,996,230,33304,0,66608,0,0,0,1
o,0x3153ed8a,1556708349.097908,10.1.1.67,22,10.1.1.11,18879,1073725440,20730,0,66560,66608,6,6,5,1448,151,1,997,230,33304,0,66608,36,0,0,1
o,0x7a1f8129,1556708349.098035,10.1.1.67,22,10.1.1.11,18879,1073725440,20730,0,66560,66608,6,6,8,1448,151,1,996,230,33304,0,0,0,0,0,1
i,0x257792e9,1556708349.098298,10.1.1.67,22,10.1.1.11,18879,1073725440,20730,0,66560,66608,6,6,8,1448,151,1,1012,230,33304,0,0,0,1,0,1
i,0xa07bc249,1556708349.167730,10.1.1.67,22,10.1.1.11,28300,1073725440,14481,0,66560,66608,6,6,4,1448,174,1,16778208,235,33304,0,66608,0,0,0,0
o,0x1fa3618a,1556708349.171959,10.1.1.67,22,10.1.1.11,28300,1073725440,14481,0,66560,66608,6,6,4,1448,174,1,16778208,235,33304,49,66608,25,0,0,0
o,0x03b619e7,1556708349.172445,10.1.1.67,22,10.1.1.11,28300,1073725440,14481,0,66560,66608,6,6,4,1448,174,1,16778208,235,33304,1697,66608,0,49,0,0
i,0xe8f69ce7,1556708349.172462,10.1.1.67,22,10.1.1.11,28300,1073725440,14481,0,66560,66608,6,6,4,1448,174,1,16778208,235,33304,1697,66608,0,1497,0,0
i,0xe6dd014a,1556708349.267284,10.1.1.67,22,10.1.1.11,28300,1073725440,14530,0,66560,66608,6,6,4,1448,153,1,992,232,33304,1648,66608,0,1448,0,1
o,0xa35c1ea5,1556708349.267289,10.1.1.67,22,10.1.1.11,28300,1073725440,15978,0,66560,66608,6,6,4,1448,514,1,16778208,327,33304,200,66608,0,0,0,96
i,0x007c4ed1,1556708349.279521,10.1.1.67,22,10.1.1.11,28300,1073725440,15978,0,66560,66608,6,6,4,1448,514,1,16778208,327,33304,200,66608,0,200,0,96
o,0xc4b26e29,1556708349.281476,10.1.1.67,22,10.1.1.11,28300,1073725440,16178,0,66560,66608,6,6,4,1448,498,1,16778208,303,33304,848,66608,0,0,0,13
i,0x28cc63d9,1556708349.297548,10.1.1.67,22,10.1.1.11,28300,1073725440,16178,0,66560,66608,6,6,4,1448,498,1,16778208,303,33304,848,66608,0,848,0,13
o,0x4a424f0a,1556708349.396666,10.1.1.67,22,10.1.1.11,28300,1073725440,17026,0,66560,66608,6,6,4,1448,500,1,993,281,33304,0,66608,0,0,0,17
i,0x0d51041c,1556708349.396934,10.1.1.67,22,10.1.1.11,28300,1073725440,17026,0,66560,66608,6,6,4,1448,500,1,992,281,33304,0,66608,0,0,0,17
o,0x36b60e9f,1556708349.396956,10.1.1.67,22,10.1.1.11,28300,1073725440,17026,0,66560,66608,6,6,4,1448,500,1,16778208,281,33304,52,66608,0,0,0,17
i,0x6507a547,1556708349.431759,10.1.1.67,22,10.1.1.11,28300,1073725440,17026,0,66560,66608,6,6,4,1448,500,1,16778208,281,33304,52,66608,0,52,0,17
o,0x04ffdd86,1556708349.435022,10.1.1.67,22,10.1.1.11,28300,1073725440,17078,0,66560,66608,6,6,4,1448,578,1,16778208,287,33304,68,66608,0,0,0,36
i,0xd4ba1a78,1556708349.446434,10.1.1.67,22,10.1.1.11,28300,1073725440,17078,0,66560,66608,6,6,4,1448,578,1,16778208,287,33304,68,66608,0,68,0,36
o,0x168ee07e,1556708349.446447,10.1.1.67,22,10.1.1.11,28300,1073725440,17146,0,66560,66608,6,6,4,1448,550,1,16778208,276,33304,52,66608,0,0,0,12
i,0xe973a34b,1556708349.446900,10.1.1.67,22,10.1.1.11,28300,1073725440,17146,0,66560,66608,6,6,4,1448,550,1,16778208,276,33304,52,66608,0,52,0,12
o,0xe54a9723,1556708349.446943,10.1.1.67,22,10.1.1.11,28300,1073725440,17198,0,66560,66608,6,6,4,1448,486,1,16778208,275,33304,68,66608,0,0,0,2
i,0xdb5772dc,1556708349.466379,10.1.1.67,22,10.1.1.11,28300,1073725440,17198,0,66560,66608,6,6,4,1448,486,1,16778208,275,33304,68,66608,0,68,0,2
o,0xe7ac525e,1556708349.466391,10.1.1.67,22,10.1.1.11,28300,1073725440,17266,0,66560,66608,6,6,4,1448,502,1,16778208,264,33304,52,66608,0,0,0,20
i,0xc6ccf995,1556708349.466870,10.1.1.67,22,10.1.1.11,28300,1073725440,17266,0,66560,66608,6,6,4,1448,502,1,16778208,264,33304,52,66608,0,52,0,20
o,0xc41e9ad5,1556708349.467313,10.1.1.67,22,10.1.1.11,28300,1073725440,17318,0,66560,66608,6,6,4,1448,444,1,16778208,265,33304,100,66608,0,0,0,2
i,0x864c669c,1556708349.467758,10.1.1.67,22,10.1.1.11,28300,1073725440,17318,0,66560,66608,6,6,4,1448,444,1,16778208,265,33304,100,66608,0,100,0,2
o,0x76a74bb8,1556708349.471142,10.1.1.67,22,10.1.1.11,28300,1073725440,17418,0,66560,66608,6,6,4,1448,393,1,16778208,263,33304,52,66608,0,0,0,2
i,0x60e134f4,1556708349.471561,10.1.1.67,22,10.1.1.11,28300,1073725440,17418,0,66560,66608,6,6,4,1448,393,1,16778208,263,33304,52,66608,0,52,0,2
o,0xba7f8a54,1556708349.471606,10.1.1.67,22,10.1.1.11,28300,1073725440,17470,0,66560,66608,6,6,4,1448,344,1,16778208,261,33304,36,66608,0,0,0,1
i,0x87d17006,1556708349.486654,10.1.1.67,22,10.1.1.11,28300,1073725440,17470,0,66560,66608,6,6,4,1448,344,1,16778208,261,33304,36,66608,0,36,0,1
o,0xa9e42bf7,1556708349.486701,10.1.1.67,22,10.1.1.11,28300,1073725440,17506,0,66560,66608,6,6,4,1448,361,1,16778208,253,33304,52,66608,0,0,0,16
i,0x534bbbaa,1556708349.506547,10.1.1.67,22,10.1.1.11,28300,1073725440,17506,0,66560,66608,6,6,4,1448,361,1,16778208,253,33304,52,66608,0,52,0,16
o,0xbda7fab5,1556708349.506642,10.1.1.67,22,10.1.1.11,28300,1073725440,17558,0,66560,66608,6,6,4,1448,392,1,16778208,252,33304,36,66608,0,0,0,20
i,0xd551afe6,1556708349.507390,10.1.1.67,22,10.1.1.11,28300,1073725440,17558,0,66560,66608,6,6,4,1448,392,1,16778208,252,33304,36,66608,0,36,0,20
o,0x21997221,1556708349.507595,10.1.1.67,22,10.1.1.11,28300,1073725440,17594,0,66560,66608,6,6,4,1448,343,1,16778212,252,33304,88,66608,0,0,0,1
o,0x78baee3a,1556708349.513155,10.1.1.67,22,10.1.1.11,28300,1073725440,17594,0,66560,66608,6,6,4,1448,343,1,16778212,252,33304,140,66608,0,88,0,1
i,0x43dae78b,1556708349.513409,10.1.1.67,22,10.1.1.11,28300,1073725440,17594,0,66560,66608,6,6,4,1448,343,1,16778212,252,33304,140,66608,0,140,0,1
o,0xa0aedbe8,1556708349.515060,10.1.1.67,22,10.1.1.11,28300,1073725440,17734,0,66496,66608,6,6,4,1448,321,1,16778212,247,33304,132,66608,0,0,0,1
o,0xb1db572d,1556708349.515069,10.1.1.67,22,10.1.1.11,28300,1073725440,17734,0,66496,66608,6,6,4,1448,321,1,16778212,247,33304,216,66608,0,132,0,1
i,0x2d5b258b,1556708349.515317,10.1.1.67,22,10.1.1.11,28300,1073725440,17734,0,66496,66608,6,6,4,1448,321,1,16778212,247,33304,216,66608,0,216,0,1
o,0xb33b549c,1556708349.619918,10.1.1.67,22,10.1.1.11,28300,1073725440,17950,0,66368,66608,6,6,4,1448,281,1,16778212,246,33304,52,66608,0,0,0,1
o,0x59b72839,1556708349.620307,10.1.1.67,22,10.1.1.11,28300,1073725440,17950,0,66368,66608,6,6,4,1448,281,1,16778212,246,33304,192,66608,0,52,0,1
i,0x2b1c64aa,1556708349.620554,10.1.1.67,22,10.1.1.11,28300,1073725440,17950,0,66368,66608,6,6,4,1448,281,1,16778212,246,33304,192,66608,0,192,0,1
i,0x993bd553,1556708349.620891,10.1.1.67,22,10.1.1.11,28300,1073725440,18142,0,66432,66608,6,6,4,1448,246,1,996,244,33304,0,66608,0,0,0,1
o,0xcd4558ea,1556708349.726839,10.1.1.67,22,10.1.1.11,28300,1073725440,18142,0,66560,66608,6,6,4,1448,246,1,997,244,33304,0,66608,0,0,0,1
i,0x5be95f8f,1556708349.727107,10.1.1.67,22,10.1.1.11,28300,1073725440,18142,0,66560,66608,6,6,4,1448,246,1,996,244,33304,0,66608,0,0,0,1
o,0xf9d3aebb,1556708349.727149,10.1.1.67,22,10.1.1.11,28300,1073725440,18142,0,66560,66608,6,6,4,1448,246,1,16778212,244,33304,52,66608,0,0,0,1
i,0xd902d5c9,1556708349.746432,10.1.1.67,22,10.1.1.11,28300,1073725440,18142,0,66560,66608,6,6,4,1448,246,1,16778212,244,33304,52,66608,0,52,0,1
o,0xae444844,1556708349.746639,10.1.1.67,22,10.1.1.11,28300,1073725440,18194,0,66560,66608,6,6,4,1448,292,1,16778212,248,33304,88,66608,0,0,0,1
o,0x78f02013,1556708349.752300,10.1.1.67,22,10.1.1.11,28300,1073725440,18194,0,66560,66608,6,6,4,1448,292,1,16778212,248,33304,124,66608,0,88,0,1
o,0x697d778a,1556708349.752366,10.1.1.67,22,10.1.1.11,28300,1073725440,18194,0,66560,66608,6,6,4,1448,292,1,16778212,248,33304,228,66608,0,124,0,1
i,0xc6eae92a,1556708349.752567,10.1.1.67,22,10.1.1.11,28300,1073725440,18194,0,66560,66608,6,6,4,1448,292,1,16778212,248,33304,228,66608,0,228,0,1
i,0x229d95f3,1556708349.752972,10.1.1.67,22,10.1.1.11,28300,1073725440,18318,0,66560,66608,6,6,4,1448,276,1,996,242,33304,104,66608,0,104,0,1
i,0x0038a894,1556708349.768059,10.1.1.67,22,10.1.1.11,28300,1073725440,18422,0,66560,66608,6,6,4,1448,246,1,996,240,33304,0,66608,0,0,0,1
o,0x769aa00b,1556708349.768064,10.1.1.67,22,10.1.1.11,28300,1073725440,18422,0,66560,66608,6,6,5,1448,246,1,997,240,33304,0,66608,36,0,0,1
o,0x842d988b,1556708349.768188,10.1.1.67,22,10.1.1.11,28300,1073725440,18422,0,66560,66608,6,6,8,1448,246,1,996,240,33304,0,0,0,0,0,1
i,0x2336704b,1556708349.768436,10.1.1.67,22,10.1.1.11,28300,1073725440,18422,0,66560,66608,6,6,8,1448,246,1,1012,240,33304,0,0,0,1,0,1
i,0x85068bbd,1556708350.727331,10.1.1.67,22,10.1.1.11,20407,1073725440,28062,0,66560,66608,6,6,4,1448,133,1,996,230,33304,0,66608,0,0,0,2
o,0xed8ce137,1556708350.727363,10.1.1.67,22,10.1.1.11,20407,1073725440,28062,0,66560,66608,6,6,4,1448,133,1,16778212,230,33304,52,66608,0,0,0,2
i,0x8e5371eb,1556708350.747251,10.1.1.67,22,10.1.1.11,20407,1073725440,28062,0,66560,66608,6,6,4,1448,133,1,16778212,230,33304,52,66608,0,52,0,2
o,0x524a1d4f,1556708350.747339,10.1.1.67,22,10.1.1.11,20407,1073725440,28114,0,66560,66608,6,6,4,1448,197,1,16778212,237,33304,36,66608,0,0,0,21
i,0x8bc25d18,1556708350.747911,10.1.1.67,22,10.1.1.11,20407,1073725440,28114,0,66560,66608,6,6,4,1448,197,1,16778212,237,33304,36,66608,0,36,0,21
o,0x8b50e9e3,1556708350.748151,10.1.1.67,22,10.1.1.11,20407,1073725440,28150,0,66560,66608,6,6,4,1448,177,1,16778212,234,33304,88,66608,0,0,0,2
o,0x399decbd,1556708350.753683,10.1.1.67,22,10.1.1.11,20407,1073725440,28150,0,66560,66608,6,6,4,1448,177,1,16778212,234,33304,140,66608,0,88,0,2
i,0x02d39347,1556708350.753946,10.1.1.67,22,10.1.1.11,20407,1073725440,28150,0,66560,66608,6,6,4,1448,177,1,16778212,234,33304,140,66608,0,140,0,2
o,0xf9caff38,1556708350.860920,10.1.1.67,22,10.1.1.11,20407,1073725440,28290,0,66496,66608,6,6,4,1448,179,1,16778212,230,33304,52,66608,0,0,0,1
o,0x40fe7dd2,1556708350.861270,10.1.1.67,22,10.1.1.11,20407,1073725440,28290,0,66496,66608,6,6,4,1448,179,1,16778212,230,33304,192,66608,0,52,0,1
i,0xa38d97a8,1556708350.861530,10.1.1.67,22,10.1.1.11,20407,1073725440,28290,0,66496,66608,6,6,4,1448,179,1,16778212,230,33304,192,66608,0,192,0,1
i,0x075e9a53,1556708350.861947,10.1.1.67,22,10.1.1.11,20407,1073725440,28482,0,66432,66608,6,6,4,1448,157,1,996,230,33304,0,66608,0,0,0,1
o,0xf19dce89,1556708350.967838,10.1.1.67,22,10.1.1.11,20407,1073725440,28482,0,66560,66608,6,6,4,1448,157,1,997,230,33304,0,66608,0,0,0,1
i,0x2e77ba2e,1556708350.968095,10.1.1.67,22,10.1.1.11,20407,1073725440,28482,0,66560,66608,6,6,4,1448,157,1,996,230,33304,0,66608,0,0,0,1
o,0x36aae89d,1556708350.968133,10.1.1.67,22,10.1.1.11,20407,1073725440,28482,0,66560,66608,6,6,4,1448,157,1,16778212,230,33304,52,66608,0,0,0,1
i,0xe4e56e69,1556708350.987445,10.1.1.67,22,10.1.1.11,20407,1073725440,28482,0,66560,66608,6,6,4,1448,157,1,16778212,230,33304,52,66608,0,52,0,1
o,0xa85a4327,1556708350.987656,10.1.1.67,22,10.1.1.11,20407,1073725440,28534,0,66560,66608,6,6,4,1448,214,1,16778212,237,33304,88,66608,0,0,0,1
o,0x224667d0,1556708350.993296,10.1.1.67,22,10.1.1.11,20407,1073725440,28534,0,66560,66608,6,6,4,1448,214,1,16778212,237,33304,124,66608,0,88,0,1
o,0x7998d42c,1556708350.993359,10.1.1.67,22,10.1.1.11,20407,1073725440,28534,0,66560,66608,6,6,4,1448,214,1,16778212,237,33304,228,66608,0,124,0,1
i,0xb9d2b287,1556708350.993559,10.1.1.67,22,10.1.1.11,20407,1073725440,28534,0,66560,66608,6,6,4,1448,214,1,16778212,237,33304,228,66608,0,228,0,1
i,0xd94f9ad4,1556708350.993950,10.1.1.67,22,10.1.1.11,20407,1073725440,28658,0,66560,66608,6,6,4,1448,208,1,996,231,33304,104,66608,0,104,0,1
o,0xa69cc168,1556708351.099838,10.1.1.67,22,10.1.1.11,20407,1073725440,28762,0,66560,66608,6,6,4,1448,186,1,997,230,33304,0,66608,0,0,0,1
i,0x46cf536b,1556708351.100094,10.1.1.67,22,10.1.1.11,20407,1073725440,28762,0,66560,66608,6,6,4,1448,186,1,996,230,33304,0,66608,0,0,0,1
o,0x7b9a29fb,1556708351.100132,10.1.1.67,22,10.1.1.11,20407,1073725440,28762,0,66560,66608,6,6,4,1448,186,1,16778212,230,33304,52,66608,0,0,0,1
i,0x5a22a76c,1556708351.117507,10.1.1.67,22,10.1.1.11,20407,1073725440,28762,0,66560,66608,6,6,4,1448,186,1,16778212,230,33304,52,66608,0,52,0,1
o,0x3691bd8f,1556708351.117583,10.1.1.67,22,10.1.1.11,20407,1073725440,28814,0,66560,66608,6,6,4,1448,231,1,16778212,236,33304,36,66608,0,0,0,18
i,0xedd8ede6,1556708351.118168,10.1.1.67,22,10.1.1.11,20407,1073725440,28814,0,66560,66608,6,6,4,1448,231,1,16778212,236,33304,36,66608,0,36,0,18
o,0xbaa4bca0,1556708351.118363,10.1.1.67,22,10.1.1.11,20407,1073725440,28850,0,66560,66608,6,6,4,1448,207,1,16778212,234,33304,88,66608,0,0,0,2
o,0x98e4ec98,1556708351.123788,10.1.1.67,22,10.1.1.11,20407,1073725440,28850,0,66560,66608,6,6,4,1448,207,1,16778212,234,33304,140,66608,0,88,0,2
i,0x00c6ed09,1556708351.124053,10.1.1.67,22,10.1.1.11,20407,1073725440,28850,0,66560,66608,6,6,4,1448,207,1,16778212,234,33304,140,66608,0,140,0,2
o,0x0ce7afdb,1556708351.230911,10.1.1.67,22,10.1.1.11,20407,1073725440,28990,0,66496,66608,6,6,4,1448,206,1,16778212,230,33304,52,66608,0,0,0,1
o,0xea211479,1556708351.231244,10.1.1.67,22,10.1.1.11,20407,1073725440,28990,0,66496,66608,6,6,4,1448,206,1,16778212,230,33304,192,66608,0,52,0,1
i,0xa85d2bc7,1556708351.231504,10.1.1.67,22,10.1.1.11,20407,1073725440,28990,0,66496,66608,6,6,4,1448,206,1,16778212,230,33304,192,66608,0,192,0,1
i,0xf6857e6e,1556708351.231843,10.1.1.67,22,10.1.1.11,20407,1073725440,29182,0,66432,66608,6,6,4,1448,181,1,996,230,33304,0,66608,0,0,0,1
o,0xdc278c07,1556708351.337838,10.1.1.67,22,10.1.1.11,20407,1073725440,29182,0,66560,66608,6,6,4,1448,181,1,997,230,33304,0,66608,0,0,0,1
i,0xee9e7668,1556708351.338095,10.1.1.67,22,10.1.1.11,20407,1073725440,29182,0,66560,66608,6,6,4,1448,181,1,996,230,33304,0,66608,0,0,0,1
o,0x0e2bf8b9,1556708351.338134,10.1.1.67,22,10.1.1.11,20407,1073725440,29182,0,66560,66608,6,6,4,1448,181,1,16778212,230,33304,52,66608,0,0,0,1
i,0x67e1c7eb,1556708351.356445,10.1.1.67,22,10.1.1.11,20407,1073725440,29182,0,66560,66608,6,6,4,1448,181,1,16778212,230,33304,52,66608,0,52,0,1
o,0xea38a827,1556708351.356652,10.1.1.67,22,10.1.1.11,20407,1073725440,29234,0,66560,66608,6,6,4,1448,231,1,16778212,236,33304,88,66608,0,0,0,1
o,0x5bf9bd92,1556708351.362272,10.1.1.67,22,10.1.1.11,20407,1073725440,29234,0,66560,66608,6,6,4,1448,231,1,16778212,236,33304,124,66608,0,88,0,1
o,0x8808428b,1556708351.362329,10.1.1.67,22,10.1.1.11,20407,1073725440,29234,0,66560,66608,6,6,4,1448,231,1,16778212,236,33304,228,66608,0,124,0,1
i,0xfe42cf49,1556708351.362535,10.1.1.67,22,10.1.1.11,20407,1073725440,29234,0,66560,66608,6,6,4,1448,231,1,16778212,236,33304,228,66608,0,228,0,1
i,0xad9f20f0,1556708351.362913,10.1.1.67,22,10.1.1.11,20407,1073725440,29358,0,66560,66608,6,6,4,1448,223,1,996,231,33304,104,66608,0,104,0,1
o,0xe09c7868,1556708351.468839,10.1.1.67,22,10.1.1.11,20407,1073725440,29462,0,66560,66608,6,6,4,1448,200,1,997,230,33304,0,66608,0,0,0,1
i,0xc57afcd2,1556708351.469094,10.1.1.67,22,10.1.1.11,20407,1073725440,29462,0,66560,66608,6,6,4,1448,200,1,996,230,33304,0,66608,0,0,0,1
o,0xced66987,1556708351.574837,10.1.1.67,22,10.1.1.11,20407,1073725440,29462,0,66560,66608,6,6,4,1448,200,1,997,230,33304,0,66608,0,0,0,1
#o,0x6f4f4db5,1556708355.759126,172.16.11.67,48451,172.16.10.65,5000,1073725440,1073725440,0,0,0,0,0,2,536,0,1,672,3000,1048576,0,1048576,0,0,0,0
#i,0x4a0b02f0,1556708355.861092,172.16.11.67,48451,172.16.10.65,5000,1073725440,1073725440,0,0,0,0,0,2,536,0,1,672,3000,1048576,0,1048576,0,1,0,0
o,0xe6d2a3da,1556708355.861099,172.16.11.67,48451,172.16.10.65,5000,1073725440,14480,0,65535,1049800,6,6,4,1448,3296,1,16778209,509,1049800,0,1049800,0,0,0,0
o,0x44b8aafa,1556708355.861115,172.16.11.67,48451,172.16.10.65,5000,1073725440,14480,0,65535,1049800,6,6,4,1448,3296,1,16778208,509,1049800,28,1049800,0,0,0,0
o,0xf563efa5,1556708355.861144,172.16.11.67,48451,172.16.10.65,5000,1073725440,14480,0,65535,1049800,6,6,4,1448,3296,1,16778208,509,1049800,131100,1049800,0,28,0,0
o,0xaf5ca843,1556708355.861148,172.16.11.67,48451,172.16.10.65,5000,1073725440,14480,0,65535,1049800,6,6,4,1448,3296,1,16778208,509,1049800,131100,1049800,0,1476,0,0
o,0xf0350ba2,1556708355.861151,172.16.11.67,48451,172.16.10.65,5000,1073725440,14480,0,65535,1049800,6,6,4,1448,3296,1,16778208,509,1049800,131100,1049800,0,2924,0,0
o,0x630d9b03,1556708355.861155,172.16.11.67,48451,172.16.10.65,5000,1073725440,14480,0,65535,1049800,6,6,4,1448,3296,1,16778208,509,1049800,131100,1049800,0,4372,0,0
o,0x79300b83,1556708355.861158,172.16.11.67,48451,172.16.10.65,5000,1073725440,14480,0,65535,1049800,6,6,4,1448,3296,1,16778208,509,1049800,131100,1049800,0,5820,0,0
o,0x9f345be2,1556708355.861162,172.16.11.67,48451,172.16.10.65,5000,1073725440,14480,0,65535,1049800,6,6,4,1448,3296,1,16778208,509,1049800,131100,1049800,0,7268,0,0
o,0x30199543,1556708355.861165,172.16.11.67,48451,172.16.10.65,5000,1073725440,14480,0,65535,1049800,6,6,4,1448,3296,1,16778208,509,1049800,131100,1049800,0,8716,0,0
o,0x45162fc3,1556708355.861169,172.16.11.67,48451,172.16.10.65,5000,1073725440,14480,0,65535,1049800,6,6,4,1448,3296,1,16778208,509,1049800,131100,1049800,0,10164,0,0
o,0x1f08de22,1556708355.861173,172.16.11.67,48451,172.16.10.65,5000,1073725440,14480,0,65535,1049800,6,6,4,1448,3296,1,16778208,509,1049800,131100,1049800,0,11612,0,0
i,0x679bdb39,1556708355.963090,172.16.11.67,48451,172.16.10.65,5000,1073725440,14480,0,65535,1049800,6,6,4,1448,3296,1,16778208,509,1049800,1048604,1049800,0,13060,0,0
i,0xf819e239,1556708355.965083,172.16.11.67,48451,172.16.10.65,5000,1073725440,14480,0,1049792,1049800,6,6,4,1448,3296,1,16778208,509,1049800,1048604,1049800,0,13060,0,0
o,0x7d6416a2,1556708355.965087,172.16.11.67,48451,172.16.10.65,5000,1073725440,15956,0,1048320,1049800,6,6,4,1448,3300,1,16778208,458,1049800,1047128,1049800,0,11584,0,105
o,0xa3686701,1556708355.965092,172.16.11.67,48451,172.16.10.65,5000,1073725440,15956,0,1048320,1049800,6,6,4,1448,3300,1,16778208,458,1049800,1047128,1049800,0,13032,0,105
o,0x44266ea1,1556708355.965095,172.16.11.67,48451,172.16.10.65,5000,1073725440,15956,0,1048320,1049800,6,6,4,1448,3300,1,16778208,458,1049800,1047128,1049800,0,14480,0,105
i,0xb8226358,1556708355.970090,172.16.11.67,48451,172.16.10.65,5000,1073725440,15956,0,1048320,1049800,6,6,4,1448,3300,1,16778208,458,1049800,1049800,1049800,0,15928,0,105
o,0xc1883a21,1556708355.970093,172.16.11.67,48451,172.16.10.65,5000,1073725440,18852,0,1048320,1049800,6,6,4,1448,3324,1,16778208,426,1049800,1046904,1049800,0,13032,0,110
o,0x9b7ae880,1556708355.970097,172.16.11.67,48451,172.16.10.65,5000,1073725440,18852,0,1048320,1049800,6,6,4,1448,3324,1,16778208,426,1049800,1046904,1049800,0,14480,0,110
o,0x765f02e1,1556708355.970101,172.16.11.67,48451,172.16.10.65,5000,1073725440,18852,0,1048320,1049800,6,6,4,1448,3324,1,16778208,426,1049800,1046904,1049800,0,15928,0,110
o,0x70878a61,1556708355.970104,172.16.11.67,48451,172.16.10.65,5000,1073725440,18852,0,1048320,1049800,6,6,4,1448,3324,1,16778208,426,1049800,1046904,1049800,0,17376,0,110
i,0x3cf24958,1556708355.975090,172.16.11.67,48451,172.16.10.65,5000,1073725440,18852,0,1048320,1049800,6,6,4,1448,3324,1,16778208,426,1049800,1049800,1049800,0,18824,0,110
o,0xd0ec13c0,1556708355.975093,172.16.11.67,48451,172.16.10.65,5000,1073725440,21748,0,1048320,1049800,6,6,4,1448,3365,1,16778208,407,1049800,1046904,1049800,0,15928,0,115
o,0xaaaa5821,1556708355.975097,172.16.11.67,48451,172.16.10.65,5000,1073725440,21748,0,1048320,1049800,6,6,4,1448,3365,1,16778208,407,1049800,1046904,1049800,0,17376,0,115
o,0x58c13da1,1556708355.975100,172.16.11.67,48451,172.16.10.65,5000,1073725440,21748,0,1048320,1049800,6,6,4,1448,3365,1,16778208,407,1049800,1046904,1049800,0,18824,0,115
o,0xf36a9241,1556708355.975104,172.16.11.67,48451,172.16.10.65,5000,1073725440,21748,0,1048320,1049800,6,6,4,1448,3365,1,16778208,407,1049800,1046904,1049800,0,20272,0,115
i,0x2773f8f9,1556708355.980091,172.16.11.67,48451,172.16.10.65,5000,1073725440,21748,0,1048320,1049800,6,6,4,1448,3365,1,16778208,407,1049800,1049800,1049800,0,21720,0,115
o,0x1ab9f4a2,1556708355.980093,172.16.11.67,48451,172.16.10.65,5000,1073725440,24644,0,1048320,1049800,6,6,4,1448,3421,1,16778208,397,1049800,1046904,1049800,0,18824,0,120
o,0xe6dd8422,1556708355.980097,172.16.11.67,48451,172.16.10.65,5000,1073725440,24644,0,1048320,1049800,6,6,4,1448,3421,1,16778208,397,1049800,1046904,1049800,0,20272,0,120
o,0x27b5e781,1556708355.980101,172.16.11.67,48451,172.16.10.65,5000,1073725440,24644,0,1048320,1049800,6,6,4,1448,3421,1,16778208,397,1049800,1046904,1049800,0,21720,0,120
o,0x9a8e76e2,1556708355.980104,172.16.11.67,48451,172.16.10.65,5000,1073725440,24644,0,1048320,1049800,6,6,4,1448,3421,1,16778208,397,1049800,1046904,1049800,0,23168,0,120
i,0x8ab1cf58,1556708355.984089,172.16.11.67,48451,172.16.10.65,5000,1073725440,24644,0,1048320,1049800,6,6,4,1448,3421,1,16778208,397,1049800,1049800,1049800,0,24616,0,120
o,0xd101db62,1556708355.984091,172.16.11.67,48451,172.16.10.65,5000,1073725440,27540,0,1048320,1049800,6,6,4,1448,3486,1,16778208,393,1049800,1046904,1049800,0,21720,0,124
o,0xf7062bc1,1556708355.984095,172.16.11.67,48451,172.16.10.65,5000,1073725440,27540,0,1048320,1049800,6,6,4,1448,3486,1,16778208,393,1049800,1046904,1049800,0,23168,0,124
o,0x87eb6522,1556708355.984099,172.16.11.67,48451,172.16.10.65,5000,1073725440,27540,0,1048320,1049800,6,6,4,1448,3486,1,16778208,393,1049800,1046904,1049800,0,24616,0,124
o,0x9ce7ffa2,1556708355.984103,172.16.11.67,48451,172.16.10.65,5000,1073725440,27540,0,1048320,1049800,6,6,4,1448,3486,1,16778208,393,1049800,1046904,1049800,0,26064,0,124
i,0x9edd1398,1556708356.071089,172.16.11.67,48451,172.16.10.65,5000,1073725440,27540,0,1048320,1049800,6,6,4,1448,3486,1,16778208,393,1049800,1049800,1049800,0,27512,0,124
o,0xb59d99c3,1556708356.071091,172.16.11.67,48451,172.16.10.65,5000,1073725440,30436,0,1048320,1049800,6,6,4,1448,3475,1,16778208,374,1049800,1046904,1049800,0,24616,0,107
o,0xcbc00a43,1556708356.071095,172.16.11.67,48451,172.16.10.65,5000,1073725440,30436,0,1048320,1049800,6,6,4,1448,3475,1,16778208,374,1049800,1046904,1049800,0,26064,0,107
o,0xc5e891c3,1556708356.071099,172.16.11.67,48451,172.16.10.65,5000,1073725440,30436,0,1048320,1049800,6,6,4,1448,3475,1,16778208,374,1049800,1046904,1049800,0,27512,0,107
o,0x82a99403,1556708356.071102,172.16.11.67,48451,172.16.10.65,5000,1073725440,30436,0,1048320,1049800,6,6,4,1448,3475,1,16778208,374,1049800,1046904,1049800,0,28960,0,107
i,0x23acf998,1556708356.076093,172.16.11.67,48451,172.16.10.65,5000,1073725440,30436,0,1048320,1049800,6,6,4,1448,3475,1,16778208,374,1049800,1049800,1049800,0,30408,0,107
o,0x000b5f83,1556708356.076096,172.16.11.67,48451,172.16.10.65,5000,1073725440,33332,0,1048320,1049800,6,6,4,1448,3485,1,16778208,361,1049800,1046904,1049800,0,27512,0,107
o,0xae224503,1556708356.076100,172.16.11.67,48451,172.16.10.65,5000,1073725440,33332,0,1048320,1049800,6,6,4,1448,3485,1,16778208,361,1049800,1046904,1049800,0,28960,0,107
o,0xb4e22843,1556708356.076103,172.16.11.67,48451,172.16.10.65,5000,1073725440,33332,0,1048320,1049800,6,6,4,1448,3485,1,16778208,361,1049800,1046904,1049800,0,30408,0,107
o,0xaf0aafc3,1556708356.076106,172.16.11.67,48451,172.16.10.65,5000,1073725440,33332,0,1048320,1049800,6,6,4,1448,3485,1,16778208,361,1049800,1046904,1049800,0,31856,0,107
i,0xddc98479,1556708356.081089,172.16.11.67,48451,172.16.10.65,5000,1073725440,33332,0,1048320,1049800,6,6,4,1448,3485,1,16778208,361,1049800,1049800,1049800,0,33304,0,107
o,0xe3937043,1556708356.081092,172.16.11.67,48451,172.16.10.65,5000,1073725440,36228,0,1048320,1049800,6,6,4,1448,3494,1,16778208,350,1049800,1046904,1049800,0,30408,0,112
o,0xe92d7d83,1556708356.081096,172.16.11.67,48451,172.16.10.65,5000,1073725440,36228,0,1048320,1049800,6,6,4,1448,3494,1,16778208,350,1049800,1046904,1049800,0,31856,0,112
o,0x97446303,1556708356.081099,172.16.11.67,48451,172.16.10.65,5000,1073725440,36228,0,1048320,1049800,6,6,4,1448,3494,1,16778208,350,1049800,1046904,1049800,0,33304,0,112
o,0xad66d383,1556708356.081103,172.16.11.67,48451,172.16.10.65,5000,1073725440,36228,0,1048320,1049800,6,6,4,1448,3494,1,16778208,350,1049800,1046904,1049800,0,34752,0,112
i,0x9dd20598,1556708356.086090,172.16.11.67,48451,172.16.10.65,5000,1073725440,36228,0,1048320,1049800,6,6,4,1448,3494,1,16778208,350,1049800,1049800,1049800,0,36200,0,112
o,0x0091fec3,1556708356.086092,172.16.11.67,48451,172.16.10.65,5000,1073725440,39124,0,1048320,1049800,6,6,4,1448,3522,1,16778208,348,1049800,1046904,1049800,0,33304,0,112
o,0xccb58e43,1556708356.086096,172.16.11.67,48451,172.16.10.65,5000,1073725440,39124,0,1048320,1049800,6,6,4,1448,3522,1,16778208,348,1049800,1046904,1049800,0,34752,0,112
o,0x0d8df1a2,1556708356.086100,172.16.11.67,48451,172.16.10.65,5000,1073725440,39124,0,1048320,1049800,6,6,4,1448,3522,1,16778208,348,1049800,1046904,1049800,0,36200,0,112
o,0x80668103,1556708356.086103,172.16.11.67,48451,172.16.10.65,5000,1073725440,39124,0,1048320,1049800,6,6,4,1448,3522,1,16778208,348,1049800,1046904,1049800,0,37648,0,112
i,0xb15d19d9,1556708356.090090,172.16.11.67,48451,172.16.10.65,5000,1073725440,39124,0,1048320,1049800,6,6,4,1448,3522,1,16778208,348,1049800,1049800,1049800,0,39096,0,112
o,0xb6d9e583,1556708356.090093,172.16.11.67,48451,172.16.10.65,5000,1073725440,42020,0,1048320,1049800,6,6,4,1448,3542,1,16778208,344,1049800,1046904,1049800,0,36200,0,116
o,0xdcde35e2,1556708356.090097,172.16.11.67,48451,172.16.10.65,5000,1073725440,42020,0,1048320,1049800,6,6,4,1448,3542,1,16778208,344,1049800,1046904,1049800,0,37648,0,116
o,0x6dc36f43,1556708356.090100,172.16.11.67,48451,172.16.10.65,5000,1073725440,42020,0,1048320,1049800,6,6,4,1448,3542,1,16778208,344,1049800,1046904,1049800,0,39096,0,116
o,0x82c009c3,1556708356.090104,172.16.11.67,48451,172.16.10.65,5000,1073725440,42020,0,1048320,1049800,6,6,4,1448,3542,1,16778208,344,1049800,1046904,1049800,0,40544,0,116
i,0x9bdec97a,1556708356.095090,172.16.11.67,48451,172.16.10.65,5000,1073725440,42020,0,1048320,1049800,6,6,4,1448,3542,1,16778208,344,1049800,1049800,1049800,0,41992,0,116
o,0xc517e922,1556708356.095093,172.16.11.67,48451,172.16.10.65,5000,1073725440,44916,0,1048320,1049800,6,6,4,1448,3580,1,16778208,346,1049800,1046904,1049800,0,39096,0,116
o,0x9ffc0383,1556708356.095096,172.16.11.67,48451,172.16.10.65,5000,1073725440,44916,0,1048320,1049800,6,6,4,1448,3580,1,16778208,346,1049800,1046904,1049800,0,40544,0,116
o,0x9a248b03,1556708356.095100,172.16.11.67,48451,172.16.10.65,5000,1073725440,44916,0,1048320,1049800,6,6,4,1448,3580,1,16778208,346,1049800,1046904,1049800,0,41992,0,116
o,0x9223e362,1556708356.095103,172.16.11.67,48451,172.16.10.65,5000,1073725440,44916,0,1048320,1049800,6,6,4,1448,3580,1,16778208,346,1049800,1046904,1049800,0,43440,0,116
i,0x2b8225d9,1556708356.100090,172.16.11.67,48451,172.16.10.65,5000,1073725440,44916,0,1048320,1049800,6,6,4,1448,3580,1,16778208,346,1049800,1049800,1049800,0,44888,0,116
o,0xd44758c3,1556708356.100092,172.16.11.67,48451,172.16.10.65,5000,1073725440,47812,0,1048320,1049800,6,6,4,1448,3613,1,16778208,347,1049800,1046904,1049800,0,41992,0,121
o,0x825e3e43,1556708356.100096,172.16.11.67,48451,172.16.10.65,5000,1073725440,47812,0,1048320,1049800,6,6,4,1448,3613,1,16778208,347,1049800,1046904,1049800,0,43440,0,121
o,0xc45c77a2,1556708356.100099,172.16.11.67,48451,172.16.10.65,5000,1073725440,47812,0,1048320,1049800,6,6,4,1448,3613,1,16778208,347,1049800,1046904,1049800,0,44888,0,121
o,0x8346a903,1556708356.100103,172.16.11.67,48451,172.16.10.65,5000,1073725440,47812,0,1048320,1049800,6,6,4,1448,3613,1,16778208,347,1049800,1046904,1049800,0,46336,0,121
i,0xb0520bd9,1556708356.105090,172.16.11.67,48451,172.16.10.65,5000,1073725440,47812,0,1048320,1049800,6,6,4,1448,3613,1,16778208,347,1049800,1049800,1049800,0,47784,0,121
o,0xc7a837c2,1556708356.105092,172.16.11.67,48451,172.16.10.65,5000,1073725440,50708,0,1048320,1049800,6,6,4,1448,3662,1,16778208,352,1049800,1046904,1049800,0,44888,0,122
o,0x08809b21,1556708356.105096,172.16.11.67,48451,172.16.10.65,5000,1073725440,50708,0,1048320,1049800,6,6,4,1448,3662,1,16778208,352,1049800,1046904,1049800,0,46336,0,122
o,0x7b592a82,1556708356.105100,172.16.11.67,48451,172.16.10.65,5000,1073725440,50708,0,1048320,1049800,6,6,4,1448,3662,1,16778208,352,1049800,1046904,1049800,0,47784,0,122
o,0x917b9b02,1556708356.105103,172.16.11.67,48451,172.16.10.65,5000,1073725440,50708,0,1048320,1049800,6,6,4,1448,3662,1,16778208,352,1049800,1046904,1049800,0,49232,0,122
i,0x0db6047a,1556708356.110089,172.16.11.67,48451,172.16.10.65,5000,1073725440,50708,0,1048320,1049800,6,6,4,1448,3662,1,16778208,352,1049800,1049800,1049800,0,50680,0,122
o,0x1fe51c61,1556708356.110091,172.16.11.67,48451,172.16.10.65,5000,1073725440,53604,0,1048320,1049800,6,6,4,1448,3709,1,16778208,356,1049800,1046904,1049800,0,47784,0,127
o,0xb0ca55c2,1556708356.110095,172.16.11.67,48451,172.16.10.65,5000,1073725440,53604,0,1048320,1049800,6,6,4,1448,3709,1,16778208,356,1049800,1046904,1049800,0,49232,0,127
o,0xc5c6f042,1556708356.110098,172.16.11.67,48451,172.16.10.65,5000,1073725440,53604,0,1048320,1049800,6,6,4,1448,3709,1,16778208,356,1049800,1046904,1049800,0,50680,0,127
o,0x9fb99ea1,1556708356.110102,172.16.11.67,48451,172.16.10.65,5000,1073725440,53604,0,1048320,1049800,6,6,4,1448,3709,1,16778208,356,1049800,1046904,1049800,0,52128,0,127
i,0x8d3e8a99,1556708356.175091,172.16.11.67,48451,172.16.10.65,5000,1073725440,53604,0,1048320,1049800,6,6,4,1448,3709,1,16778208,356,1049800,1049800,1049800,0,53576,0,127
o,0x5baaa762,1556708356.175094,172.16.11.67,48451,172.16.10.65,5000,1073725440,56500,0,1048320,1049800,6,6,4,1448,4010,1,16778208,431,1049800,1046904,1049800,0,50680,0,105
o,0x1a94d8c3,1556708356.175098,172.16.11.67,48451,172.16.10.65,5000,1073725440,56500,0,1048320,1049800,6,6,4,1448,4010,1,16778208,431,1049800,1046904,1049800,0,52128,0,105
o,0x12943122,1556708356.175102,172.16.11.67,48451,172.16.10.65,5000,1073725440,56500,0,1048320,1049800,6,6,4,1448,4010,1,16778208,431,1049800,1046904,1049800,0,53576,0,105
o,0x2790cba2,1556708356.175105,172.16.11.67,48451,172.16.10.65,5000,1073725440,56500,0,1048320,1049800,6,6,4,1448,4010,1,16778208,431,1049800,1046904,1049800,0,55024,0,105
i,0xd000be99,1556708356.180091,172.16.11.67,48451,172.16.10.65,5000,1073725440,56500,0,1048320,1049800,6,6,4,1448,4010,1,16778208,431,1049800,1049800,1049800,0,56472,0,105
o,0x3e0ce222,1556708356.180093,172.16.11.67,48451,172.16.10.65,5000,1073725440,59396,0,1048320,1049800,6,6,4,1448,3945,1,16778208,419,1049800,1046904,1049800,0,53576,0,110
o,0x44ccc562,1556708356.180097,172.16.11.67,48451,172.16.10.65,5000,1073725440,59396,0,1048320,1049800,6,6,4,1448,3945,1,16778208,419,1049800,1046904,1049800,0,55024,0,110
o,0x3ef54ce2,1556708356.180100,172.16.11.67,48451,172.16.10.65,5000,1073725440,59396,0,1048320,1049800,6,6,4,1448,3945,1,16778208,419,1049800,1046904,1049800,0,56472,0,110
o,0xcfda8643,1556708356.180104,172.16.11.67,48451,172.16.10.65,5000,1073725440,59396,0,1048320,1049800,6,6,4,1448,3945,1,16778208,419,1049800,1046904,1049800,0,57920,0,110
i,0x5db7c37a,1556708356.184095,172.16.11.67,48451,172.16.10.65,5000,1073725440,59396,0,1048320,1049800,6,6,4,1448,3945,1,16778208,419,1049800,1049800,1049800,0,59368,0,110
o,0x3103dda2,1556708356.184097,172.16.11.67,48451,172.16.10.65,5000,1073725440,62292,0,1048320,1049800,6,6,4,1448,3904,1,16778208,404,1049800,1046904,1049800,0,56472,0,109
o,0xdf1ac322,1556708356.184101,172.16.11.67,48451,172.16.10.65,5000,1073725440,62292,0,1048320,1049800,6,6,4,1448,3904,1,16778208,404,1049800,1046904,1049800,0,57920,0,109
o,0x2118fc81,1556708356.184105,172.16.11.67,48451,172.16.10.65,5000,1073725440,62292,0,1048320,1049800,6,6,4,1448,3904,1,16778208,404,1049800,1046904,1049800,0,59368,0,109
o,0xe0032de2,1556708356.184108,172.16.11.67,48451,172.16.10.65,5000,1073725440,62292,0,1048320,1049800,6,6,4,1448,3904,1,16778208,404,1049800,1046904,1049800,0,60816,0,109
i,0xb22284ba,1556708356.189093,172.16.11.67,48451,172.16.10.65,5000,1073725440,62292,0,1048320,1049800,6,6,4,1448,3904,1,16778208,404,1049800,1049800,1049800,0,62264,0,109
o,0x148bee62,1556708356.189096,172.16.11.67,48451,172.16.10.65,5000,1073725440,65188,0,1048320,1049800,6,6,4,1448,3868,1,16778208,391,1049800,1046904,1049800,0,59368,0,114
o,0x1a25fba2,1556708356.189100,172.16.11.67,48451,172.16.10.65,5000,1073725440,65188,0,1048320,1049800,6,6,4,1448,3868,1,16778208,391,1049800,1046904,1049800,0,60816,0,114
o,0xc83ce122,1556708356.189103,172.16.11.67,48451,172.16.10.65,5000,1073725440,65188,0,1048320,1049800,6,6,4,1448,3868,1,16778208,391,1049800,1046904,1049800,0,62264,0,114
o,0xde5f51a2,1556708356.189107,172.16.11.67,48451,172.16.10.65,5000,1073725440,65188,0,1048320,1049800,6,6,4,1448,3868,1,16778208,391,1049800,1046904,1049800,0,63712,0,114
i,0x722b05d9,1556708356.194090,172.16.11.67,48451,172.16.10.65,5000,1073725440,65188,0,1048320,1049800,6,6,4,1448,3868,1,16778208,391,1049800,1049800,1049800,0,65160,0,114
o,0x318a7ce2,1556708356.194092,172.16.11.67,48451,172.16.10.65,5000,1073725440,68084,0,1048320,1049800,6,6,4,1448,3857,1,16778208,376,1049800,1046904,1049800,0,62264,0,114
o,0xfdae0c62,1556708356.194095,172.16.11.67,48451,172.16.10.65,5000,1073725440,68084,0,1048320,1049800,6,6,4,1448,3857,1,16778208,376,1049800,1046904,1049800,0,63712,0,114
o,0x12aaa6e2,1556708356.194099,172.16.11.67,48451,172.16.10.65,5000,1073725440,68084,0,1048320,1049800,6,6,4,1448,3857,1,16778208,376,1049800,1046904,1049800,0,65160,0,114
o,0xb15eff22,1556708356.194103,172.16.11.67,48451,172.16.10.65,5000,1073725440,68084,0,1048320,1049800,6,6,4,1448,3857,1,16778208,376,1049800,1046904,1049800,0,66608,0,114
i,0x2c4790ba,1556708356.199090,172.16.11.67,48451,172.16.10.65,5000,1073725440,68084,0,1048320,1049800,6,6,4,1448,3857,1,16778208,376,1049800,1049800,1049800,0,68056,0,114
o,0x2fe6a0a2,1556708356.199093,172.16.11.67,48451,172.16.10.65,5000,1073725440,70980,0,1048320,1049800,6,6,4,1448,3847,1,16778208,364,1049800,1046904,1049800,0,65160,0,119
o,0x2a0f2822,1556708356.199096,172.16.11.67,48451,172.16.10.65,5000,1073725440,70980,0,1048320,1049800,6,6,4,1448,3847,1,16778208,364,1049800,1046904,1049800,0,66608,0,119
o,0xe6d02a62,1556708356.199100,172.16.11.67,48451,172.16.10.65,5000,1073725440,70980,0,1048320,1049800,6,6,4,1448,3847,1,16778208,364,1049800,1046904,1049800,0,68056,0,119
o,0xfbccc4e2,1556708356.199103,172.16.11.67,48451,172.16.10.65,5000,1073725440,70980,0,1048320,1049800,6,6,4,1448,3847,1,16778208,364,1049800,1046904,1049800,0,69504,0,119
i,0x42f5e9f9,1556708356.204090,172.16.11.67,48451,172.16.10.65,5000,1073725440,70980,0,1048320,1049800,6,6,4,1448,3847,1,16778208,364,1049800,1049800,1049800,0,70952,0,119
o,0x1248db62,1556708356.204093,172.16.11.67,48451,172.16.10.65,5000,1073725440,73876,0,1048320,1049800,6,6,4,1448,3859,1,16778208,357,1049800,1046904,1049800,0,68056,0,119
o,0x544714c1,1556708356.204097,172.16.11.67,48451,172.16.10.65,5000,1073725440,73876,0,1048320,1049800,6,6,4,1448,3859,1,16778208,357,1049800,1046904,1049800,0,69504,0,119
o,0x7868f904,1556708356.204100,172.16.11.67,48451,172.16.10.65,5000,1073725440,73876,0,1048320,1049800,6,6,4,1448,3859,1,16778208,357,1049800,1046904,1049800,0,70952,0,119
o,0xa1376ea2,1556708356.204104,172.16.11.67,48451,172.16.10.65,5000,1073725440,73876,0,1048320,1049800,6,6,4,1448,3859,1,16778208,357,1049800,1046904,1049800,0,72400,0,119
i,0x75ce9b98,1556708356.208094,172.16.11.67,48451,172.16.10.65,5000,1073725440,73876,0,1048320,1049800,6,6,4,1448,3859,1,16778208,357,1049800,1049800,1049800,0,73848,0,119
o,0x603cbae2,1556708356.208097,172.16.11.67,48451,172.16.10.65,5000,1073725440,76772,0,1048320,1049800,6,6,4,1448,3865,1,16778208,349,1049800,1046904,1049800,0,70952,0,123
o,0x765f2b62,1556708356.208101,172.16.11.67,48451,172.16.10.65,5000,1073725440,76772,0,1048320,1049800,6,6,4,1448,3865,1,16778208,349,1049800,1046904,1049800,0,72400,0,123
o,0x7087b2e2,1556708356.208104,172.16.11.67,48451,172.16.10.65,5000,1073725440,76772,0,1048320,1049800,6,6,4,1448,3865,1,16778208,349,1049800,1046904,1049800,0,73848,0,123
o,0x2d48b522,1556708356.208107,172.16.11.67,48451,172.16.10.65,5000,1073725440,76772,0,1048320,1049800,6,6,4,1448,3865,1,16778208,349,1049800,1046904,1049800,0,75296,0,123
i,0xfa9e8198,1556708356.213091,172.16.11.67,48451,172.16.10.65,5000,1073725440,76772,0,1048320,1049800,6,6,4,1448,3865,1,16778208,349,1049800,1049800,1049800,0,76744,0,123
o,0xaaaa80a2,1556708356.213094,172.16.11.67,48451,172.16.10.65,5000,1073725440,79668,0,1048320,1049800,6,6,4,1448,3890,1,16778208,349,1049800,1046904,1049800,0,73848,0,124
o,0x58c16622,1556708356.213097,172.16.11.67,48451,172.16.10.65,5000,1073725440,79668,0,1048320,1049800,6,6,4,1448,3890,1,16778208,349,1049800,1046904,1049800,0,75296,0,124
o,0x5f814962,1556708356.213101,172.16.11.67,48451,172.16.10.65,5000,1073725440,79668,0,1048320,1049800,6,6,4,1448,3890,1,16778208,349,1049800,1046904,1049800,0,76744,0,124
o,0x59a9d0e2,1556708356.213104,172.16.11.67,48451,172.16.10.65,5000,1073725440,79668,0,1048320,1049800,6,6,4,1448,3890,1,16778208,349,1049800,1046904,1049800,0,78192,0,124
i,0x58027a39,1556708356.218090,172.16.11.67,48451,172.16.10.65,5000,1073725440,79668,0,1048320,1049800,6,6,4,1448,3890,1,16778208,349,1049800,1049800,1049800,0,79640,0,124
o,0x8e329162,1556708356.218092,172.16.11.67,48451,172.16.10.65,5000,1073725440,82564,0,1048320,1049800,6,6,4,1448,3916,1,16778208,349,1049800,1046904,1049800,0,76744,0,129
o,0xa3a56ce1,1556708356.218096,172.16.11.67,48451,172.16.10.65,5000,1073725440,82564,0,1048320,1049800,6,6,4,1448,3916,1,16778208,349,1049800,1046904,1049800,0,78192,0,129
o,0x51bc5261,1556708356.218100,172.16.11.67,48451,172.16.10.65,5000,1073725440,82564,0,1048320,1049800,6,6,4,1448,3916,1,16778208,349,1049800,1046904,1049800,0,79640,0,129
o,0x67dec2e1,1556708356.218103,172.16.11.67,48451,172.16.10.65,5000,1073725440,82564,0,1048320,1049800,6,6,4,1448,3916,1,16778208,349,1049800,1046904,1049800,0,81088,0,129
i,0x180afb58,1556708356.223090,172.16.11.67,48451,172.16.10.65,5000,1073725440,82564,0,1048320,1049800,6,6,4,1448,3916,1,16778208,349,1049800,1049800,1049800,0,82536,0,129
o,0xbb09ee21,1556708356.223092,172.16.11.67,48451,172.16.10.65,5000,1073725440,85460,0,1048320,1049800,6,6,4,1448,3959,1,16778208,355,1049800,1046904,1049800,0,79640,0,129
o,0x872d7da1,1556708356.223096,172.16.11.67,48451,172.16.10.65,5000,1073725440,85460,0,1048320,1049800,6,6,4,1448,3959,1,16778208,355,1049800,1046904,1049800,0,81088,0,129
o,0xc805e100,1556708356.223100,172.16.11.67,48451,172.16.10.65,5000,1073725440,85460,0,1048320,1049800,6,6,4,1448,3959,1,16778208,355,1049800,1046904,1049800,0,82536,0,129
o,0x3ade7061,1556708356.223103,172.16.11.67,48451,172.16.10.65,5000,1073725440,85460,0,1048320,1049800,6,6,4,1448,3959,1,16778208,355,1049800,1046904,1049800,0,83984,0,129
i,0x6c75bc98,1556708356.228090,172.16.11.67,48451,172.16.10.65,5000,1073725440,85460,0,1048320,1049800,6,6,4,1448,3959,1,16778208,355,1049800,1049800,1049800,0,85432,0,129
o,0xb96611e1,1556708356.228092,172.16.11.67,48451,172.16.10.65,5000,1073725440,88356,0,1048320,1049800,6,6,4,1448,3997,1,16778208,358,1049800,1046904,1049800,0,82536,0,134
o,0x38157d81,1556708356.228096,172.16.11.67,48451,172.16.10.65,5000,1073725440,88356,0,1048320,1049800,6,6,4,1448,3997,1,16778208,358,1049800,1046904,1049800,0,83984,0,134
o,0xc8fab6e2,1556708356.228099,172.16.11.67,48451,172.16.10.65,5000,1073725440,88356,0,1048320,1049800,6,6,4,1448,3997,1,16778208,358,1049800,1046904,1049800,0,85432,0,134
o,0xddf75162,1556708356.228103,172.16.11.67,48451,172.16.10.65,5000,1073725440,88356,0,1048320,1049800,6,6,4,1448,3997,1,16778208,358,1049800,1046904,1049800,0,86880,0,134
i,0xfa2cc179,1556708356.232090,172.16.11.67,48451,172.16.10.65,5000,1073725440,88356,0,1048320,1049800,6,6,4,1448,3997,1,16778208,358,1049800,1049800,1049800,0,88328,0,134
o,0xd83af3c1,1556708356.232092,172.16.11.67,48451,172.16.10.65,5000,1073725440,91252,0,1048320,1049800,6,6,4,1448,4046,1,16778208,363,1049800,1046904,1049800,0,85432,0,133
o,0xb31f0e22,1556708356.232096,172.16.11.67,48451,172.16.10.65,5000,1073725440,91252,0,1048320,1049800,6,6,4,1448,4046,1,16778208,363,1049800,1046904,1049800,0,86880,0,133
o,0xad4795a2,1556708356.232099,172.16.11.67,48451,172.16.10.65,5000,1073725440,91252,0,1048320,1049800,6,6,4,1448,4046,1,16778208,363,1049800,1046904,1049800,0,88328,0,133
o,0xa546ee01,1556708356.232103,172.16.11.67,48451,172.16.10.65,5000,1073725440,91252,0,1048320,1049800,6,6,4,1448,4046,1,16778208,363,1049800,1046904,1049800,0,89776,0,133
i,0x89d01dd8,1556708356.237093,172.16.11.67,48451,172.16.10.65,5000,1073725440,91252,0,1048320,1049800,6,6,4,1448,4046,1,16778208,363,1049800,1049800,1049800,0,91224,0,133
o,0xe76a6362,1556708356.237096,172.16.11.67,48451,172.16.10.65,5000,1073725440,94148,0,1048320,1049800,6,6,4,1448,4089,1,16778208,366,1049800,1046904,1049800,0,88328,0,138
o,0x958148e2,1556708356.237100,172.16.11.67,48451,172.16.10.65,5000,1073725440,94148,0,1048320,1049800,6,6,4,1448,4089,1,16778208,366,1049800,1046904,1049800,0,89776,0,138
o,0xd77f8241,1556708356.237104,172.16.11.67,48451,172.16.10.65,5000,1073725440,94148,0,1048320,1049800,6,6,4,1448,4089,1,16778208,366,1049800,1046904,1049800,0,91224,0,138
o,0x9669b3a2,1556708356.237107,172.16.11.67,48451,172.16.10.65,5000,1073725440,94148,0,1048320,1049800,6,6,4,1448,4089,1,16778208,366,1049800,1046904,1049800,0,92672,0,138
i,0x0ea003d8,1556708356.242093,172.16.11.67,48451,172.16.10.65,5000,1073725440,94148,0,1048320,1049800,6,6,4,1448,4089,1,16778208,366,1049800,1049800,1049800,0,94120,0,138
o,0xcaf27422,1556708356.242096,172.16.11.67,48451,172.16.10.65,5000,1073725440,97044,0,1048320,1049800,6,6,4,1448,4146,1,16778208,373,1049800,1046904,1049800,0,91224,0,138
o,0x0bcad781,1556708356.242099,172.16.11.67,48451,172.16.10.65,5000,1073725440,97044,0,1048320,1049800,6,6,4,1448,4146,1,16778208,373,1049800,1046904,1049800,0,92672,0,138
o,0x7ea366e2,1556708356.242103,172.16.11.67,48451,172.16.10.65,5000,1073725440,97044,0,1048320,1049800,6,6,4,1448,4146,1,16778208,373,1049800,1046904,1049800,0,94120,0,138
o,0x94c5d762,1556708356.242106,172.16.11.67,48451,172.16.10.65,5000,1073725440,97044,0,1048320,1049800,6,6,4,1448,4146,1,16778208,373,1049800,1046904,1049800,0,95568,0,138
i,0xc8bc8eb9,1556708356.247094,172.16.11.67,48451,172.16.10.65,5000,1073725440,97044,0,1048320,1049800,6,6,4,1448,4146,1,16778208,373,1049800,1049800,1049800,0,97016,0,138
o,0x232f58c1,1556708356.247097,172.16.11.67,48451,172.16.10.65,5000,1073725440,99940,0,1048320,1049800,6,6,4,1448,4196,1,16778208,376,1049800,1046904,1049800,0,94120,0,143
o,0xb4149222,1556708356.247101,172.16.11.67,48451,172.16.10.65,5000,1073725440,99940,0,1048320,1049800,6,6,4,1448,4196,1,16778208,376,1049800,1046904,1049800,0,95568,0,143
o,0xc9112ca2,1556708356.247104,172.16.11.67,48451,172.16.10.65,5000,1073725440,99940,0,1048320,1049800,6,6,4,1448,4196,1,16778208,376,1049800,1046904,1049800,0,97016,0,143
o,0xa303db01,1556708356.247107,172.16.11.67,48451,172.16.10.65,5000,1073725440,99940,0,1048320,1049800,6,6,4,1448,4196,1,16778208,376,1049800,1046904,1049800,0,98464,0,143
i,0x88c50fd8,1556708356.252096,172.16.11.67,48451,172.16.10.65,5000,1073725440,99940,0,1048320,1049800,6,6,4,1448,4196,1,16778208,376,1049800,1049800,1049800,0,99912,0,143
o,0xe64d2662,1556708356.252098,172.16.11.67,48451,172.16.10.65,5000,1073725440,102836,0,1048320,1049800,6,6,4,1448,4260,1,16778208,383,1049800,1046904,1049800,0,97016,0,143
o,0xe075ade2,1556708356.252102,172.16.11.67,48451,172.16.10.65,5000,1073725440,102836,0,1048320,1049800,6,6,4,1448,4260,1,16778208,383,1049800,1046904,1049800,0,98464,0,143
o,0xd8750641,1556708356.252105,172.16.11.67,48451,172.16.10.65,5000,1073725440,102836,0,1048320,1049800,6,6,4,1448,4260,1,16778208,383,1049800,1046904,1049800,0,99912,0,143
o,0xb2334aa2,1556708356.252109,172.16.11.67,48451,172.16.10.65,5000,1073725440,102836,0,1048320,1049800,6,6,4,1448,4260,1,16778208,383,1049800,1046904,1049800,0,101360,0,143
i,0x80652658,1556708356.256089,172.16.11.67,48451,172.16.10.65,5000,1073725440,102836,0,1048320,1049800,6,6,4,1448,4260,1,16778208,383,1049800,1049800,1049800,0,102808,0,143
o,0x809b2422,1556708356.256092,172.16.11.67,48451,172.16.10.65,5000,1073725440,105732,0,1048320,1049800,6,6,4,1448,4312,1,16778208,385,1049800,1046904,1049800,0,99912,0,147
o,0xc2995d81,1556708356.256096,172.16.11.67,48451,172.16.10.65,5000,1073725440,105732,0,1048320,1049800,6,6,4,1448,4312,1,16778208,385,1049800,1046904,1049800,0,101360,0,147
o,0x81838ee2,1556708356.256099,172.16.11.67,48451,172.16.10.65,5000,1073725440,105732,0,1048320,1049800,6,6,4,1448,4312,1,16778208,385,1049800,1046904,1049800,0,102808,0,147
o,0x4da71e62,1556708356.256103,172.16.11.67,48451,172.16.10.65,5000,1073725440,105732,0,1048320,1049800,6,6,4,1448,4312,1,16778208,385,1049800,1046904,1049800,0,104256,0,147
i,0x0d11d53a,1556708356.279091,172.16.11.67,48451,172.16.10.65,5000,1073725440,105732,0,1048320,1049800,6,6,4,1448,4312,1,16778208,385,1049800,1049800,1049800,0,105704,0,147
o,0xdcfda962,1556708356.279093,172.16.11.67,48451,172.16.10.65,5000,1073725440,108628,0,1048320,1049800,6,6,4,1448,4449,1,16778208,411,1049800,1046904,1049800,0,102808,0,105
o,0x8b148ee2,1556708356.279097,172.16.11.67,48451,172.16.10.65,5000,1073725440,108628,0,1048320,1049800,6,6,4,1448,4449,1,16778208,411,1049800,1046904,1049800,0,104256,0,105
o,0x91d47222,1556708356.279101,172.16.11.67,48451,172.16.10.65,5000,1073725440,108628,0,1048320,1049800,6,6,4,1448,4449,1,16778208,411,1049800,1046904,1049800,0,105704,0,105
o,0x8bfcf9a2,1556708356.279104,172.16.11.67,48451,172.16.10.65,5000,1073725440,108628,0,1048320,1049800,6,6,4,1448,4449,1,16778208,411,1049800,1046904,1049800,0,107152,0,105
i,0x57f77899,1556708356.284092,172.16.11.67,48451,172.16.10.65,5000,1073725440,108628,0,1048320,1049800,6,6,4,1448,4449,1,16778208,411,1049800,1049800,1049800,0,108600,0,105
o,0xc085ba22,1556708356.284095,172.16.11.67,48451,172.16.10.65,5000,1073725440,111524,0,1048320,1049800,6,6,4,1448,4329,1,16778208,419,1049800,1046904,1049800,0,105704,0,110
o,0xc61fc762,1556708356.284098,172.16.11.67,48451,172.16.10.65,5000,1073725440,111524,0,1048320,1049800,6,6,4,1448,4329,1,16778208,419,1049800,1046904,1049800,0,107152,0,110
o,0x7436ace2,1556708356.284102,172.16.11.67,48451,172.16.10.65,5000,1073725440,111524,0,1048320,1049800,6,6,4,1448,4329,1,16778208,419,1049800,1046904,1049800,0,108600,0,110
o,0x8a591d62,1556708356.284106,172.16.11.67,48451,172.16.10.65,5000,1073725440,111524,0,1048320,1049800,6,6,4,1448,4329,1,16778208,419,1049800,1046904,1049800,0,110048,0,110
i,0x7ffcb3d9,1556708356.288094,172.16.11.67,48451,172.16.10.65,5000,1073725440,111524,0,1048320,1049800,6,6,4,1448,4329,1,16778208,419,1049800,1049800,1049800,0,111496,0,110
o,0x95700ba2,1556708356.288097,172.16.11.67,48451,172.16.10.65,5000,1073725440,114420,0,1048320,1049800,6,6,4,1448,4240,1,16778208,418,1049800,1046904,1049800,0,108600,0,109
o,0x61939b22,1556708356.288101,172.16.11.67,48451,172.16.10.65,5000,1073725440,114420,0,1048320,1049800,6,6,4,1448,4240,1,16778208,418,1049800,1046904,1049800,0,110048,0,109
o,0x866903e1,1556708356.288104,172.16.11.67,48451,172.16.10.65,5000,1073725440,114420,0,1048320,1049800,6,6,4,1448,4240,1,16778208,418,1049800,1046904,1049800,0,111496,0,109
o,0x251d5c21,1556708356.288107,172.16.11.67,48451,172.16.10.65,5000,1073725440,114420,0,1048320,1049800,6,6,4,1448,4240,1,16778208,418,1049800,1046904,1049800,0,112944,0,109
i,0x7551d9d9,1556708356.293094,172.16.11.67,48451,172.16.10.65,5000,1073725440,114420,0,1048320,1049800,6,6,4,1448,4240,1,16778208,418,1049800,1049800,1049800,0,114392,0,109
o,0xa3a4fda1,1556708356.293097,172.16.11.67,48451,172.16.10.65,5000,1073725440,117316,0,1048320,1049800,6,6,4,1448,4162,1,16778208,413,1049800,1046904,1049800,0,111496,0,114
o,0x9dcd8521,1556708356.293101,172.16.11.67,48451,172.16.10.65,5000,1073725440,117316,0,1048320,1049800,6,6,4,1448,4162,1,16778208,413,1049800,1046904,1049800,0,112944,0,114
o,0x5a8e8761,1556708356.293104,172.16.11.67,48451,172.16.10.65,5000,1073725440,117316,0,1048320,1049800,6,6,4,1448,4162,1,16778208,413,1049800,1046904,1049800,0,114392,0,114
o,0x6f8b21e1,1556708356.293108,172.16.11.67,48451,172.16.10.65,5000,1073725440,117316,0,1048320,1049800,6,6,4,1448,4162,1,16778208,413,1049800,1046904,1049800,0,115840,0,114
i,0xfa21bfd9,1556708356.298082,172.16.11.67,48451,172.16.10.65,5000,1073725440,117316,0,1048320,1049800,6,6,4,1448,4162,1,16778208,413,1049800,1049800,1049800,0,117288,0,114
o,0x86073861,1556708356.298085,172.16.11.67,48451,172.16.10.65,5000,1073725440,120212,0,1048320,1049800,6,6,4,1448,4114,1,16778208,403,1049800,1046904,1049800,0,114392,0,115
o,0x8cc71ba1,1556708356.298089,172.16.11.67,48451,172.16.10.65,5000,1073725440,120212,0,1048320,1049800,6,6,4,1448,4114,1,16778208,403,1049800,1046904,1049800,0,115840,0,115
o,0x86efa321,1556708356.298092,172.16.11.67,48451,172.16.10.65,5000,1073725440,120212,0,1048320,1049800,6,6,4,1448,4114,1,16778208,403,1049800,1046904,1049800,0,117288,0,115
o,0xabbe4de2,1556708356.298096,172.16.11.67,48451,172.16.10.65,5000,1073725440,120212,0,1048320,1049800,6,6,4,1448,4114,1,16778208,403,1049800,1046904,1049800,0,118736,0,115
i,0xe210967a,1556708356.303090,172.16.11.67,48451,172.16.10.65,5000,1073725440,120212,0,1048320,1049800,6,6,4,1448,4114,1,16778208,403,1049800,1049800,1049800,0,120184,0,115
o,0x04f31043,1556708356.303093,172.16.11.67,48451,172.16.10.65,5000,1073725440,123108,0,1048320,1049800,6,6,4,1448,4076,1,16778208,393,1049800,1046904,1049800,0,117288,0,120
o,0xb309f5c3,1556708356.303097,172.16.11.67,48451,172.16.10.65,5000,1073725440,123108,0,1048320,1049800,6,6,4,1448,4076,1,16778208,393,1049800,1046904,1049800,0,118736,0,120
o,0xc92c6643,1556708356.303100,172.16.11.67,48451,172.16.10.65,5000,1073725440,123108,0,1048320,1049800,6,6,4,1448,4076,1,16778208,393,1049800,1046904,1049800,0,120184,0,120
o,0xb3f26083,1556708356.303104,172.16.11.67,48451,172.16.10.65,5000,1073725440,123108,0,1048320,1049800,6,6,4,1448,4076,1,16778208,393,1049800,1046904,1049800,0,121632,0,120
i,0xa2191799,1556708356.308090,172.16.11.67,48451,172.16.10.65,5000,1073725440,123108,0,1048320,1049800,6,6,4,1448,4076,1,16778208,393,1049800,1049800,1049800,0,123080,0,120
o,0xe87b2103,1556708356.308093,172.16.11.67,48451,172.16.10.65,5000,1073725440,126004,0,1048320,1049800,6,6,4,1448,4063,1,16778208,379,1049800,1046904,1049800,0,120184,0,120
o,0xfd77bb83,1556708356.308096,172.16.11.67,48451,172.16.10.65,5000,1073725440,126004,0,1048320,1049800,6,6,4,1448,4063,1,16778208,379,1049800,1046904,1049800,0,121632,0,120
o,0x9c2c13c3,1556708356.308100,172.16.11.67,48451,172.16.10.65,5000,1073725440,126004,0,1048320,1049800,6,6,4,1448,4063,1,16778208,379,1049800,1046904,1049800,0,123080,0,120
o,0xb24e8443,1556708356.308103,172.16.11.67,48451,172.16.10.65,5000,1073725440,126004,0,1048320,1049800,6,6,4,1448,4063,1,16778208,379,1049800,1046904,1049800,0,124528,0,120
i,0xff6af7ba,1556708356.312094,172.16.11.67,48451,172.16.10.65,5000,1073725440,126004,0,1048320,1049800,6,6,4,1448,4063,1,16778208,379,1049800,1049800,1049800,0,125976,0,120
o,0xccc7ffc3,1556708356.312097,172.16.11.67,48451,172.16.10.65,5000,1073725440,128900,0,1048320,1049800,6,6,4,1448,4048,1,16778208,370,1049800,1046904,1049800,0,123080,0,124
o,0x89890203,1556708356.312101,172.16.11.67,48451,172.16.10.65,5000,1073725440,128900,0,1048320,1049800,6,6,4,1448,4048,1,16778208,370,1049800,1046904,1049800,0,124528,0,124
o,0x9e859c83,1556708356.312104,172.16.11.67,48451,172.16.10.65,5000,1073725440,128900,0,1048320,1049800,6,6,4,1448,4048,1,16778208,370,1049800,1046904,1049800,0,125976,0,124
o,0x4c9c8203,1556708356.312108,172.16.11.67,48451,172.16.10.65,5000,1073725440,128900,0,1048320,1049800,6,6,4,1448,4048,1,16778208,370,1049800,1046904,1049800,0,127424,0,124
i,0x843addba,1556708356.317095,172.16.11.67,48451,172.16.10.65,5000,1073725440,128900,0,1048320,1049800,6,6,4,1448,4048,1,16778208,370,1049800,1049800,1049800,0,128872,0,124
o,0xbbc19643,1556708356.317098,172.16.11.67,48451,172.16.10.65,5000,1073725440,131796,0,1048320,1049800,6,6,4,1448,4054,1,16778208,360,1049800,1046904,1049800,0,125976,0,124
o,0xb5ea1dc3,1556708356.317101,172.16.11.67,48451,172.16.10.65,5000,1073725440,131796,0,1048320,1049800,6,6,4,1448,4054,1,16778208,360,1049800,1046904,1049800,0,127424,0,124
o,0xade97622,1556708356.317105,172.16.11.67,48451,172.16.10.65,5000,1073725440,131796,0,1048320,1049800,6,6,4,1448,4054,1,16778208,360,1049800,1046904,1049800,0,128872,0,124
o,0x87a7ba83,1556708356.317108,172.16.11.67,48451,172.16.10.65,5000,1073725440,131796,0,1048320,1049800,6,6,4,1448,4054,1,16778208,360,1049800,1046904,1049800,0,130320,0,124
i,0x13de3a19,1556708356.322090,172.16.11.67,48451,172.16.10.65,5000,1073725440,131796,0,1048320,1049800,6,6,4,1448,4054,1,16778208,360,1049800,1049800,1049800,0,131768,0,124
o,0x9e23d103,1556708356.322093,172.16.11.67,48451,172.16.10.65,5000,1073725440,134692,0,1048320,1049800,6,6,4,1448,4060,1,16778208,354,1049800,1046904,1049800,0,128872,0,129
o,0xe0220a62,1556708356.322097,172.16.11.67,48451,172.16.10.65,5000,1073725440,134692,0,1048320,1049800,6,6,4,1448,4060,1,16778208,354,1049800,1046904,1049800,0,130320,0,129
o,0x9f0c3bc3,1556708356.322100,172.16.11.67,48451,172.16.10.65,5000,1073725440,134692,0,1048320,1049800,6,6,4,1448,4060,1,16778208,354,1049800,1046904,1049800,0,131768,0,129
o,0x6b2fcb43,1556708356.322103,172.16.11.67,48451,172.16.10.65,5000,1073725440,134692,0,1048320,1049800,6,6,4,1448,4060,1,16778208,354,1049800,1046904,1049800,0,133216,0,129
i,0xfe5fe9ba,1556708356.327090,172.16.11.67,48451,172.16.10.65,5000,1073725440,134692,0,1048320,1049800,6,6,4,1448,4060,1,16778208,354,1049800,1049800,1049800,0,134664,0,129
o,0x146d5fa2,1556708356.327093,172.16.11.67,48451,172.16.10.65,5000,1073725440,137588,0,1048320,1049800,6,6,4,1448,4085,1,16778208,354,1049800,1046904,1049800,0,131768,0,129
o,0x8745ef03,1556708356.327097,172.16.11.67,48451,172.16.10.65,5000,1073725440,137588,0,1048320,1049800,6,6,4,1448,4085,1,16778208,354,1049800,1046904,1049800,0,133216,0,129
o,0x9d685f83,1556708356.327100,172.16.11.67,48451,172.16.10.65,5000,1073725440,137588,0,1048320,1049800,6,6,4,1448,4085,1,16778208,354,1049800,1046904,1049800,0,134664,0,129
o,0xc36cafe2,1556708356.327104,172.16.11.67,48451,172.16.10.65,5000,1073725440,137588,0,1048320,1049800,6,6,4,1448,4085,1,16778208,354,1049800,1046904,1049800,0,136112,0,129
i,0xe4a91e39,1556708356.332094,172.16.11.67,48451,172.16.10.65,5000,1073725440,137588,0,1048320,1049800,6,6,4,1448,4085,1,16778208,354,1049800,1049800,1049800,0,137560,0,129
o,0xbcb71a43,1556708356.332100,172.16.11.67,48451,172.16.10.65,5000,1073725440,140484,0,1048320,1049800,6,6,4,1448,4107,1,16778208,354,1049800,1046904,1049800,0,134664,0,134
o,0x17e198a5,1556708356.332104,172.16.11.67,48451,172.16.10.65,5000,1073725440,140484,0,1048320,1049800,6,6,4,1448,4107,1,16778208,354,1049800,1046904,1049800,0,136112,0,134
o,0x6eaed222,1556708356.332108,172.16.11.67,48451,172.16.10.65,5000,1073725440,140484,0,1048320,1049800,6,6,4,1448,4107,1,16778208,354,1049800,1046904,1049800,0,137560,0,134
o,0x2d990383,1556708356.332111,172.16.11.67,48451,172.16.10.65,5000,1073725440,140484,0,1048320,1049800,6,6,4,1448,4107,1,16778208,354,1049800,1046904,1049800,0,139008,0,134
i,0x47e6f498,1556708356.336095,172.16.11.67,48451,172.16.10.65,5000,1073725440,140484,0,1048320,1049800,6,6,4,1448,4107,1,16778208,354,1049800,1049800,1049800,0,140456,0,134
o,0x1a0d8703,1556708356.336098,172.16.11.67,48451,172.16.10.65,5000,1073725440,143380,0,1048320,1049800,6,6,4,1448,4142,1,16778208,357,1049800,1046904,1049800,0,137560,0,133
o,0x5ae5ea62,1556708356.336102,172.16.11.67,48451,172.16.10.65,5000,1073725440,143380,0,1048320,1049800,6,6,4,1448,4142,1,16778208,357,1049800,1046904,1049800,0,139008,0,133
o,0xcdbe79c3,1556708356.336105,172.16.11.67,48451,172.16.10.65,5000,1073725440,143380,0,1048320,1049800,6,6,4,1448,4142,1,16778208,357,1049800,1046904,1049800,0,140456,0,133
o,0xe3e0ea43,1556708356.336109,172.16.11.67,48451,172.16.10.65,5000,1073725440,143380,0,1048320,1049800,6,6,4,1448,4142,1,16778208,357,1049800,1046904,1049800,0,141904,0,133
i,0x02037f79,1556708356.341094,172.16.11.67,48451,172.16.10.65,5000,1073725440,143380,0,1048320,1049800,6,6,4,1448,4142,1,16778208,357,1049800,1049800,1049800,0,143352,0,133
o,0x724a6ba2,1556708356.341097,172.16.11.67,48451,172.16.10.65,5000,1073725440,146276,0,1048320,1049800,6,6,4,1448,4173,1,16778208,359,1049800,1046904,1049800,0,140456,0,138
o,0x032fa503,1556708356.341101,172.16.11.67,48451,172.16.10.65,5000,1073725440,146276,0,1048320,1049800,6,6,4,1448,4173,1,16778208,359,1049800,1046904,1049800,0,141904,0,138
o,0x182c3f83,1556708356.341104,172.16.11.67,48451,172.16.10.65,5000,1073725440,146276,0,1048320,1049800,6,6,4,1448,4173,1,16778208,359,1049800,1046904,1049800,0,143352,0,138
o,0x01f7bc21,1556708356.341108,172.16.11.67,48451,172.16.10.65,5000,1073725440,146276,0,1048320,1049800,6,6,4,1448,4173,1,16778208,359,1049800,1046904,1049800,0,144800,0,138
i,0x86d36579,1556708356.346090,172.16.11.67,48451,172.16.10.65,5000,1073725440,146276,0,1048320,1049800,6,6,4,1448,4173,1,16778208,359,1049800,1047880,1049800,0,146248,0,138
o,0x45410782,1556708356.346093,172.16.11.67,48451,172.16.10.65,5000,1073725440,149172,0,1048320,1049800,6,6,4,1448,4220,1,16778208,365,1049800,1044984,1049800,0,143352,0,139
o,0x3f698f02,1556708356.346097,172.16.11.67,48451,172.16.10.65,5000,1073725440,149172,0,1048320,1049800,6,6,4,1448,4220,1,16778208,365,1049800,1044984,1049800,0,144800,0,139
o,0x3768e761,1556708356.346100,172.16.11.67,48451,172.16.10.65,5000,1073725440,149172,0,1048320,1049800,6,6,4,1448,4220,1,16778208,365,1049800,1044984,1049800,0,146248,0,139
o,0x11272bc2,1556708356.346103,172.16.11.67,48451,172.16.10.65,5000,1073725440,149172,0,1048320,1049800,6,6,4,1448,4220,1,16778208,365,1049800,1044984,1049800,0,147696,0,139
i,0xb9be2f98,1556708356.351090,172.16.11.67,48451,172.16.10.65,5000,1073725440,149172,0,1048320,1049800,6,6,4,1448,4220,1,16778208,365,1049800,1049800,1049800,0,149144,0,139
o,0x27a34242,1556708356.351093,172.16.11.67,48451,172.16.10.65,5000,1073725440,152068,0,1048320,1049800,6,6,4,1448,4265,1,16778208,369,1049800,1046904,1049800,0,146248,0,144
o,0x69a17ba1,1556708356.351096,172.16.11.67,48451,172.16.10.65,5000,1073725440,152068,0,1048320,1049800,6,6,4,1448,4265,1,16778208,369,1049800,1046904,1049800,0,147696,0,144
o,0x288bad02,1556708356.351100,172.16.11.67,48451,172.16.10.65,5000,1073725440,152068,0,1048320,1049800,6,6,4,1448,4265,1,16778208,369,1049800,1046904,1049800,0,149144,0,144
o,0xf4af3c82,1556708356.351103,172.16.11.67,48451,172.16.10.65,5000,1073725440,152068,0,1048320,1049800,6,6,4,1448,4265,1,16778208,369,1049800,1046904,1049800,0,150592,0,144
i,0xa43fdf39,1556708356.356092,172.16.11.67,48451,172.16.10.65,5000,1073725440,152068,0,1048320,1049800,6,6,4,1448,4265,1,16778208,369,1049800,1049800,1049800,0,152040,0,144
