#enable_time_secs=1556708512	enable_time_usecs=984377	siftrver=1.2.4	hz=1000	tcp_rtt_scale=32	sysname=FreeBSD	sysver=1001000	ipmode=4
o,0x81aefcd8,1556708512.984396,10.1.1.67,22,10.1.1.11,56000,4464,5792,0,66560,66608,6,6,4,1448,144,1,16778212,230,33304,208,66608,0,156,0,1
o,0xb41dca5b,1556708512.984403,10.1.1.67,22,10.1.1.11,56000,4464,5792,0,66560,66608,6,6,4,1448,144,1,16778212,230,33304,260,66608,0,208,0,1
o,0x236e7554,1556708512.984613,10.1.1.67,22,10.1.1.11,56000,4464,5792,0,66560,66608,6,6,4,1448,144,1,16778212,230,33304,296,66608,0,260,0,1
i,0x13801946,1556708512.984618,10.1.1.67,22,10.1.1.11,56000,4464,5792,0,66560,66608,6,6,4,1448,144,1,16778212,230,33304,296,66608,0,296,0,1
i,0x896ca546,1556708512.984622,10.1.1.67,22,10.1.1.11,56000,4464,5792,0,66496,66608,6,6,4,1448,154,1,996,230,33304,140,66608,0,140,0,2
o,0xa1aacb09,1556708512.984761,10.1.1.67,22,10.1.1.11,56000,4464,5792,0,66432,66608,6,6,4,1448,139,1,16778212,230,33304,140,66608,0,36,0,2
i,0xddc0a4c6,1556708512.985018,10.1.1.67,22,10.1.1.11,56000,4464,5792,0,66432,66608,6,6,4,1448,139,1,16778212,230,33304,140,66608,0,140,0,2
i,0xb271224f,1556708512.985321,10.1.1.67,22,10.1.1.11,56000,4464,5792,0,66496,66608,6,6,4,1448,122,1,996,230,33304,0,66608,0,0,0,1
i,0x6ccdbece,1556708513.009011,10.1.1.67,22,10.1.1.11,56000,4464,5792,0,66560,66608,6,6,4,1448,122,1,996,230,33304,0,66608,0,0,0,1
o,0xca3286e5,1556708513.009015,10.1.1.67,22,10.1.1.11,56000,4464,5792,0,66560,66608,6,6,5,1448,122,1,997,230,33304,0,66608,36,0,0,1
o,0xd7c57f65,1556708513.009144,10.1.1.67,22,10.1.1.11,56000,4464,5792,0,66560,66608,6,6,8,1448,122,1,996,230,33304,0,0,0,0,0,1
i,0xcaf058a5,1556708513.009399,10.1.1.67,22,10.1.1.11,56000,4464,5792,0,66560,66608,6,6,8,1448,122,1,1012,230,33304,0,0,0,1,0,1
i,0x399a6ca9,1556708513.093931,10.1.1.67,22,10.1.1.11,60469,4464,14480,0,66560,66608,6,6,4,1448,126,1,16778208,230,33304,0,66608,0,0,0,0
o,0x4a8053ea,1556708513.097679,10.1.1.67,22,10.1.1.11,60469,4464,14480,0,66560,66608,6,6,4,1448,126,1,16778208,230,33304,49,66608,25,0,0,0
o,0xfe3672c7,1556708513.098162,10.1.1.67,22,10.1.1.11,60469,4464,14480,0,66560,66608,6,6,4,1448,126,1,16778208,230,33304,1697,66608,0,49,0,0
i,0x9e9e8344,1556708513.098202,10.1.1.67,22,10.1.1.11,60469,4464,14480,0,66560,66608,6,6,4,1448,126,1,16778208,230,33304,1697,66608,0,1497,0,0
i,0xf24d55c9,1556708513.197306,10.1.1.67,22,10.1.1.11,60469,4464,13032,0,66560,66608,6,6,4,1448,111,1,992,230,33304,1648,66608,0,1448,0,1
o,0xa66c9d24,1556708513.197309,10.1.1.67,22,10.1.1.11,60469,4464,13032,0,66560,66608,6,6,4,1448,494,1,16778208,324,33304,200,66608,0,0,0,100
i,0x587b2531,1556708513.209506,10.1.1.67,22,10.1.1.11,60469,4464,13032,0,66560,66608,6,6,4,1448,494,1,16778208,324,33304,200,66608,0,200,0,100
o,0xca8e5804,1556708513.211454,10.1.1.67,22,10.1.1.11,60469,4464,11584,0,66560,66608,6,6,4,1448,481,1,16778208,300,33304,848,66608,0,0,0,13
i,0x0087f498,1556708513.227645,10.1.1.67,22,10.1.1.11,60469,4464,11584,0,66560,66608,6,6,4,1448,481,1,16778208,300,33304,848,66608,0,848,0,13
o,0xae98a0e8,1556708513.329601,10.1.1.67,22,10.1.1.11,60469,4464,10136,0,66560,66608,6,6,4,1448,489,1,993,281,33304,0,66608,0,0,0,18
i,0xef41d5d7,1556708513.329851,10.1.1.67,22,10.1.1.11,60469,4464,10136,0,66560,66608,6,6,4,1448,489,1,992,281,33304,0,66608,0,0,0,18
o,0xa785203c,1556708513.329873,10.1.1.67,22,10.1.1.11,60469,4464,10136,0,66560,66608,6,6,4,1448,489,1,16778208,281,33304,52,66608,0,0,0,18
i,0xb706e7a0,1556708513.364309,10.1.1.67,22,10.1.1.11,60469,4464,10136,0,66560,66608,6,6,4,1448,489,1,16778208,281,33304,52,66608,0,52,0,18
o,0xb5b47282,1556708513.367620,10.1.1.67,22,10.1.1.11,60469,4464,8688,0,66560,66608,6,6,4,1448,564,1,16778208,285,33304,68,66608,0,0,0,35
i,0x8c2dae3c,1556708513.387464,10.1.1.67,22,10.1.1.11,60469,4464,8688,0,66560,66608,6,6,4,1448,564,1,16778208,285,33304,68,66608,0,68,0,35
o,0x0a7b75b8,1556708513.387476,10.1.1.67,22,10.1.1.11,60469,4464,7240,0,66560,66608,6,6,4,1448,570,1,16778208,270,33304,52,66608,0,0,0,20
i,0x66cbc5e9,1556708513.387936,10.1.1.67,22,10.1.1.11,60469,4464,7240,0,66560,66608,6,6,4,1448,570,1,16778208,270,33304,52,66608,0,52,0,20
o,0x233f5f45,1556708513.387976,10.1.1.67,22,10.1.1.11,60469,4464,5792,0,66560,66608,6,6,4,1448,503,1,16778208,272,33304,68,66608,0,0,0,2
i,0x83ce99f9,1556708513.407504,10.1.1.67,22,10.1.1.11,60469,4464,5792,0,66560,66608,6,6,4,1448,503,1,16778208,272,33304,68,66608,0,68,0,2
o,0x4b27fe77,1556708513.407516,10.1.1.67,22,10.1.1.11,60469,4464,5792,0,66560,66608,6,6,4,1448,517,1,16778208,262,33304,52,66608,0,0,0,20
i,0x156c5ff7,1556708513.408001,10.1.1.67,22,10.1.1.11,60469,4464,5792,0,66560,66608,6,6,4,1448,517,1,16778208,262,33304,52,66608,0,52,0,20
o,0x3cbcdff4,1556708513.408450,10.1.1.67,22,10.1.1.11,60469,4464,5792,0,66560,66608,6,6,4,1448,457,1,16778208,263,33304,100,66608,0,0,0,2
i,0x4ea2e2d8,1556708513.408901,10.1.1.67,22,10.1.1.11,60469,4464,5792,0,66560,66608,6,6,4,1448,457,1,16778208,263,33304,100,66608,0,100,0,2
o,0x772f6957,1556708513.412313,10.1.1.67,22,10.1.1.11,60469,4464,5792,0,66560,66608,6,6,4,1448,404,1,16778208,263,33304,52,66608,0,0,0,2
i,0xc5664a54,1556708513.412742,10.1.1.67,22,10.1.1.11,60469,4464,5792,0,66560,66608,6,6,4,1448,404,1,16778208,263,33304,52,66608,0,52,0,2
o,0x88f06e56,1556708513.412787,10.1.1.67,22,10.1.1.11,60469,4464,5792,0,66560,66608,6,6,4,1448,358,1,16778208,260,33304,36,66608,0,0,0,2
i,0xba97803e,1556708513.437229,10.1.1.67,22,10.1.1.11,60469,4464,5792,0,66560,66608,6,6,4,1448,358,1,16778208,260,33304,36,66608,0,36,0,2
o,0xbcede6f9,1556708513.437275,10.1.1.67,22,10.1.1.11,60469,4464,5792,0,66560,66608,6,6,4,1448,410,1,16778208,263,33304,52,66608,0,0,0,25
i,0x54b9008d,1556708513.467601,10.1.1.67,22,10.1.1.11,60469,4464,5792,0,66560,66608,6,6,4,1448,410,1,16778208,263,33304,52,66608,0,52,0,25
o,0x96eda690,1556708513.467694,10.1.1.67,22,10.1.1.11,60469,4464,5792,0,66560,66608,6,6,4,1448,483,1,16778208,271,33304,36,66608,0,0,0,32
i,0x2928c403,1556708513.468317,10.1.1.67,22,10.1.1.11,60469,4464,5792,0,66560,66608,6,6,4,1448,483,1,16778208,271,33304,36,66608,0,36,0,32
o,0x007707a2,1556708513.468527,10.1.1.67,22,10.1.1.11,60469,4464,5792,0,66560,66608,6,6,4,1448,423,1,16778212,270,33304,88,66608,0,0,0,1
o,0xc8d92b98,1556708513.474129,10.1.1.67,22,10.1.1.11,60469,4464,5792,0,66560,66608,6,6,4,1448,423,1,16778212,270,33304,140,66608,0,88,0,1
i,0x26cbfaa8,1556708513.474382,10.1.1.67,22,10.1.1.11,60469,4464,5792,0,66560,66608,6,6,4,1448,423,1,16778212,270,33304,140,66608,0,140,0,1
o,0x564d5a00,1556708513.476036,10.1.1.67,22,10.1.1.11,60469,4464,5792,0,66496,66608,6,6,4,1448,395,1,16778212,262,33304,132,66608,0,0,0,1
o,0xbd4b7e4c,1556708513.476046,10.1.1.67,22,10.1.1.11,60469,4464,5792,0,66496,66608,6,6,4,1448,395,1,16778212,262,33304,216,66608,0,132,0,1
i,0xb024cba8,1556708513.476359,10.1.1.67,22,10.1.1.11,60469,4464,5792,0,66496,66608,6,6,4,1448,395,1,16778212,262,33304,216,66608,0,216,0,1
o,0xd9fdd3d9,1556708513.580903,10.1.1.67,22,10.1.1.11,60469,4464,5792,0,66368,66608,6,6,4,1448,346,1,16778212,260,33304,52,66608,0,0,0,1
o,0x7ae08c57,1556708513.581299,10.1.1.67,22,10.1.1.11,60469,4464,5792,0,66368,66608,6,6,4,1448,346,1,16778212,260,33304,192,66608,0,52,0,1
i,0xd2c2c428,1556708513.581547,10.1.1.67,22,10.1.1.11,60469,4464,5792,0,66368,66608,6,6,4,1448,346,1,16778212,260,33304,192,66608,0,192,0,1
i,0x22135a50,1556708513.581944,10.1.1.67,22,10.1.1.11,60469,4464,5792,0,66432,66608,6,6,4,1448,303,1,996,257,33304,0,66608,0,0,0,1
o,0x76350fc7,1556708513.687828,10.1.1.67,22,10.1.1.11,60469,4464,5792,0,66560,66608,6,6,4,1448,303,1,997,257,33304,0,66608,0,0,0,1
i,0x630017a8,1556708513.688090,10.1.1.67,22,10.1.1.11,60469,4464,5792,0,66560,66608,6,6,4,1448,303,1,996,257,33304,0,66608,0,0,0,1
o,0x4a07509a,1556708513.688136,10.1.1.67,22,10.1.1.11,60469,4464,5792,0,66560,66608,6,6,4,1448,303,1,16778212,257,33304,52,66608,0,0,0,1
i,0xdbc3192c,1556708513.697494,10.1.1.67,22,10.1.1.11,60469,4464,5792,0,66560,66608,6,6,4,1448,303,1,16778212,257,33304,52,66608,0,52,0,1
o,0x910ed725,1556708513.697698,10.1.1.67,22,10.1.1.11,60469,4464,5792,0,66560,66608,6,6,4,1448,302,1,16778212,245,33304,88,66608,0,0,0,1
o,0x28875333,1556708513.703365,10.1.1.67,22,10.1.1.11,60469,4464,5792,0,66560,66608,6,6,4,1448,302,1,16778212,245,33304,124,66608,0,88,0,1
o,0x90d47a45,1556708513.703430,10.1.1.67,22,10.1.1.11,60469,4464,5792,0,66560,66608,6,6,4,1448,302,1,16778212,245,33304,228,66608,0,124,0,1
i,0xde43dea8,1556708513.703623,10.1.1.67,22,10.1.1.11,60469,4464,5792,0,66560,66608,6,6,4,1448,302,1,16778212,245,33304,228,66608,0,228,0,1
i,0x65ce2e12,1556708513.703998,10.1.1.67,22,10.1.1.11,60469,4464,5792,0,66560,66608,6,6,4,1448,289,1,996,239,33304,104,66608,0,104,0,2
i,0x164f7273,1556708513.728557,10.1.1.67,22,10.1.1.11,60469,4464,5792,0,66560,66608,6,6,4,1448,257,1,996,239,33304,0,66608,0,0,0,2
o,0x804287e8,1556708513.728561,10.1.1.67,22,10.1.1.11,60469,4464,5792,0,66560,66608,6,6,5,1448,257,1,997,239,33304,0,66608,36,0,0,2
o,0xeaa02b28,1556708513.728685,10.1.1.67,22,10.1.1.11,60469,4464,5792,0,66560,66608,6,6,8,1448,257,1,996,239,33304,0,0,0,0,0,2
i,0x62e015a8,1556708513.728933,10.1.1.67,22,10.1.1.11,60469,4464,5792,0,66560,66608,6,6,8,1448,257,1,1012,239,33304,0,0,0,1,0,2
i,0x56a32540,1556708514.668119,10.1.1.67,22,10.1.1.11,20407,1073725440,66590,0,66560,66608,6,6,4,1448,105,1,996,230,82456,0,66608,0,0,0,1
o,0x20af8859,1556708514.668153,10.1.1.67,22,10.1.1.11,20407,1073725440,66590,0,66560,66608,6,6,4,1448,105,1,16778212,230,82456,52,66608,0,0,0,1
i,0x936ca5a6,1556708514.687655,10.1.1.67,22,10.1.1.11,20407,1073725440,66590,0,66560,66608,6,6,4,1448,105,1,16778212,230,82456,52,66608,0,52,0,1
o,0x4675b355,1556708514.687742,10.1.1.67,22,10.1.1.11,20407,1073725440,66590,0,66560,66608,6,6,4,1448,172,1,16778212,234,82456,36,66608,0,0,0,21
i,0x41a1519d,1556708514.688321,10.1.1.67,22,10.1.1.11,20407,1073725440,66590,0,66560,66608,6,6,4,1448,172,1,16778212,234,82456,36,66608,0,36,0,21
o,0xace44663,1556708514.688538,10.1.1.67,22,10.1.1.11,20407,1073725440,66590,0,66560,66608,6,6,4,1448,151,1,16778212,231,82456,88,66608,0,0,0,1
o,0xbd814739,1556708514.694053,10.1.1.67,22,10.1.1.11,20407,1073725440,66590,0,66560,66608,6,6,4,1448,151,1,16778212,231,82456,140,66608,0,88,0,1
i,0xb06177c8,1556708514.694314,10.1.1.67,22,10.1.1.11,20407,1073725440,66590,0,66560,66608,6,6,4,1448,151,1,16778212,231,82456,140,66608,0,140,0,1
o,0x733b2499,1556708514.794732,10.1.1.67,22,10.1.1.11,20407,1073725440,66590,0,66496,66608,6,6,4,1448,157,1,16778212,230,82456,52,66608,0,0,0,1
o,0xa9910c55,1556708514.795076,10.1.1.67,22,10.1.1.11,20407,1073725440,66590,0,66496,66608,6,6,4,1448,157,1,16778212,230,82456,192,66608,0,52,0,1
i,0xe8844846,1556708514.795325,10.1.1.67,22,10.1.1.11,20407,1073725440,66590,0,66496,66608,6,6,4,1448,157,1,16778212,230,82456,192,66608,0,192,0,1
i,0x0dd04e12,1556708514.795697,10.1.1.67,22,10.1.1.11,20407,1073725440,66590,0,66432,66608,6,6,4,1448,138,1,996,230,82456,0,66608,0,0,0,1
o,0x3228fba5,1556708514.901829,10.1.1.67,22,10.1.1.11,20407,1073725440,66590,0,66560,66608,6,6,4,1448,138,1,997,230,82456,0,66608,0,0,0,1
i,0x4a22f1e8,1556708514.902149,10.1.1.67,22,10.1.1.11,20407,1073725440,66590,0,66560,66608,6,6,4,1448,138,1,996,230,82456,0,66608,0,0,0,1
o,0x839d0236,1556708514.902188,10.1.1.67,22,10.1.1.11,20407,1073725440,66590,0,66560,66608,6,6,4,1448,138,1,16778212,230,82456,52,66608,0,0,0,1
i,0x20a11829,1556708514.917591,10.1.1.67,22,10.1.1.11,20407,1073725440,66590,0,66560,66608,6,6,4,1448,138,1,16778212,230,82456,52,66608,0,52,0,1
o,0x69fc2bc3,1556708514.917804,10.1.1.67,22,10.1.1.11,20407,1073725440,66590,0,66560,66608,6,6,4,1448,185,1,16778212,233,82456,88,66608,0,0,0,1
o,0x83ed78f1,1556708514.923481,10.1.1.67,22,10.1.1.11,20407,1073725440,66590,0,66560,66608,6,6,4,1448,185,1,16778212,233,82456,124,66608,0,88,0,1
o,0xc9b3072e,1556708514.923538,10.1.1.67,22,10.1.1.11,20407,1073725440,66590,0,66560,66608,6,6,4,1448,185,1,16778212,233,82456,228,66608,0,124,0,1
i,0xc0437bc6,1556708514.923754,10.1.1.67,22,10.1.1.11,20407,1073725440,66590,0,66560,66608,6,6,4,1448,185,1,16778212,233,82456,228,66608,0,228,0,1
i,0xa61842b5,1556708514.924174,10.1.1.67,22,10.1.1.11,20407,1073725440,66590,0,66560,66608,6,6,4,1448,186,1,996,230,82456,104,66608,0,104,0,2
o,0x67062ba7,1556708515.023655,10.1.1.67,22,10.1.1.11,20407,1073725440,66590,0,66560,66608,6,6,4,1448,167,1,997,230,82456,0,66608,0,0,0,2
i,0xac3806a9,1556708515.023915,10.1.1.67,22,10.1.1.11,20407,1073725440,66590,0,66560,66608,6,6,4,1448,167,1,996,230,82456,0,66608,0,0,0,2
o,0x1a526cfd,1556708515.023954,10.1.1.67,22,10.1.1.11,20407,1073725440,66590,0,66560,66608,6,6,4,1448,167,1,16778212,230,82456,52,66608,0,0,0,2
i,0xd89cd34b,1556708515.026665,10.1.1.67,22,10.1.1.11,20407,1073725440,66590,0,66560,66608,6,6,4,1448,167,1,16778212,230,82456,52,66608,0,52,0,2
o,0x289770d0,1556708515.026748,10.1.1.67,22,10.1.1.11,20407,1073725440,66590,0,66560,66608,6,6,4,1448,159,1,16778212,230,82456,36,66608,0,0,0,4
i,0x6e3cf8a2,1556708515.027322,10.1.1.67,22,10.1.1.11,20407,1073725440,66590,0,66560,66608,6,6,4,1448,159,1,16778212,230,82456,36,66608,0,36,0,4
o,0x4f28f044,1556708515.027521,10.1.1.67,22,10.1.1.11,20407,1073725440,66590,0,66560,66608,6,6,4,1448,140,1,16778212,230,82456,88,66608,0,0,0,1
o,0x87f22c99,1556708515.032976,10.1.1.67,22,10.1.1.11,20407,1073725440,66590,0,66560,66608,6,6,4,1448,140,1,16778212,230,82456,140,66608,0,88,0,1
i,0x277cf6c6,1556708515.033255,10.1.1.67,22,10.1.1.11,20407,1073725440,66590,0,66560,66608,6,6,4,1448,140,1,16778212,230,82456,140,66608,0,140,0,1
o,0x690448f5,1556708515.133730,10.1.1.67,22,10.1.1.11,20407,1073725440,66590,0,66496,66608,6,6,4,1448,147,1,16778212,230,82456,52,66608,0,0,0,1
o,0x023b22f5,1556708515.134067,10.1.1.67,22,10.1.1.11,20407,1073725440,66590,0,66496,66608,6,6,4,1448,147,1,16778212,230,82456,192,66608,0,52,0,1
i,0xb58e3886,1556708515.134332,10.1.1.67,22,10.1.1.11,20407,1073725440,66590,0,66496,66608,6,6,4,1448,147,1,16778212,230,82456,192,66608,0,192,0,1
i,0xac67bb72,1556708515.134672,10.1.1.67,22,10.1.1.11,20407,1073725440,66590,0,66432,66608,6,6,4,1448,129,1,996,230,82456,0,66608,0,0,0,1
o,0xaa93dd08,1556708515.234655,10.1.1.67,22,10.1.1.11,20407,1073725440,66590,0,66560,66608,6,6,4,1448,129,1,997,230,82456,0,66608,0,0,0,1
i,0x344e73e7,1556708515.234908,10.1.1.67,22,10.1.1.11,20407,1073725440,66590,0,66560,66608,6,6,4,1448,129,1,996,230,82456,0,66608,0,0,0,1
o,0x0b23cddb,1556708515.234945,10.1.1.67,22,10.1.1.11,20407,1073725440,66590,0,66560,66608,6,6,4,1448,129,1,16778212,230,82456,52,66608,0,0,0,1
i,0xcb5c350b,1556708515.247482,10.1.1.67,22,10.1.1.11,20407,1073725440,66590,0,66560,66608,6,6,4,1448,129,1,16778212,230,82456,52,66608,0,52,0,1
o,0x579b71bf,1556708515.247698,10.1.1.67,22,10.1.1.11,20407,1073725440,66590,0,66560,66608,6,6,4,1448,161,1,16778212,230,82456,88,66608,0,0,0,1
o,0xa2ad0bd1,1556708515.253346,10.1.1.67,22,10.1.1.11,20407,1073725440,66590,0,66560,66608,6,6,4,1448,161,1,16778212,230,82456,124,66608,0,88,0,1
o,0x15726467,1556708515.253414,10.1.1.67,22,10.1.1.11,20407,1073725440,66590,0,66560,66608,6,6,4,1448,161,1,16778212,230,82456,228,66608,0,124,0,1
i,0x22a5ade7,1556708515.253610,10.1.1.67,22,10.1.1.11,20407,1073725440,66590,0,66560,66608,6,6,4,1448,161,1,16778212,230,82456,228,66608,0,228,0,1
i,0xed5e6371,1556708515.253960,10.1.1.67,22,10.1.1.11,20407,1073725440,66590,0,66560,66608,6,6,4,1448,165,1,996,230,82456,104,66608,0,104,0,2
o,0x8d24a206,1556708515.359825,10.1.1.67,22,10.1.1.11,20407,1073725440,66590,0,66560,66608,6,6,4,1448,149,1,997,230,82456,0,66608,0,0,0,2
i,0xc81161ae,1556708515.360080,10.1.1.67,22,10.1.1.11,20407,1073725440,66590,0,66560,66608,6,6,4,1448,149,1,996,230,82456,0,66608,0,0,0,2
o,0xe776bb27,1556708515.465826,10.1.1.67,22,10.1.1.11,20407,1073725440,66590,0,66560,66608,6,6,4,1448,149,1,997,230,82456,0,66608,0,0,0,2
#o,0x16f3e7d5,1556708519.697116,172.16.11.67,11264,172.16.10.65,5000,1073725440,1073725440,0,0,0,0,0,2,536,0,1,672,3000,1048576,0,1048576,0,0,0,0
#i,0x2b0fe691,1556708519.798281,172.16.11.67,11264,172.16.10.65,5000,1073725440,1073725440,0,0,0,0,0,2,536,0,1,672,3000,1048576,0,1048576,0,1,0,0
o,0xe19091bb,1556708519.798287,172.16.11.67,11264,172.16.10.65,5000,1073725440,14480,0,65535,1049800,6,6,4,1448,3264,1,16778209,506,1049800,0,1049800,0,0,0,0
o,0x2486145b,1556708519.798305,172.16.11.67,11264,172.16.10.65,5000,1073725440,14480,0,65535,1049800,6,6,4,1448,3264,1,16778208,506,1049800,28,1049800,0,0,0,0
o,0x4d81f0c5,1556708519.798337,172.16.11.67,11264,172.16.10.65,5000,1073725440,14480,0,65535,1049800,6,6,4,1448,3264,1,16778208,506,1049800,131100,1049800,0,28,0,0
o,0xcc3c5344,1556708519.798341,172.16.11.67,11264,172.16.10.65,5000,1073725440,14480,0,65535,1049800,6,6,4,1448,3264,1,16778208,506,1049800,131100,1049800,0,1476,0,0
o,0x0d14b6a3,1556708519.798345,172.16.11.67,11264,172.16.10.65,5000,1073725440,14480,0,65535,1049800,6,6,4,1448,3264,1,16778208,506,1049800,131100,1049800,0,2924,0,0
o,0xbb2b9c23,1556708519.798349,172.16.11.67,11264,172.16.10.65,5000,1073725440,14480,0,65535,1049800,6,6,4,1448,3264,1,16778208,506,1049800,131100,1049800,0,4372,0,0
o,0x960fb684,1556708519.798352,172.16.11.67,11264,172.16.10.65,5000,1073725440,14480,0,65535,1049800,6,6,4,1448,3264,1,16778208,506,1049800,131100,1049800,0,5820,0,0
o,0xbc1406e3,1556708519.798356,172.16.11.67,11264,172.16.10.65,5000,1073725440,14480,0,65535,1049800,6,6,4,1448,3264,1,16778208,506,1049800,131100,1049800,0,7268,0,0
o,0x88379663,1556708519.798359,172.16.11.67,11264,172.16.10.65,5000,1073725440,14480,0,65535,1049800,6,6,4,1448,3264,1,16778208,506,1049800,131100,1049800,0,8716,0,0
o,0x61f5dac4,1556708519.798363,172.16.11.67,11264,172.16.10.65,5000,1073725440,14480,0,65535,1049800,6,6,4,1448,3264,1,16778208,506,1049800,131100,1049800,0,10164,0,0
o,0x3be88923,1556708519.798366,172.16.11.67,11264,172.16.10.65,5000,1073725440,14480,0,65535,1049800,6,6,4,1448,3264,1,16778208,506,1049800,131100,1049800,0,11612,0,0
i,0x4e31337b,1556708519.900281,172.16.11.67,11264,172.16.10.65,5000,1073725440,14480,0,65535,1049800,6,6,4,1448,3264,1,16778208,506,1049800,1048604,1049800,0,13060,0,0
i,0x19e7d59a,1556708519.902278,172.16.11.67,11264,172.16.10.65,5000,1073725440,14480,0,1049792,1049800,6,6,4,1448,3264,1,16778208,506,1049800,1048604,1049800,0,13060,0,0
o,0xaa2ec463,1556708519.902282,172.16.11.67,11264,172.16.10.65,5000,1073725440,14480,0,1048320,1049800,6,6,4,1448,3272,1,16778208,457,1049800,1047128,1049800,0,11584,0,105
o,0x6918f5c4,1556708519.902286,172.16.11.67,11264,172.16.10.65,5000,1073725440,14480,0,1048320,1049800,6,6,4,1448,3272,1,16778208,457,1049800,1047128,1049800,0,13032,0,105
i,0x9eb7bb9a,1556708519.907278,172.16.11.67,11264,172.16.10.65,5000,1073725440,14480,0,1048320,1049800,6,6,4,1448,3272,1,16778208,457,1049800,1049800,1049800,0,14480,0,105
o,0xc97d7f23,1556708519.907282,172.16.11.67,11264,172.16.10.65,5000,1073725440,14480,0,1048320,1049800,6,6,4,1448,3299,1,16778208,426,1049800,1046904,1049800,0,11584,0,110
o,0xde7a19a3,1556708519.907286,172.16.11.67,11264,172.16.10.65,5000,1073725440,14480,0,1048320,1049800,6,6,4,1448,3299,1,16778208,426,1049800,1046904,1049800,0,13032,0,110
i,0x2387a19a,1556708519.912278,172.16.11.67,11264,172.16.10.65,5000,1073725440,14480,0,1048320,1049800,6,6,4,1448,3299,1,16778208,426,1049800,1049800,1049800,0,14480,0,110
o,0xb9b7da04,1556708519.912281,172.16.11.67,11264,172.16.10.65,5000,1073725440,14480,0,1048320,1049800,6,6,4,1448,3343,1,16778208,407,1049800,1046904,1049800,0,11584,0,115
o,0xfbb61363,1556708519.912284,172.16.11.67,11264,172.16.10.65,5000,1073725440,14480,0,1048320,1049800,6,6,4,1448,3343,1,16778208,407,1049800,1046904,1049800,0,13032,0,115
i,0x4941ec5a,1556708519.917277,172.16.11.67,11264,172.16.10.65,5000,1073725440,14480,0,1048320,1049800,6,6,4,1448,3343,1,16778208,407,1049800,1049800,1049800,0,14480,0,115
o,0x5e43cbe3,1556708519.917280,172.16.11.67,11264,172.16.10.65,5000,1073725440,14480,0,1048320,1049800,6,6,4,1448,3402,1,16778208,398,1049800,1046904,1049800,0,11584,0,120
o,0xef290544,1556708519.917284,172.16.11.67,11264,172.16.10.65,5000,1073725440,14480,0,1048320,1049800,6,6,4,1448,3402,1,16778208,398,1049800,1046904,1049800,0,13032,0,120
i,0x7147279a,1556708519.921278,172.16.11.67,11264,172.16.10.65,5000,1073725440,14480,0,1048320,1049800,6,6,4,1448,3402,1,16778208,398,1049800,1049800,1049800,0,14480,0,120
o,0x50525ca3,1556708519.921281,172.16.11.67,11264,172.16.10.65,5000,1073725440,14480,0,1048320,1049800,6,6,4,1448,3469,1,16778208,394,1049800,1046904,1049800,0,11584,0,124
o,0xfe694223,1556708519.921284,172.16.11.67,11264,172.16.10.65,5000,1073725440,14480,0,1048320,1049800,6,6,4,1448,3469,1,16778208,394,1049800,1046904,1049800,0,13032,0,124
i,0x85726afb,1556708520.008280,172.16.11.67,11264,172.16.10.65,5000,1073725440,14480,0,1048320,1049800,6,6,4,1448,3469,1,16778208,394,1049800,1049800,1049800,0,14480,0,124
o,0x7ea1f1c4,1556708520.008283,172.16.11.67,11264,172.16.10.65,5000,1073725440,17376,0,1048320,1049800,6,6,4,1448,3460,1,16778208,374,1049800,1046904,1049800,0,11584,0,107
o,0xa4a64223,1556708520.008287,172.16.11.67,11264,172.16.10.65,5000,1073725440,17376,0,1048320,1049800,6,6,4,1448,3460,1,16778208,374,1049800,1046904,1049800,0,13032,0,107
o,0x358b7b84,1556708520.008291,172.16.11.67,11264,172.16.10.65,5000,1073725440,17376,0,1048320,1049800,6,6,4,1448,3460,1,16778208,374,1049800,1046904,1049800,0,14480,0,107
o,0x4a881604,1556708520.008294,172.16.11.67,11264,172.16.10.65,5000,1073725440,17376,0,1048320,1049800,6,6,4,1448,3460,1,16778208,374,1049800,1046904,1049800,0,15928,0,107
i,0x3f8ef5dc,1556708520.013279,172.16.11.67,11264,172.16.10.65,5000,1073725440,17376,0,1048320,1049800,6,6,4,1448,3460,1,16778208,374,1049800,1049800,1049800,0,17376,0,107
o,0x8cdff563,1556708520.013281,172.16.11.67,11264,172.16.10.65,5000,1073725440,20272,0,1048320,1049800,6,6,4,1448,3452,1,16778208,360,1049800,1046904,1049800,0,14480,0,107
o,0x67c40fc4,1556708520.013285,172.16.11.67,11264,172.16.10.65,5000,1073725440,20272,0,1048320,1049800,6,6,4,1448,3452,1,16778208,360,1049800,1046904,1049800,0,15928,0,107
o,0x61ec9744,1556708520.013289,172.16.11.67,11264,172.16.10.65,5000,1073725440,20272,0,1048320,1049800,6,6,4,1448,3452,1,16778208,360,1049800,1046904,1049800,0,17376,0,107
o,0x59ebefa3,1556708520.013292,172.16.11.67,11264,172.16.10.65,5000,1073725440,20272,0,1048320,1049800,6,6,4,1448,3452,1,16778208,360,1049800,1046904,1049800,0,18824,0,107
i,0xcf32523b,1556708520.018278,172.16.11.67,11264,172.16.10.65,5000,1073725440,20272,0,1048320,1049800,6,6,4,1448,3452,1,16778208,360,1049800,1049800,1049800,0,20272,0,107
o,0x9c0f6504,1556708520.018281,172.16.11.67,11264,172.16.10.65,5000,1073725440,23168,0,1048320,1049800,6,6,4,1448,3445,1,16778208,348,1049800,1046904,1049800,0,17376,0,107
o,0x4a264a84,1556708520.018285,172.16.11.67,11264,172.16.10.65,5000,1073725440,23168,0,1048320,1049800,6,6,4,1448,3445,1,16778208,348,1049800,1046904,1049800,0,18824,0,107
o,0x8c2483e3,1556708520.018288,172.16.11.67,11264,172.16.10.65,5000,1073725440,23168,0,1048320,1049800,6,6,4,1448,3445,1,16778208,348,1049800,1046904,1049800,0,20272,0,107
o,0x4b0eb544,1556708520.018292,172.16.11.67,11264,172.16.10.65,5000,1073725440,23168,0,1048320,1049800,6,6,4,1448,3445,1,16778208,348,1049800,1046904,1049800,0,21720,0,107
i,0x239d137b,1556708520.023278,172.16.11.67,11264,172.16.10.65,5000,1073725440,23168,0,1048320,1049800,6,6,4,1448,3445,1,16778208,348,1049800,1049800,1049800,0,23168,0,107
o,0x7f9775c4,1556708520.023281,172.16.11.67,11264,172.16.10.65,5000,1073725440,26064,0,1048320,1049800,6,6,4,1448,3439,1,16778208,339,1049800,1046904,1049800,0,20272,0,107
o,0xc06fd923,1556708520.023285,172.16.11.67,11264,172.16.10.65,5000,1073725440,26064,0,1048320,1049800,6,6,4,1448,3439,1,16778208,339,1049800,1046904,1049800,0,21720,0,107
o,0x33486884,1556708520.023288,172.16.11.67,11264,172.16.10.65,5000,1073725440,26064,0,1048320,1049800,6,6,4,1448,3439,1,16778208,339,1049800,1046904,1049800,0,23168,0,107
o,0xcdf1bd24,1556708520.023292,172.16.11.67,11264,172.16.10.65,5000,1073725440,26064,0,1048320,1049800,6,6,4,1448,3439,1,16778208,339,1049800,1046904,1049800,0,24616,0,107
i,0x2436615c,1556708520.027278,172.16.11.67,11264,172.16.10.65,5000,1073725440,26064,0,1048320,1049800,6,6,4,1448,3439,1,16778208,339,1049800,1049800,1049800,0,26064,0,107
o,0xe86b38a4,1556708520.027280,172.16.11.67,11264,172.16.10.65,5000,1073725440,28960,0,1048320,1049800,6,6,4,1448,3434,1,16778208,332,1049800,1046904,1049800,0,23168,0,107
o,0x79507205,1556708520.027284,172.16.11.67,11264,172.16.10.65,5000,1073725440,28960,0,1048320,1049800,6,6,4,1448,3434,1,16778208,332,1049800,1046904,1049800,0,24616,0,107
o,0xba28d564,1556708520.027288,172.16.11.67,11264,172.16.10.65,5000,1073725440,28960,0,1048320,1049800,6,6,4,1448,3434,1,16778208,332,1049800,1046904,1049800,0,26064,0,107
o,0x683fbae4,1556708520.027291,172.16.11.67,11264,172.16.10.65,5000,1073725440,28960,0,1048320,1049800,6,6,4,1448,3434,1,16778208,332,1049800,1046904,1049800,0,27512,0,107
i,0x1fe347bb,1556708520.114279,172.16.11.67,11264,172.16.10.65,5000,1073725440,28960,0,1048320,1049800,6,6,4,1448,3434,1,16778208,332,1049800,1049800,1049800,0,28960,0,107
o,0xd1ef9305,1556708520.114282,172.16.11.67,11264,172.16.10.65,5000,1073725440,28960,0,1048320,1049800,6,6,4,1448,3429,1,16778208,327,1049800,1046904,1049800,0,26064,0,107
o,0xf7f3e364,1556708520.114286,172.16.11.67,11264,172.16.10.65,5000,1073725440,28960,0,1048320,1049800,6,6,4,1448,3429,1,16778208,327,1049800,1046904,1049800,0,27512,0,107
i,0xdfebc8da,1556708520.119280,172.16.11.67,11264,172.16.10.65,5000,1073725440,28960,0,1048320,1049800,6,6,4,1448,3429,1,16778208,327,1049800,1049800,1049800,0,28960,0,107
o,0xf13e4dc5,1556708520.119283,172.16.11.67,11264,172.16.10.65,5000,1073725440,28960,0,1048320,1049800,6,6,4,1448,3445,1,16778208,327,1049800,1046904,1049800,0,26064,0,112
o,0x063ae845,1556708520.119286,172.16.11.67,11264,172.16.10.65,5000,1073725440,28960,0,1048320,1049800,6,6,4,1448,3445,1,16778208,327,1049800,1046904,1049800,0,27512,0,112
i,0x9a0853bb,1556708520.124279,172.16.11.67,11264,172.16.10.65,5000,1073725440,28960,0,1048320,1049800,6,6,4,1448,3445,1,16778208,327,1049800,1049800,1049800,0,28960,0,112
o,0x586b95e3,1556708520.124282,172.16.11.67,11264,172.16.10.65,5000,1073725440,28960,0,1048320,1049800,6,6,4,1448,3459,1,16778208,326,1049800,1046904,1049800,0,26064,0,112
o,0x334fb044,1556708520.124285,172.16.11.67,11264,172.16.10.65,5000,1073725440,28960,0,1048320,1049800,6,6,4,1448,3459,1,16778208,326,1049800,1046904,1049800,0,27512,0,112
i,0x1ed839bb,1556708520.129279,172.16.11.67,11264,172.16.10.65,5000,1073725440,28960,0,1048320,1049800,6,6,4,1448,3459,1,16778208,326,1049800,1049800,1049800,0,28960,0,112
o,0x95dd68c4,1556708520.129282,172.16.11.67,11264,172.16.10.65,5000,1073725440,28960,0,1048320,1049800,6,6,4,1448,3491,1,16778208,330,1049800,1046904,1049800,0,26064,0,117
o,0x8ddcc123,1556708520.129286,172.16.11.67,11264,172.16.10.65,5000,1073725440,28960,0,1048320,1049800,6,6,4,1448,3491,1,16778208,330,1049800,1046904,1049800,0,27512,0,117
i,0xe38f5e99,1556708520.133278,172.16.11.67,11264,172.16.10.65,5000,1073725440,28960,0,1048320,1049800,6,6,4,1448,3491,1,16778208,330,1049800,1049800,1049800,0,28960,0,117
o,0x87ebf984,1556708520.133281,172.16.11.67,11264,172.16.10.65,5000,1073725440,28960,0,1048320,1049800,6,6,4,1448,3515,1,16778208,332,1049800,1046904,1049800,0,26064,0,116
o,0x3602df04,1556708520.133284,172.16.11.67,11264,172.16.10.65,5000,1073725440,28960,0,1048320,1049800,6,6,4,1448,3515,1,16778208,332,1049800,1046904,1049800,0,27512,0,116
i,0xce110e3a,1556708520.138278,172.16.11.67,11264,172.16.10.65,5000,1073725440,28960,0,1048320,1049800,6,6,4,1448,3515,1,16778208,332,1049800,1049800,1049800,0,28960,0,116
o,0xe0664963,1556708520.138281,172.16.11.67,11264,172.16.10.65,5000,1073725440,28960,0,1048320,1049800,6,6,4,1448,3556,1,16778208,338,1049800,1046904,1049800,0,26064,0,121
o,0x9f507ac4,1556708520.138285,172.16.11.67,11264,172.16.10.65,5000,1073725440,28960,0,1048320,1049800,6,6,4,1448,3556,1,16778208,338,1049800,1046904,1049800,0,27512,0,121
i,0x227bcf7a,1556708520.143279,172.16.11.67,11264,172.16.10.65,5000,1073725440,28960,0,1048320,1049800,6,6,4,1448,3556,1,16778208,338,1049800,1049800,1049800,0,28960,0,121
o,0xd3d93b44,1556708520.143282,172.16.11.67,11264,172.16.10.65,5000,1073725440,28960,0,1048320,1049800,6,6,4,1448,3592,1,16778208,341,1049800,1046904,1049800,0,26064,0,121
o,0x14b19ea3,1556708520.143286,172.16.11.67,11264,172.16.10.65,5000,1073725440,28960,0,1048320,1049800,6,6,4,1448,3592,1,16778208,341,1049800,1046904,1049800,0,27512,0,121
i,0xfe6f4e5a,1556708520.148278,172.16.11.67,11264,172.16.10.65,5000,1073725440,28960,0,1048320,1049800,6,6,4,1448,3592,1,16778208,341,1049800,1049800,1049800,0,28960,0,121
o,0xefef5f04,1556708520.148281,172.16.11.67,11264,172.16.10.65,5000,1073725440,28960,0,1048320,1049800,6,6,4,1448,3643,1,16778208,348,1049800,1046904,1049800,0,26064,0,126
o,0x0611cf84,1556708520.148285,172.16.11.67,11264,172.16.10.65,5000,1073725440,28960,0,1048320,1049800,6,6,4,1448,3643,1,16778208,348,1049800,1046904,1049800,0,27512,0,126
i,0xf6217d5a,1556708520.153279,172.16.11.67,11264,172.16.10.65,5000,1073725440,28960,0,1048320,1049800,6,6,4,1448,3643,1,16778208,348,1049800,1049800,1049800,0,28960,0,126
o,0x947b50e3,1556708520.153282,172.16.11.67,11264,172.16.10.65,5000,1073725440,28960,0,1048320,1049800,6,6,4,1448,3692,1,16778208,353,1049800,1046904,1049800,0,26064,0,127
o,0x25608a44,1556708520.153286,172.16.11.67,11264,172.16.10.65,5000,1073725440,28960,0,1048320,1049800,6,6,4,1448,3692,1,16778208,353,1049800,1046904,1049800,0,27512,0,127
i,0x83d8823b,1556708520.157279,172.16.11.67,11264,172.16.10.65,5000,1073725440,28960,0,1048320,1049800,6,6,4,1448,3692,1,16778208,353,1049800,1049800,1049800,0,28960,0,127
o,0x5aae18c4,1556708520.157282,172.16.11.67,11264,172.16.10.65,5000,1073725440,28960,0,1048320,1049800,6,6,4,1448,3751,1,16778208,360,1049800,1046904,1049800,0,26064,0,131
o,0x34a0c723,1556708520.157286,172.16.11.67,11264,172.16.10.65,5000,1073725440,28960,0,1048320,1049800,6,6,4,1448,3751,1,16778208,360,1049800,1046904,1049800,0,27512,0,131
i,0xbcc20d5c,1556708520.220279,172.16.11.67,11264,172.16.10.65,5000,1073725440,28960,0,1048320,1049800,6,6,4,1448,3751,1,16778208,360,1049800,1049800,1049800,0,28960,0,131
o,0xf2f3bec4,1556708520.220282,172.16.11.67,11264,172.16.10.65,5000,1073725440,31856,0,1048320,1049800,6,6,4,1448,3707,1,16778208,359,1049800,1046904,1049800,0,26064,0,107
o,0xb1ddf025,1556708520.220285,172.16.11.67,11264,172.16.10.65,5000,1073725440,31856,0,1048320,1049800,6,6,4,1448,3707,1,16778208,359,1049800,1046904,1049800,0,27512,0,107
o,0xa9dd4884,1556708520.220289,172.16.11.67,11264,172.16.10.65,5000,1073725440,31856,0,1048320,1049800,6,6,4,1448,3707,1,16778208,359,1049800,1046904,1049800,0,28960,0,107
o,0xbed9e304,1556708520.220292,172.16.11.67,11264,172.16.10.65,5000,1073725440,31856,0,1048320,1049800,6,6,4,1448,3707,1,16778208,359,1049800,1046904,1049800,0,30408,0,107
i,0x4c6569bb,1556708520.225281,172.16.11.67,11264,172.16.10.65,5000,1073725440,31856,0,1048320,1049800,6,6,4,1448,3707,1,16778208,359,1049800,1049800,1049800,0,31856,0,107
o,0x9a17a365,1556708520.225284,172.16.11.67,11264,172.16.10.65,5000,1073725440,34752,0,1048320,1049800,6,6,4,1448,3668,1,16778208,357,1049800,1046904,1049800,0,28960,0,107
o,0xdc15dcc4,1556708520.225287,172.16.11.67,11264,172.16.10.65,5000,1073725440,34752,0,1048320,1049800,6,6,4,1448,3668,1,16778208,357,1049800,1046904,1049800,0,30408,0,107
o,0xd63e6444,1556708520.225291,172.16.11.67,11264,172.16.10.65,5000,1073725440,34752,0,1048320,1049800,6,6,4,1448,3668,1,16778208,357,1049800,1046904,1049800,0,31856,0,107
o,0x92ff6684,1556708520.225295,172.16.11.67,11264,172.16.10.65,5000,1073725440,34752,0,1048320,1049800,6,6,4,1448,3668,1,16778208,357,1049800,1046904,1049800,0,33304,0,107
i,0x0681f49c,1556708520.230279,172.16.11.67,11264,172.16.10.65,5000,1073725440,34752,0,1048320,1049800,6,6,4,1448,3668,1,16778208,357,1049800,1049800,1049800,0,34752,0,107
o,0x10613204,1556708520.230282,172.16.11.67,11264,172.16.10.65,5000,1073725440,37648,0,1048320,1049800,6,6,4,1448,3634,1,16778208,354,1049800,1046904,1049800,0,31856,0,107
o,0xbe781784,1556708520.230285,172.16.11.67,11264,172.16.10.65,5000,1073725440,37648,0,1048320,1049800,6,6,4,1448,3634,1,16778208,354,1049800,1046904,1049800,0,33304,0,107
o,0xc537fac4,1556708520.230289,172.16.11.67,11264,172.16.10.65,5000,1073725440,37648,0,1048320,1049800,6,6,4,1448,3634,1,16778208,354,1049800,1046904,1049800,0,34752,0,107
o,0xbf608244,1556708520.230292,172.16.11.67,11264,172.16.10.65,5000,1073725440,37648,0,1048320,1049800,6,6,4,1448,3634,1,16778208,354,1049800,1046904,1049800,0,36200,0,107
i,0x5aecb5dc,1556708520.235279,172.16.11.67,11264,172.16.10.65,5000,1073725440,37648,0,1048320,1049800,6,6,4,1448,3634,1,16778208,354,1049800,1049800,1049800,0,37648,0,107
o,0xf3e942c4,1556708520.235282,172.16.11.67,11264,172.16.10.65,5000,1073725440,40544,0,1048320,1049800,6,6,4,1448,3604,1,16778208,350,1049800,1046904,1049800,0,34752,0,107
o,0xf9835004,1556708520.235285,172.16.11.67,11264,172.16.10.65,5000,1073725440,40544,0,1048320,1049800,6,6,4,1448,3604,1,16778208,350,1049800,1046904,1049800,0,36200,0,107
o,0xa79a3584,1556708520.235289,172.16.11.67,11264,172.16.10.65,5000,1073725440,40544,0,1048320,1049800,6,6,4,1448,3604,1,16778208,350,1049800,1046904,1049800,0,37648,0,107
o,0xbdbca604,1556708520.235293,172.16.11.67,11264,172.16.10.65,5000,1073725440,40544,0,1048320,1049800,6,6,4,1448,3604,1,16778208,350,1049800,1046904,1049800,0,39096,0,107
i,0x310cd53b,1556708520.239279,172.16.11.67,11264,172.16.10.65,5000,1073725440,40544,0,1048320,1049800,6,6,4,1448,3604,1,16778208,350,1049800,1049800,1049800,0,40544,0,107
o,0xc8d39444,1556708520.239282,172.16.11.67,11264,172.16.10.65,5000,1073725440,43440,0,1048320,1049800,6,6,4,1448,3578,1,16778208,347,1049800,1046904,1049800,0,37648,0,107
o,0x94f723c4,1556708520.239286,172.16.11.67,11264,172.16.10.65,5000,1073725440,43440,0,1048320,1049800,6,6,4,1448,3578,1,16778208,347,1049800,1046904,1049800,0,39096,0,107
o,0xa9f3be44,1556708520.239289,172.16.11.67,11264,172.16.10.65,5000,1073725440,43440,0,1048320,1049800,6,6,4,1448,3578,1,16778208,347,1049800,1046904,1049800,0,40544,0,107
o,0x48a81684,1556708520.239293,172.16.11.67,11264,172.16.10.65,5000,1073725440,43440,0,1048320,1049800,6,6,4,1448,3578,1,16778208,347,1049800,1046904,1049800,0,41992,0,107
i,0xeb29601c,1556708520.244279,172.16.11.67,11264,172.16.10.65,5000,1073725440,43440,0,1048320,1049800,6,6,4,1448,3578,1,16778208,347,1049800,1049800,1049800,0,43440,0,107
o,0x1fdad345,1556708520.244282,172.16.11.67,11264,172.16.10.65,5000,1073725440,46336,0,1048320,1049800,6,6,4,1448,3555,1,16778208,343,1049800,1046904,1049800,0,40544,0,107
o,0x1a035ac5,1556708520.244286,172.16.11.67,11264,172.16.10.65,5000,1073725440,46336,0,1048320,1049800,6,6,4,1448,3555,1,16778208,343,1049800,1046904,1049800,0,41992,0,107
o,0xd6c45d05,1556708520.244289,172.16.11.67,11264,172.16.10.65,5000,1073725440,46336,0,1048320,1049800,6,6,4,1448,3555,1,16778208,343,1049800,1046904,1049800,0,43440,0,107
o,0xebc0f785,1556708520.244293,172.16.11.67,11264,172.16.10.65,5000,1073725440,46336,0,1048320,1049800,6,6,4,1448,3555,1,16778208,343,1049800,1046904,1049800,0,44888,0,107
i,0x3f94215c,1556708520.249279,172.16.11.67,11264,172.16.10.65,5000,1073725440,46336,0,1048320,1049800,6,6,4,1448,3555,1,16778208,343,1049800,1049800,1049800,0,46336,0,107
o,0x023d0e05,1556708520.249281,172.16.11.67,11264,172.16.10.65,5000,1073725440,49232,0,1048320,1049800,6,6,4,1448,3535,1,16778208,339,1049800,1046904,1049800,0,43440,0,107
o,0x08fcf145,1556708520.249285,172.16.11.67,11264,172.16.10.65,5000,1073725440,49232,0,1048320,1049800,6,6,4,1448,3535,1,16778208,339,1049800,1046904,1049800,0,44888,0,107
o,0x032578c5,1556708520.249288,172.16.11.67,11264,172.16.10.65,5000,1073725440,49232,0,1048320,1049800,6,6,4,1448,3535,1,16778208,339,1049800,1046904,1049800,0,46336,0,107
o,0xcf490845,1556708520.249292,172.16.11.67,11264,172.16.10.65,5000,1073725440,49232,0,1048320,1049800,6,6,4,1448,3535,1,16778208,339,1049800,1046904,1049800,0,47784,0,107
i,0xcf377dbb,1556708520.254278,172.16.11.67,11264,172.16.10.65,5000,1073725440,49232,0,1048320,1049800,6,6,4,1448,3535,1,16778208,339,1049800,1049800,1049800,0,49232,0,107
o,0x3d484685,1556708520.254281,172.16.11.67,11264,172.16.10.65,5000,1073725440,52128,0,1048320,1049800,6,6,4,1448,3518,1,16778208,336,1049800,1046904,1049800,0,46336,0,107
o,0xfb37fa44,1556708520.254285,172.16.11.67,11264,172.16.10.65,5000,1073725440,52128,0,1048320,1049800,6,6,4,1448,3518,1,16778208,336,1049800,1046904,1049800,0,47784,0,107
o,0x115a6ac4,1556708520.254288,172.16.11.67,11264,172.16.10.65,5000,1073725440,52128,0,1048320,1049800,6,6,4,1448,3518,1,16778208,336,1049800,1046904,1049800,0,49232,0,107
o,0x615817e6,1556708520.254292,172.16.11.67,11264,172.16.10.65,5000,1073725440,52128,0,1048320,1049800,6,6,4,1448,3518,1,16778208,336,1049800,1046904,1049800,0,50680,0,107
i,0x8954089c,1556708520.259279,172.16.11.67,11264,172.16.10.65,5000,1073725440,52128,0,1048320,1049800,6,6,4,1448,3518,1,16778208,336,1049800,1049800,1049800,0,52128,0,107
o,0xf28bbe84,1556708520.259282,172.16.11.67,11264,172.16.10.65,5000,1073725440,55024,0,1048320,1049800,6,6,4,1448,3503,1,16778208,332,1049800,1046904,1049800,0,49232,0,107
o,0xa0a2a404,1556708520.259286,172.16.11.67,11264,172.16.10.65,5000,1073725440,55024,0,1048320,1049800,6,6,4,1448,3503,1,16778208,332,1049800,1046904,1049800,0,50680,0,107
o,0xa7628744,1556708520.259289,172.16.11.67,11264,172.16.10.65,5000,1073725440,55024,0,1048320,1049800,6,6,4,1448,3503,1,16778208,332,1049800,1046904,1049800,0,52128,0,107
o,0xa18b0ec4,1556708520.259293,172.16.11.67,11264,172.16.10.65,5000,1073725440,55024,0,1048320,1049800,6,6,4,1448,3503,1,16778208,332,1049800,1046904,1049800,0,53576,0,107
i,0x5f7427fb,1556708520.263279,172.16.11.67,11264,172.16.10.65,5000,1073725440,55024,0,1048320,1049800,6,6,4,1448,3503,1,16778208,332,1049800,1049800,1049800,0,55024,0,107
o,0x8dff9244,1556708520.263281,172.16.11.67,11264,172.16.10.65,5000,1073725440,57920,0,1048320,1049800,6,6,4,1448,3490,1,16778208,330,1049800,1046904,1049800,0,52128,0,107
o,0x93999f84,1556708520.263285,172.16.11.67,11264,172.16.10.65,5000,1073725440,57920,0,1048320,1049800,6,6,4,1448,3490,1,16778208,330,1049800,1046904,1049800,0,53576,0,107
o,0x41b08504,1556708520.263288,172.16.11.67,11264,172.16.10.65,5000,1073725440,57920,0,1048320,1049800,6,6,4,1448,3490,1,16778208,330,1049800,1046904,1049800,0,55024,0,107
o,0x83aebe63,1556708520.263292,172.16.11.67,11264,172.16.10.65,5000,1073725440,57920,0,1048320,1049800,6,6,4,1448,3490,1,16778208,330,1049800,1046904,1049800,0,56472,0,107
i,0xbb9abb3b,1556708520.326283,172.16.11.67,11264,172.16.10.65,5000,1073725440,57920,0,1048320,1049800,6,6,4,1448,3490,1,16778208,330,1049800,1049800,1049800,0,57920,0,107
o,0x3ad248e3,1556708520.326286,172.16.11.67,11264,172.16.10.65,5000,1073725440,57920,0,1048320,1049800,6,6,4,1448,3478,1,16778208,327,1049800,1046904,1049800,0,55024,0,107
o,0x06f5d863,1556708520.326290,172.16.11.67,11264,172.16.10.65,5000,1073725440,57920,0,1048320,1049800,6,6,4,1448,3478,1,16778208,327,1049800,1046904,1049800,0,56472,0,107
i,0xe15505fb,1556708520.331280,172.16.11.67,11264,172.16.10.65,5000,1073725440,57920,0,1048320,1049800,6,6,4,1448,3478,1,16778208,327,1049800,1049800,1049800,0,57920,0,107
o,0x74f516a3,1556708520.331283,172.16.11.67,11264,172.16.10.65,5000,1073725440,57920,0,1048320,1049800,6,6,4,1448,3488,1,16778208,325,1049800,1046904,1049800,0,55024,0,112
o,0x230bfc23,1556708520.331286,172.16.11.67,11264,172.16.10.65,5000,1073725440,57920,0,1048320,1049800,6,6,4,1448,3488,1,16778208,325,1049800,1046904,1049800,0,56472,0,112
i,0x35bfc73b,1556708520.336279,172.16.11.67,11264,172.16.10.65,5000,1073725440,57920,0,1048320,1049800,6,6,4,1448,3488,1,16778208,325,1049800,1049800,1049800,0,57920,0,112
o,0xa1939da3,1556708520.336281,172.16.11.67,11264,172.16.10.65,5000,1073725440,57920,0,1048320,1049800,6,6,4,1448,3496,1,16778208,324,1049800,1046904,1049800,0,55024,0,112
o,0x8c5997e3,1556708520.336285,172.16.11.67,11264,172.16.10.65,5000,1073725440,57920,0,1048320,1049800,6,6,4,1448,3496,1,16778208,324,1049800,1046904,1049800,0,56472,0,112
i,0xba8fad3b,1556708520.341279,172.16.11.67,11264,172.16.10.65,5000,1073725440,57920,0,1048320,1049800,6,6,4,1448,3496,1,16778208,324,1049800,1049800,1049800,0,57920,0,112
o,0xc0e25863,1556708520.341282,172.16.11.67,11264,172.16.10.65,5000,1073725440,57920,0,1048320,1049800,6,6,4,1448,3523,1,16778208,328,1049800,1046904,1049800,0,55024,0,117
o,0xd5def2e3,1556708520.341286,172.16.11.67,11264,172.16.10.65,5000,1073725440,57920,0,1048320,1049800,6,6,4,1448,3523,1,16778208,328,1049800,1046904,1049800,0,56472,0,117
i,0xed685eda,1556708520.345284,172.16.11.67,11264,172.16.10.65,5000,1073725440,57920,0,1048320,1049800,6,6,4,1448,3523,1,16778208,328,1049800,1049800,1049800,0,57920,0,117
o,0x94e43f23,1556708520.345287,172.16.11.67,11264,172.16.10.65,5000,1073725440,57920,0,1048320,1049800,6,6,4,1448,3543,1,16778208,329,1049800,1046904,1049800,0,55024,0,116
o,0xab06afa3,1556708520.345291,172.16.11.67,11264,172.16.10.65,5000,1073725440,57920,0,1048320,1049800,6,6,4,1448,3543,1,16778208,329,1049800,1046904,1049800,0,56472,0,116
i,0xd7ea0e7b,1556708520.350283,172.16.11.67,11264,172.16.10.65,5000,1073725440,57920,0,1048320,1049800,6,6,4,1448,3543,1,16778208,329,1049800,1049800,1049800,0,57920,0,116
o,0x0d946823,1556708520.350286,172.16.11.67,11264,172.16.10.65,5000,1073725440,57920,0,1048320,1049800,6,6,4,1448,3581,1,16778208,335,1049800,1046904,1049800,0,55024,0,121
o,0xca556a63,1556708520.350290,172.16.11.67,11264,172.16.10.65,5000,1073725440,57920,0,1048320,1049800,6,6,4,1448,3581,1,16778208,335,1049800,1046904,1049800,0,56472,0,121
i,0x2c54cfbb,1556708520.355280,172.16.11.67,11264,172.16.10.65,5000,1073725440,57920,0,1048320,1049800,6,6,4,1448,3581,1,16778208,335,1049800,1049800,1049800,0,57920,0,121
o,0x47b735e3,1556708520.355282,172.16.11.67,11264,172.16.10.65,5000,1073725440,57920,0,1048320,1049800,6,6,4,1448,3614,1,16778208,338,1049800,1046904,1049800,0,55024,0,121
o,0xf5ce1b63,1556708520.355286,172.16.11.67,11264,172.16.10.65,5000,1073725440,57920,0,1048320,1049800,6,6,4,1448,3614,1,16778208,338,1049800,1046904,1049800,0,56472,0,121
i,0x7e3bc419,1556708520.360280,172.16.11.67,11264,172.16.10.65,5000,1073725440,57920,0,1048320,1049800,6,6,4,1448,3614,1,16778208,338,1049800,1049800,1049800,0,57920,0,121
o,0x64f32fa3,1556708520.360283,172.16.11.67,11264,172.16.10.65,5000,1073725440,57920,0,1048320,1049800,6,6,4,1448,3663,1,16778208,346,1049800,1046904,1049800,0,55024,0,126
o,0x5f1bb723,1556708520.360287,172.16.11.67,11264,172.16.10.65,5000,1073725440,57920,0,1048320,1049800,6,6,4,1448,3663,1,16778208,346,1049800,1046904,1049800,0,56472,0,126
i,0xdb9fbcba,1556708520.365282,172.16.11.67,11264,172.16.10.65,5000,1073725440,57920,0,1048320,1049800,6,6,4,1448,3663,1,16778208,346,1049800,1049800,1049800,0,57920,0,126
o,0x68512444,1556708520.365284,172.16.11.67,11264,172.16.10.65,5000,1073725440,57920,0,1048320,1049800,6,6,4,1448,3710,1,16778208,351,1049800,1046904,1049800,0,55024,0,127
o,0x6deb3184,1556708520.365288,172.16.11.67,11264,172.16.10.65,5000,1073725440,57920,0,1048320,1049800,6,6,4,1448,3710,1,16778208,351,1049800,1046904,1049800,0,56472,0,127
i,0x1f8ff5bb,1556708520.369278,172.16.11.67,11264,172.16.10.65,5000,1073725440,57920,0,1048320,1049800,6,6,4,1448,3710,1,16778208,351,1049800,1049800,1049800,0,57920,0,127
o,0x3c530b04,1556708520.369281,172.16.11.67,11264,172.16.10.65,5000,1073725440,57920,0,1048320,1049800,6,6,4,1448,3767,1,16778208,358,1049800,1046904,1049800,0,55024,0,131
o,0x52757b84,1556708520.369285,172.16.11.67,11264,172.16.10.65,5000,1073725440,57920,0,1048320,1049800,6,6,4,1448,3767,1,16778208,358,1049800,1046904,1049800,0,56472,0,131
i,0xaf33521a,1556708520.374279,172.16.11.67,11264,172.16.10.65,5000,1073725440,57920,0,1048320,1049800,6,6,4,1448,3767,1,16778208,358,1049800,1049800,1049800,0,57920,0,131
o,0xa5a0a6c4,1556708520.374281,172.16.11.67,11264,172.16.10.65,5000,1073725440,57920,0,1048320,1049800,6,6,4,1448,3817,1,16778208,362,1049800,1046904,1049800,0,55024,0,131
o,0x71c43644,1556708520.374285,172.16.11.67,11264,172.16.10.65,5000,1073725440,57920,0,1048320,1049800,6,6,4,1448,3817,1,16778208,362,1049800,1046904,1049800,0,56472,0,131
i,0x99b501bb,1556708520.379279,172.16.11.67,11264,172.16.10.65,5000,1073725440,57920,0,1048320,1049800,6,6,4,1448,3817,1,16778208,362,1049800,1049800,1049800,0,57920,0,131
o,0xef2601c4,1556708520.379282,172.16.11.67,11264,172.16.10.65,5000,1073725440,57920,0,1048320,1049800,6,6,4,1448,3880,1,16778208,369,1049800,1046904,1049800,0,55024,0,136
o,0x8dda5a04,1556708520.379286,172.16.11.67,11264,172.16.10.65,5000,1073725440,57920,0,1048320,1049800,6,6,4,1448,3880,1,16778208,369,1049800,1046904,1049800,0,56472,0,136
i,0xee1fc2fb,1556708520.384282,172.16.11.67,11264,172.16.10.65,5000,1073725440,57920,0,1048320,1049800,6,6,4,1448,3880,1,16778208,369,1049800,1049800,1049800,0,57920,0,136
o,0x0c61fb84,1556708520.384285,172.16.11.67,11264,172.16.10.65,5000,1073725440,57920,0,1048320,1049800,6,6,4,1448,3935,1,16778208,373,1049800,1046904,1049800,0,55024,0,136
o,0x068a8304,1556708520.384289,172.16.11.67,11264,172.16.10.65,5000,1073725440,57920,0,1048320,1049800,6,6,4,1448,3935,1,16778208,373,1049800,1046904,1049800,0,56472,0,136
i,0xae28441a,1556708520.389279,172.16.11.67,11264,172.16.10.65,5000,1073725440,57920,0,1048320,1049800,6,6,4,1448,3935,1,16778208,373,1049800,1049800,1049800,0,57920,0,136
o,0x845bd185,1556708520.389282,172.16.11.67,11264,172.16.10.65,5000,1073725440,57920,0,1048320,1049800,6,6,4,1448,4004,1,16778208,380,1049800,1046904,1049800,0,55024,0,141
o,0x99586c05,1556708520.389286,172.16.11.67,11264,172.16.10.65,5000,1073725440,57920,0,1048320,1049800,6,6,4,1448,4004,1,16778208,380,1049800,1046904,1049800,0,56472,0,141
i,0x0b7a243b,1556708520.393282,172.16.11.67,11264,172.16.10.65,5000,1073725440,57920,0,1048320,1049800,6,6,4,1448,4004,1,16778208,380,1049800,1049800,1049800,0,57920,0,141
o,0x67c04585,1556708520.393285,172.16.11.67,11264,172.16.10.65,5000,1073725440,57920,0,1048320,1049800,6,6,4,1448,4060,1,16778208,382,1049800,1046904,1049800,0,55024,0,140
o,0x6e8028c5,1556708520.393289,172.16.11.67,11264,172.16.10.65,5000,1073725440,57920,0,1048320,1049800,6,6,4,1448,4060,1,16778208,382,1049800,1046904,1049800,0,56472,0,140
i,0x904a0a3b,1556708520.398284,172.16.11.67,11264,172.16.10.65,5000,1073725440,57920,0,1048320,1049800,6,6,4,1448,4060,1,16778208,382,1049800,1049800,1049800,0,57920,0,140
o,0xd10de145,1556708520.398287,172.16.11.67,11264,172.16.10.65,5000,1073725440,57920,0,1048320,1049800,6,6,4,1448,4129,1,16778208,387,1049800,1046904,1049800,0,55024,0,145
o,0xc90d39a4,1556708520.398290,172.16.11.67,11264,172.16.10.65,5000,1073725440,57920,0,1048320,1049800,6,6,4,1448,4129,1,16778208,387,1049800,1046904,1049800,0,56472,0,145
i,0x1fed669a,1556708520.403283,172.16.11.67,11264,172.16.10.65,5000,1073725440,57920,0,1048320,1049800,6,6,4,1448,4129,1,16778208,387,1049800,1047880,1049800,0,57920,0,145
o,0x466f0524,1556708520.403286,172.16.11.67,11264,172.16.10.65,5000,1073725440,57920,0,1048320,1049800,6,6,4,1448,4189,1,16778208,390,1049800,1044984,1049800,0,55024,0,145
o,0xb9479485,1556708520.403290,172.16.11.67,11264,172.16.10.65,5000,1073725440,57920,0,1048320,1049800,6,6,4,1448,4189,1,16778208,390,1049800,1044984,1049800,0,56472,0,145
i,0x0a6f163b,1556708520.408282,172.16.11.67,11264,172.16.10.65,5000,1073725440,57920,0,1048320,1049800,6,6,4,1448,4189,1,16778208,390,1049800,1049800,1049800,0,57920,0,145
o,0x7383cd23,1556708520.408285,172.16.11.67,11264,172.16.10.65,5000,1073725440,57920,0,1048320,1049800,6,6,4,1448,4262,1,16778208,395,1049800,1046904,1049800,0,55024,0,150
o,0x6dac54a3,1556708520.408289,172.16.11.67,11264,172.16.10.65,5000,1073725440,57920,0,1048320,1049800,6,6,4,1448,4262,1,16778208,395,1049800,1046904,1049800,0,56472,0,150
i,0x0221453b,1556708520.413279,172.16.11.67,11264,172.16.10.65,5000,1073725440,57920,0,1048320,1049800,6,6,4,1448,4262,1,16778208,395,1049800,1049800,1049800,0,57920,0,150
o,0x66f6bf04,1556708520.413282,172.16.11.67,11264,172.16.10.65,5000,1073725440,57920,0,1048320,1049800,6,6,4,1448,4330,1,16778208,399,1049800,1046904,1049800,0,55024,0,151
o,0xa7cf2263,1556708520.413285,172.16.11.67,11264,172.16.10.65,5000,1073725440,57920,0,1048320,1049800,6,6,4,1448,4330,1,16778208,399,1049800,1046904,1049800,0,56472,0,151
i,0x655f1b9a,1556708520.417282,172.16.11.67,11264,172.16.10.65,5000,1073725440,57920,0,1048320,1049800,6,6,4,1448,4330,1,16778208,399,1049800,1049800,1049800,0,57920,0,151
o,0x7636fbe3,1556708520.417285,172.16.11.67,11264,172.16.10.65,5000,1073725440,57920,0,1048320,1049800,6,6,4,1448,4405,1,16778208,404,1049800,1046904,1049800,0,55024,0,155
o,0x511b1644,1556708520.417288,172.16.11.67,11264,172.16.10.65,5000,1073725440,57920,0,1048320,1049800,6,6,4,1448,4405,1,16778208,404,1049800,1046904,1049800,0,56472,0,155
i,0x5b85aada,1556708520.432283,172.16.11.67,11264,172.16.10.65,5000,1073725440,57920,0,1048320,1049800,6,6,4,1448,4405,1,16778208,404,1049800,1049800,1049800,0,57920,0,155
o,0xb04ef9a3,1556708520.432286,172.16.11.67,11264,172.16.10.65,5000,1073725440,60816,0,1048320,1049800,6,6,4,1448,4279,1,16778208,415,1049800,1046904,1049800,0,55024,0,107
o,0x7c728923,1556708520.432290,172.16.11.67,11264,172.16.10.65,5000,1073725440,60816,0,1048320,1049800,6,6,4,1448,4279,1,16778208,415,1049800,1046904,1049800,0,56472,0,107
o,0x5630cd84,1556708520.432294,172.16.11.67,11264,172.16.10.65,5000,1073725440,60816,0,1048320,1049800,6,6,4,1448,4279,1,16778208,415,1049800,1046904,1049800,0,57920,0,107
o,0x30237be3,1556708520.432298,172.16.11.67,11264,172.16.10.65,5000,1073725440,60816,0,1048320,1049800,6,6,4,1448,4279,1,16778208,415,1049800,1046904,1049800,0,59368,0,107
i,0x50dad0da,1556708520.437280,172.16.11.67,11264,172.16.10.65,5000,1073725440,60816,0,1048320,1049800,6,6,4,1448,4279,1,16778208,415,1049800,1049800,1049800,0,60816,0,107
o,0xaeab1d63,1556708520.437283,172.16.11.67,11264,172.16.10.65,5000,1073725440,63712,0,1048320,1049800,6,6,4,1448,4169,1,16778208,419,1049800,1046904,1049800,0,57920,0,107
o,0x6d954ec4,1556708520.437287,172.16.11.67,11264,172.16.10.65,5000,1073725440,63712,0,1048320,1049800,6,6,4,1448,4169,1,16778208,419,1049800,1046904,1049800,0,59368,0,107
o,0x6594a723,1556708520.437291,172.16.11.67,11264,172.16.10.65,5000,1073725440,63712,0,1048320,1049800,6,6,4,1448,4169,1,16778208,419,1049800,1046904,1049800,0,60816,0,107
o,0x7a9141a3,1556708520.437294,172.16.11.67,11264,172.16.10.65,5000,1073725440,63712,0,1048320,1049800,6,6,4,1448,4169,1,16778208,419,1049800,1046904,1049800,0,62264,0,107
i,0x958239bb,1556708520.442281,172.16.11.67,11264,172.16.10.65,5000,1073725440,63712,0,1048320,1049800,6,6,4,1448,4169,1,16778208,419,1049800,1049800,1049800,0,63712,0,107
o,0x41048625,1556708520.442284,172.16.11.67,11264,172.16.10.65,5000,1073725440,66608,0,1048320,1049800,6,6,4,1448,4072,1,16778208,418,1049800,1046904,1049800,0,60816,0,107
o,0x8302bf84,1556708520.442288,172.16.11.67,11264,172.16.10.65,5000,1073725440,66608,0,1048320,1049800,6,6,4,1448,4072,1,16778208,418,1049800,1046904,1049800,0,62264,0,107
o,0x7d2b4704,1556708520.442291,172.16.11.67,11264,172.16.10.65,5000,1073725440,66608,0,1048320,1049800,6,6,4,1448,4072,1,16778208,418,1049800,1046904,1049800,0,63712,0,107
o,0x0e108065,1556708520.442295,172.16.11.67,11264,172.16.10.65,5000,1073725440,66608,0,1048320,1049800,6,6,4,1448,4072,1,16778208,418,1049800,1046904,1049800,0,65160,0,107
i,0xe9ecfafb,1556708520.447281,172.16.11.67,11264,172.16.10.65,5000,1073725440,66608,0,1048320,1049800,6,6,4,1448,4072,1,16778208,418,1049800,1049800,1049800,0,66608,0,107
o,0xb74e14c4,1556708520.447284,172.16.11.67,11264,172.16.10.65,5000,1073725440,69504,0,1048320,1049800,6,6,4,1448,3987,1,16778208,414,1049800,1046904,1049800,0,63712,0,107
o,0x6564fa44,1556708520.447288,172.16.11.67,11264,172.16.10.65,5000,1073725440,69504,0,1048320,1049800,6,6,4,1448,3987,1,16778208,414,1049800,1046904,1049800,0,65160,0,107
o,0x404914a5,1556708520.447291,172.16.11.67,11264,172.16.10.65,5000,1073725440,69504,0,1048320,1049800,6,6,4,1448,3987,1,16778208,414,1049800,1046904,1049800,0,66608,0,107
o,0x664d6504,1556708520.447295,172.16.11.67,11264,172.16.10.65,5000,1073725440,69504,0,1048320,1049800,6,6,4,1448,3987,1,16778208,414,1049800,1046904,1049800,0,68056,0,107
i,0x25bee3fb,1556708520.451283,172.16.11.67,11264,172.16.10.65,5000,1073725440,69504,0,1048320,1049800,6,6,4,1448,3987,1,16778208,414,1049800,1049800,1049800,0,69504,0,107
o,0x52c1e884,1556708520.451285,172.16.11.67,11264,172.16.10.65,5000,1073725440,72400,0,1048320,1049800,6,6,4,1448,3913,1,16778208,408,1049800,1046904,1049800,0,66608,0,107
o,0x2c802ce5,1556708520.451289,172.16.11.67,11264,172.16.10.65,5000,1073725440,72400,0,1048320,1049800,6,6,4,1448,3913,1,16778208,408,1049800,1046904,1049800,0,68056,0,107
o,0x0672db44,1556708520.451293,172.16.11.67,11264,172.16.10.65,5000,1073725440,72400,0,1048320,1049800,6,6,4,1448,3913,1,16778208,408,1049800,1046904,1049800,0,69504,0,107
o,0x1c954bc4,1556708520.451296,172.16.11.67,11264,172.16.10.65,5000,1073725440,72400,0,1048320,1049800,6,6,4,1448,3913,1,16778208,408,1049800,1046904,1049800,0,70952,0,107
i,0x7a29a53b,1556708520.456283,172.16.11.67,11264,172.16.10.65,5000,1073725440,72400,0,1048320,1049800,6,6,4,1448,3913,1,16778208,408,1049800,1049800,1049800,0,72400,0,107
o,0x43e4ae25,1556708520.456285,172.16.11.67,11264,172.16.10.65,5000,1073725440,75296,0,1048320,1049800,6,6,4,1448,3848,1,16778208,401,1049800,1046904,1049800,0,69504,0,107
o,0x3be40684,1556708520.456289,172.16.11.67,11264,172.16.10.65,5000,1073725440,75296,0,1048320,1049800,6,6,4,1448,3848,1,16778208,401,1049800,1046904,1049800,0,70952,0,107
o,0x50e0a104,1556708520.456293,172.16.11.67,11264,172.16.10.65,5000,1073725440,75296,0,1048320,1049800,6,6,4,1448,3848,1,16778208,401,1049800,1046904,1049800,0,72400,0,107
o,0xef94f944,1556708520.456296,172.16.11.67,11264,172.16.10.65,5000,1073725440,75296,0,1048320,1049800,6,6,4,1448,3848,1,16778208,401,1049800,1046904,1049800,0,73848,0,107
i,0x09cd019a,1556708520.461279,172.16.11.67,11264,172.16.10.65,5000,1073725440,75296,0,1048320,1049800,6,6,4,1448,3848,1,16778208,401,1049800,1049800,1049800,0,75296,0,107
o,0x6e1c9ac4,1556708520.461282,172.16.11.67,11264,172.16.10.65,5000,1073725440,78192,0,1048320,1049800,6,6,4,1448,3791,1,16778208,393,1049800,1046904,1049800,0,72400,0,107
o,0x68452244,1556708520.461285,172.16.11.67,11264,172.16.10.65,5000,1073725440,78192,0,1048320,1049800,6,6,4,1448,3791,1,16778208,393,1049800,1046904,1049800,0,73848,0,107
o,0x25062484,1556708520.461289,172.16.11.67,11264,172.16.10.65,5000,1073725440,78192,0,1048320,1049800,6,6,4,1448,3791,1,16778208,393,1049800,1046904,1049800,0,75296,0,107
o,0x3a02bf04,1556708520.461293,172.16.11.67,11264,172.16.10.65,5000,1073725440,78192,0,1048320,1049800,6,6,4,1448,3791,1,16778208,393,1049800,1046904,1049800,0,76744,0,107
i,0xc3e98c7b,1556708520.466280,172.16.11.67,11264,172.16.10.65,5000,1073725440,78192,0,1048320,1049800,6,6,4,1448,3791,1,16778208,393,1049800,1049800,1049800,0,78192,0,107
o,0x507ed584,1556708520.466283,172.16.11.67,11264,172.16.10.65,5000,1073725440,81088,0,1048320,1049800,6,6,4,1448,3742,1,16778208,385,1049800,1046904,1049800,0,75296,0,107
o,0x573eb8c4,1556708520.466287,172.16.11.67,11264,172.16.10.65,5000,1073725440,81088,0,1048320,1049800,6,6,4,1448,3742,1,16778208,385,1049800,1046904,1049800,0,76744,0,107
o,0x51674044,1556708520.466290,172.16.11.67,11264,172.16.10.65,5000,1073725440,81088,0,1048320,1049800,6,6,4,1448,3742,1,16778208,385,1049800,1046904,1049800,0,78192,0,107
o,0x7635eb05,1556708520.466294,172.16.11.67,11264,172.16.10.65,5000,1073725440,81088,0,1048320,1049800,6,6,4,1448,3742,1,16778208,385,1049800,1046904,1049800,0,79640,0,107
i,0x18544cdc,1556708520.471280,172.16.11.67,11264,172.16.10.65,5000,1073725440,81088,0,1048320,1049800,6,6,4,1448,3742,1,16778208,385,1049800,1049800,1049800,0,81088,0,107
o,0xe4352945,1556708520.471282,172.16.11.67,11264,172.16.10.65,5000,1073725440,83984,0,1048320,1049800,6,6,4,1448,3699,1,16778208,377,1049800,1046904,1049800,0,78192,0,107
o,0x924c0ec5,1556708520.471286,172.16.11.67,11264,172.16.10.65,5000,1073725440,83984,0,1048320,1049800,6,6,4,1448,3699,1,16778208,377,1049800,1046904,1049800,0,79640,0,107
o,0xa86e7f45,1556708520.471290,172.16.11.67,11264,172.16.10.65,5000,1073725440,83984,0,1048320,1049800,6,6,4,1448,3699,1,16778208,377,1049800,1046904,1049800,0,81088,0,107
o,0x93347985,1556708520.471293,172.16.11.67,11264,172.16.10.65,5000,1073725440,83984,0,1048320,1049800,6,6,4,1448,3699,1,16778208,377,1049800,1046904,1049800,0,82536,0,107
i,0x8052df7a,1556708520.475281,172.16.11.67,11264,172.16.10.65,5000,1073725440,83984,0,1048320,1049800,6,6,4,1448,3699,1,16778208,377,1049800,1049800,1049800,0,83984,0,107
o,0x7fa8fd05,1556708520.475287,172.16.11.67,11264,172.16.10.65,5000,1073725440,86880,0,1048320,1049800,6,6,4,1448,3661,1,16778208,370,1049800,1046904,1049800,0,81088,0,107
o,0x94a59785,1556708520.475292,172.16.11.67,11264,172.16.10.65,5000,1073725440,86880,0,1048320,1049800,6,6,4,1448,3661,1,16778208,370,1049800,1046904,1049800,0,82536,0,107
o,0x3359efc5,1556708520.475296,172.16.11.67,11264,172.16.10.65,5000,1073725440,86880,0,1048320,1049800,6,6,4,1448,3661,1,16778208,370,1049800,1046904,1049800,0,83984,0,107
o,0x59552e84,1556708520.475299,172.16.11.67,11264,172.16.10.65,5000,1073725440,86880,0,1048320,1049800,6,6,4,1448,3661,1,16778208,370,1049800,1046904,1049800,0,85432,0,107
i,0x3a6f6a5b,1556708520.480280,172.16.11.67,11264,172.16.10.65,5000,1073725440,86880,0,1048320,1049800,6,6,4,1448,3661,1,16778208,370,1049800,1049800,1049800,0,86880,0,107
o,0xbbe2e704,1556708520.480283,172.16.11.67,11264,172.16.10.65,5000,1073725440,89776,0,1048320,1049800,6,6,4,1448,3628,1,16778208,363,1049800,1046904,1049800,0,83984,0,107
o,0x78a3e944,1556708520.480287,172.16.11.67,11264,172.16.10.65,5000,1073725440,89776,0,1048320,1049800,6,6,4,1448,3628,1,16778208,363,1049800,1046904,1049800,0,85432,0,107
o,0xd3ce67a6,1556708520.480290,172.16.11.67,11264,172.16.10.65,5000,1073725440,89776,0,1048320,1049800,6,6,4,1448,3628,1,16778208,363,1049800,1046904,1049800,0,86880,0,107
o,0xfebfd844,1556708520.480294,172.16.11.67,11264,172.16.10.65,5000,1073725440,89776,0,1048320,1049800,6,6,4,1448,3628,1,16778208,363,1049800,1046904,1049800,0,88328,0,107
i,0x8eda2b9b,1556708520.485279,172.16.11.67,11264,172.16.10.65,5000,1073725440,89776,0,1048320,1049800,6,6,4,1448,3628,1,16778208,363,1049800,1049800,1049800,0,89776,0,107
o,0x51eb0384,1556708520.485282,172.16.11.67,11264,172.16.10.65,5000,1073725440,92672,0,1048320,1049800,6,6,4,1448,3599,1,16778208,357,1049800,1046904,1049800,0,86880,0,107
o,0x1e0e9304,1556708520.485286,172.16.11.67,11264,172.16.10.65,5000,1073725440,92672,0,1048320,1049800,6,6,4,1448,3599,1,16778208,357,1049800,1046904,1049800,0,88328,0,107
o,0x330b2d84,1556708520.485289,172.16.11.67,11264,172.16.10.65,5000,1073725440,92672,0,1048320,1049800,6,6,4,1448,3599,1,16778208,357,1049800,1046904,1049800,0,89776,0,107
o,0xd1bf85c4,1556708520.485293,172.16.11.67,11264,172.16.10.65,5000,1073725440,92672,0,1048320,1049800,6,6,4,1448,3599,1,16778208,357,1049800,1046904,1049800,0,91224,0,107
i,0x3a6885bb,1556708520.490284,172.16.11.67,11264,172.16.10.65,5000,1073725440,92672,0,1048320,1049800,6,6,4,1448,3599,1,16778208,357,1049800,1049800,1049800,0,92672,0,107
o,0x50472744,1556708520.490287,172.16.11.67,11264,172.16.10.65,5000,1073725440,95568,0,1048320,1049800,6,6,4,1448,3574,1,16778208,351,1049800,1046904,1049800,0,89776,0,107
o,0x4a6faec4,1556708520.490291,172.16.11.67,11264,172.16.10.65,5000,1073725440,95568,0,1048320,1049800,6,6,4,1448,3574,1,16778208,351,1049800,1046904,1049800,0,91224,0,107
