#enable_time_secs=1556708686	enable_time_usecs=704423	siftrver=1.2.4	hz=1000	tcp_rtt_scale=32	sysname=FreeBSD	sysver=1001000	ipmode=4
o,0xac1099fe,1556708686.704440,10.1.1.67,22,10.1.1.11,29193,1073725440,20382,0,66560,66608,6,6,4,1448,112,1,16778212,230,33304,208,66608,0,156,0,1
o,0x194dde00,1556708686.704447,10.1.1.67,22,10.1.1.11,29193,1073725440,20382,0,66560,66608,6,6,4,1448,112,1,16778212,230,33304,260,66608,0,208,0,1
o,0xa67b4a37,1556708686.704656,10.1.1.67,22,10.1.1.11,29193,1073725440,20382,0,66560,66608,6,6,4,1448,112,1,16778212,230,33304,296,66608,0,260,0,1
i,0x630c3a8a,1556708686.704662,10.1.1.67,22,10.1.1.11,29193,1073725440,20382,0,66560,66608,6,6,4,1448,112,1,16778212,230,33304,296,66608,0,296,0,1
i,0x9dc02b6b,1556708686.704666,10.1.1.67,22,10.1.1.11,29193,1073725440,20538,0,66496,66608,6,6,4,1448,126,1,996,230,33304,140,66608,0,140,0,2
o,0xc83c1bee,1556708686.704802,10.1.1.67,22,10.1.1.11,29193,1073725440,20642,0,66432,66608,6,6,4,1448,115,1,16778212,230,33304,140,66608,0,36,0,2
i,0x2d4cc60a,1556708686.705050,10.1.1.67,22,10.1.1.11,29193,1073725440,20642,0,66432,66608,6,6,4,1448,115,1,16778212,230,33304,140,66608,0,140,0,2
i,0xd056d011,1556708686.705286,10.1.1.67,22,10.1.1.11,29193,1073725440,20782,0,66496,66608,6,6,4,1448,101,1,996,230,33304,0,66608,0,0,0,1
i,0xcfbb52b6,1556708686.719147,10.1.1.67,22,10.1.1.11,29193,1073725440,20782,0,66560,66608,6,6,4,1448,101,1,996,230,33304,0,66608,0,0,0,1
o,0xd8a7b14a,1556708686.719151,10.1.1.67,22,10.1.1.11,29193,1073725440,20782,0,66560,66608,6,6,5,1448,101,1,997,230,33304,0,66608,36,0,0,1
o,0xe63aa9ca,1556708686.719278,10.1.1.67,22,10.1.1.11,29193,1073725440,20782,0,66560,66608,6,6,8,1448,101,1,996,230,33304,0,0,0,0,0,1
i,0xfcee278a,1556708686.719525,10.1.1.67,22,10.1.1.11,29193,1073725440,20782,0,66560,66608,6,6,8,1448,101,1,1012,230,33304,0,0,0,1,0,1
i,0x28f6ae29,1556708686.806142,10.1.1.67,22,10.1.1.11,50129,1073725440,14481,0,66560,66608,6,6,4,1448,169,1,16778208,235,33304,0,66608,0,0,0,0
o,0x4ad9556b,1556708686.810340,10.1.1.67,22,10.1.1.11,50129,1073725440,14481,0,66560,66608,6,6,4,1448,169,1,16778208,235,33304,49,66608,25,0,0,0
o,0xad9a9906,1556708686.810826,10.1.1.67,22,10.1.1.11,50129,1073725440,14481,0,66560,66608,6,6,4,1448,169,1,16778208,235,33304,1697,66608,0,49,0,0
i,0x2d359ce4,1556708686.810831,10.1.1.67,22,10.1.1.11,50129,1073725440,14481,0,66560,66608,6,6,4,1448,169,1,16778208,235,33304,1697,66608,0,1497,0,0
i,0xd98b5769,1556708686.907381,10.1.1.67,22,10.1.1.11,50129,1073725440,14530,0,66560,66608,6,6,4,1448,152,1,992,231,33304,1648,66608,0,1448,0,2
o,0xbe82f665,1556708686.907384,10.1.1.67,22,10.1.1.11,50129,1073725440,15978,0,66560,66608,6,6,4,1448,517,1,16778208,327,33304,200,66608,0,0,0,97
i,0xb6648cb7,1556708686.919720,10.1.1.67,22,10.1.1.11,50129,1073725440,15978,0,66560,66608,6,6,4,1448,517,1,16778208,327,33304,200,66608,0,200,0,97
o,0xf231c6ad,1556708686.921665,10.1.1.67,22,10.1.1.11,50129,1073725440,16178,0,66560,66608,6,6,4,1448,505,1,16778208,302,33304,848,66608,0,0,0,14
i,0x52275d99,1556708686.937778,10.1.1.67,22,10.1.1.11,50129,1073725440,16178,0,66560,66608,6,6,4,1448,505,1,16778208,302,33304,848,66608,0,848,0,14
o,0x34e8d829,1556708687.043814,10.1.1.67,22,10.1.1.11,50129,1073725440,17026,0,66560,66608,6,6,4,1448,506,1,993,281,33304,0,66608,0,0,0,17
i,0x81b8e33d,1556708687.044064,10.1.1.67,22,10.1.1.11,50129,1073725440,17026,0,66560,66608,6,6,4,1448,506,1,992,281,33304,0,66608,0,0,0,17
o,0xd41a191f,1556708687.044083,10.1.1.67,22,10.1.1.11,50129,1073725440,17026,0,66560,66608,6,6,4,1448,506,1,16778208,281,33304,52,66608,0,0,0,17
i,0xbb929bfa,1556708687.078941,10.1.1.67,22,10.1.1.11,50129,1073725440,17026,0,66560,66608,6,6,4,1448,506,1,16778208,281,33304,52,66608,0,52,0,17
o,0x5dd4f324,1556708687.082152,10.1.1.67,22,10.1.1.11,50129,1073725440,17078,0,66560,66608,6,6,4,1448,583,1,16778208,286,33304,68,66608,0,0,0,36
i,0x0ad163de,1556708687.096862,10.1.1.67,22,10.1.1.11,50129,1073725440,17078,0,66560,66608,6,6,4,1448,583,1,16778208,286,33304,68,66608,0,68,0,36
o,0x1a0fe15d,1556708687.096874,10.1.1.67,22,10.1.1.11,50129,1073725440,17146,0,66560,66608,6,6,4,1448,571,1,16778208,272,33304,52,66608,0,0,0,16
i,0x5274e8e8,1556708687.097344,10.1.1.67,22,10.1.1.11,50129,1073725440,17146,0,66560,66608,6,6,4,1448,571,1,16778208,272,33304,52,66608,0,52,0,16
o,0xef38bc81,1556708687.097385,10.1.1.67,22,10.1.1.11,50129,1073725440,17198,0,66560,66608,6,6,4,1448,500,1,16778208,274,33304,68,66608,0,0,0,1
i,0x09cec4bc,1556708687.127508,10.1.1.67,22,10.1.1.11,50129,1073725440,17198,0,66560,66608,6,6,4,1448,500,1,16778208,274,33304,68,66608,0,68,0,1
o,0xd0107e5c,1556708687.127520,10.1.1.67,22,10.1.1.11,50129,1073725440,17266,0,66560,66608,6,6,4,1448,558,1,16778208,276,33304,52,66608,0,0,0,31
i,0x9b2d7c92,1556708687.127996,10.1.1.67,22,10.1.1.11,50129,1073725440,17266,0,66560,66608,6,6,4,1448,558,1,16778208,276,33304,52,66608,0,52,0,31
o,0x6e723c57,1556708687.128438,10.1.1.67,22,10.1.1.11,50129,1073725440,17318,0,66560,66608,6,6,4,1448,493,1,16778208,275,33304,100,66608,0,0,0,2
i,0x9f275079,1556708687.128884,10.1.1.67,22,10.1.1.11,50129,1073725440,17318,0,66560,66608,6,6,4,1448,493,1,16778208,275,33304,100,66608,0,100,0,2
o,0xbe2d7adb,1556708687.132268,10.1.1.67,22,10.1.1.11,50129,1073725440,17418,0,66560,66608,6,6,4,1448,436,1,16778208,273,33304,52,66608,0,0,0,2
i,0x84497352,1556708687.132698,10.1.1.67,22,10.1.1.11,50129,1073725440,17418,0,66560,66608,6,6,4,1448,436,1,16778208,273,33304,52,66608,0,52,0,2
o,0x01139ab5,1556708687.132743,10.1.1.67,22,10.1.1.11,50129,1073725440,17470,0,66560,66608,6,6,4,1448,386,1,16778208,269,33304,36,66608,0,0,0,2
i,0x6f427761,1556708687.158021,10.1.1.67,22,10.1.1.11,50129,1073725440,17470,0,66560,66608,6,6,4,1448,386,1,16778208,269,33304,36,66608,0,36,0,2
o,0xd378f9ff,1556708687.158066,10.1.1.67,22,10.1.1.11,50129,1073725440,17506,0,66560,66608,6,6,4,1448,438,1,16778208,269,33304,52,66608,0,0,0,26
i,0xa6215dad,1556708687.177094,10.1.1.67,22,10.1.1.11,50129,1073725440,17506,0,66560,66608,6,6,4,1448,438,1,16778208,269,33304,52,66608,0,52,0,26
o,0x1b3fe332,1556708687.177189,10.1.1.67,22,10.1.1.11,50129,1073725440,17558,0,66560,66608,6,6,4,1448,460,1,16778208,262,33304,36,66608,0,0,0,20
i,0xed3e2245,1556708687.177756,10.1.1.67,22,10.1.1.11,50129,1073725440,17558,0,66560,66608,6,6,4,1448,460,1,16778208,262,33304,36,66608,0,36,0,20
o,0xf1b115e7,1556708687.177958,10.1.1.67,22,10.1.1.11,50129,1073725440,17594,0,66560,66608,6,6,4,1448,407,1,16778212,261,33304,88,66608,0,0,0,2
o,0xb54a37fb,1556708687.183519,10.1.1.67,22,10.1.1.11,50129,1073725440,17594,0,66560,66608,6,6,4,1448,407,1,16778212,261,33304,140,66608,0,88,0,2
i,0x49b5fd8a,1556708687.183785,10.1.1.67,22,10.1.1.11,50129,1073725440,17594,0,66560,66608,6,6,4,1448,407,1,16778212,261,33304,140,66608,0,140,0,2
o,0x191c050b,1556708687.185402,10.1.1.67,22,10.1.1.11,50129,1073725440,17734,0,66496,66608,6,6,4,1448,381,1,16778212,255,33304,132,66608,0,0,0,2
o,0xd5973bb1,1556708687.185412,10.1.1.67,22,10.1.1.11,50129,1073725440,17734,0,66496,66608,6,6,4,1448,381,1,16778212,255,33304,216,66608,0,132,0,2
i,0x33363b8a,1556708687.185658,10.1.1.67,22,10.1.1.11,50129,1073725440,17734,0,66496,66608,6,6,4,1448,381,1,16778212,255,33304,216,66608,0,216,0,2
o,0x7e3c73f6,1556708687.290893,10.1.1.67,22,10.1.1.11,50129,1073725440,17950,0,66368,66608,6,6,4,1448,338,1,16778212,254,33304,52,66608,0,0,0,2
o,0x3efa95f3,1556708687.291283,10.1.1.67,22,10.1.1.11,50129,1073725440,17950,0,66368,66608,6,6,4,1448,338,1,16778212,254,33304,192,66608,0,52,0,2
i,0x96972ca9,1556708687.291545,10.1.1.67,22,10.1.1.11,50129,1073725440,17950,0,66368,66608,6,6,4,1448,338,1,16778212,254,33304,192,66608,0,192,0,2
i,0x2ffcd933,1556708687.291944,10.1.1.67,22,10.1.1.11,50129,1073725440,18142,0,66432,66608,6,6,4,1448,296,1,996,252,33304,0,66608,0,0,0,1
o,0x10072f8a,1556708687.397815,10.1.1.67,22,10.1.1.11,50129,1073725440,18142,0,66560,66608,6,6,4,1448,296,1,997,252,33304,0,66608,0,0,0,1
i,0x8b1c658d,1556708687.398074,10.1.1.67,22,10.1.1.11,50129,1073725440,18142,0,66560,66608,6,6,4,1448,296,1,996,252,33304,0,66608,0,0,0,1
o,0x7f95073a,1556708687.398120,10.1.1.67,22,10.1.1.11,50129,1073725440,18142,0,66560,66608,6,6,4,1448,296,1,16778212,252,33304,52,66608,0,0,0,1
i,0xa3a5890c,1556708687.417050,10.1.1.67,22,10.1.1.11,50129,1073725440,18142,0,66560,66608,6,6,4,1448,296,1,16778212,252,33304,52,66608,0,52,0,1
o,0xe3f0664b,1556708687.417257,10.1.1.67,22,10.1.1.11,50129,1073725440,18194,0,66560,66608,6,6,4,1448,335,1,16778212,252,33304,88,66608,0,0,0,1
o,0xd1601ad5,1556708687.422956,10.1.1.67,22,10.1.1.11,50129,1073725440,18194,0,66560,66608,6,6,4,1448,335,1,16778212,252,33304,124,66608,0,88,0,1
o,0xd93d19ed,1556708687.423018,10.1.1.67,22,10.1.1.11,50129,1073725440,18194,0,66560,66608,6,6,4,1448,335,1,16778212,252,33304,228,66608,0,124,0,1
i,0xe395b14a,1556708687.423215,10.1.1.67,22,10.1.1.11,50129,1073725440,18194,0,66560,66608,6,6,4,1448,335,1,16778212,252,33304,228,66608,0,228,0,1
i,0xf754fed6,1556708687.423586,10.1.1.67,22,10.1.1.11,50129,1073725440,18318,0,66560,66608,6,6,4,1448,318,1,996,245,33304,104,66608,0,104,0,1
i,0xc79552d7,1556708687.438811,10.1.1.67,22,10.1.1.11,50129,1073725440,18422,0,66560,66608,6,6,4,1448,283,1,996,244,33304,0,66608,0,0,0,1
o,0xff4556ca,1556708687.438815,10.1.1.67,22,10.1.1.11,50129,1073725440,18422,0,66560,66608,6,6,5,1448,283,1,997,244,33304,0,66608,36,0,0,1
o,0x0cd84f4a,1556708687.438940,10.1.1.67,22,10.1.1.11,50129,1073725440,18422,0,66560,66608,6,6,8,1448,283,1,996,244,33304,0,0,0,0,0,1
i,0x85ca188a,1556708687.439065,10.1.1.67,22,10.1.1.11,50129,1073725440,18422,0,66560,66608,6,6,8,1448,283,1,1012,244,33304,0,0,0,1,0,1
i,0xfb2269e1,1556708688.448507,10.1.1.67,22,10.1.1.11,18983,4464,5792,0,66560,66608,6,6,4,1448,109,1,996,230,33304,0,66608,0,0,0,1
o,0x5ba626f9,1556708688.448543,10.1.1.67,22,10.1.1.11,18983,4464,5792,0,66560,66608,6,6,4,1448,109,1,16778212,230,33304,52,66608,0,0,0,1
i,0x8746a2a8,1556708688.483122,10.1.1.67,22,10.1.1.11,18983,4464,5792,0,66560,66608,6,6,4,1448,109,1,16778212,230,33304,52,66608,0,52,0,1
o,0x8d17a2d3,1556708688.483211,10.1.1.67,22,10.1.1.11,18983,4464,5792,0,66560,66608,6,6,4,1448,236,1,16778212,250,33304,36,66608,0,0,0,36
i,0x202f83e7,1556708688.483772,10.1.1.67,22,10.1.1.11,18983,4464,5792,0,66560,66608,6,6,4,1448,236,1,16778212,250,33304,36,66608,0,36,0,36
o,0x3f8da743,1556708688.483992,10.1.1.67,22,10.1.1.11,18983,4464,5792,0,66560,66608,6,6,4,1448,211,1,16778212,245,33304,88,66608,0,0,0,2
o,0x7d9b4e7a,1556708688.489511,10.1.1.67,22,10.1.1.11,18983,4464,5792,0,66560,66608,6,6,4,1448,211,1,16778212,245,33304,140,66608,0,88,0,2
i,0xde41a1a9,1556708688.489779,10.1.1.67,22,10.1.1.11,18983,4464,5792,0,66560,66608,6,6,4,1448,211,1,16778212,245,33304,140,66608,0,140,0,2
o,0xbaa225bc,1556708688.590724,10.1.1.67,22,10.1.1.11,18983,4464,5792,0,66496,66608,6,6,4,1448,209,1,16778212,236,33304,52,66608,0,0,0,2
o,0x89947d17,1556708688.591068,10.1.1.67,22,10.1.1.11,18983,4464,5792,0,66496,66608,6,6,4,1448,209,1,16778212,236,33304,192,66608,0,52,0,2
i,0xdb2bd629,1556708688.591319,10.1.1.67,22,10.1.1.11,18983,4464,5792,0,66496,66608,6,6,4,1448,209,1,16778212,236,33304,192,66608,0,192,0,2
i,0xdd0d3012,1556708688.591662,10.1.1.67,22,10.1.1.11,18983,4464,5792,0,66432,66608,6,6,4,1448,183,1,996,234,33304,0,66608,0,0,0,1
o,0x3bd407e9,1556708688.697816,10.1.1.67,22,10.1.1.11,18983,4464,5792,0,66560,66608,6,6,4,1448,183,1,997,234,33304,0,66608,0,0,0,1
i,0xf381bd2e,1556708688.698073,10.1.1.67,22,10.1.1.11,18983,4464,5792,0,66560,66608,6,6,4,1448,183,1,996,234,33304,0,66608,0,0,0,1
o,0x97ae2098,1556708688.698111,10.1.1.67,22,10.1.1.11,18983,4464,5792,0,66560,66608,6,6,4,1448,183,1,16778212,234,33304,52,66608,0,0,0,1
i,0xd4154e87,1556708688.723752,10.1.1.67,22,10.1.1.11,18983,4464,5792,0,66560,66608,6,6,4,1448,183,1,16778212,234,33304,52,66608,0,52,0,1
o,0x1b0f4087,1556708688.723964,10.1.1.67,22,10.1.1.11,18983,4464,5792,0,66560,66608,6,6,4,1448,265,1,16778212,250,33304,88,66608,0,0,0,1
o,0xd8e782b7,1556708688.729621,10.1.1.67,22,10.1.1.11,18983,4464,5792,0,66560,66608,6,6,4,1448,265,1,16778212,250,33304,124,66608,0,88,0,1
o,0x92fcc6c9,1556708688.729682,10.1.1.67,22,10.1.1.11,18983,4464,5792,0,66560,66608,6,6,4,1448,265,1,16778212,250,33304,228,66608,0,124,0,1
i,0x9540c0e9,1556708688.729893,10.1.1.67,22,10.1.1.11,18983,4464,5792,0,66560,66608,6,6,4,1448,265,1,16778212,250,33304,228,66608,0,228,0,1
i,0xfe388955,1556708688.730270,10.1.1.67,22,10.1.1.11,18983,4464,5792,0,66560,66608,6,6,4,1448,256,1,996,242,33304,104,66608,0,104,0,1
o,0x1a273e8a,1556708688.835815,10.1.1.67,22,10.1.1.11,18983,4464,5792,0,66560,66608,6,6,4,1448,224,1,997,240,33304,0,66608,0,0,0,1
i,0xe78daad0,1556708688.836066,10.1.1.67,22,10.1.1.11,18983,4464,5792,0,66560,66608,6,6,4,1448,224,1,996,240,33304,0,66608,0,0,0,1
o,0x8c68ff7d,1556708688.836108,10.1.1.67,22,10.1.1.11,18983,4464,5792,0,66560,66608,6,6,4,1448,224,1,16778212,240,33304,52,66608,0,0,0,1
i,0xaef52ff0,1556708688.847525,10.1.1.67,22,10.1.1.11,18983,4464,5792,0,66560,66608,6,6,4,1448,224,1,16778212,240,33304,52,66608,0,52,0,1
o,0xd906ae93,1556708688.847611,10.1.1.67,22,10.1.1.11,18983,4464,5792,0,66560,66608,6,6,4,1448,240,1,16778212,236,33304,36,66608,0,0,0,12
i,0x683419ca,1556708688.848180,10.1.1.67,22,10.1.1.11,18983,4464,5792,0,66560,66608,6,6,4,1448,240,1,16778212,236,33304,36,66608,0,36,0,12
o,0x341db346,1556708688.848376,10.1.1.67,22,10.1.1.11,18983,4464,5792,0,66560,66608,6,6,4,1448,210,1,16778212,236,33304,88,66608,0,0,0,1
o,0x04cc519b,1556708688.853789,10.1.1.67,22,10.1.1.11,18983,4464,5792,0,66560,66608,6,6,4,1448,210,1,16778212,236,33304,140,66608,0,88,0,1
i,0x00731ba9,1556708688.854052,10.1.1.67,22,10.1.1.11,18983,4464,5792,0,66560,66608,6,6,4,1448,210,1,16778212,236,33304,140,66608,0,140,0,1
o,0x843cd2fa,1556708688.960895,10.1.1.67,22,10.1.1.11,18983,4464,5792,0,66496,66608,6,6,4,1448,208,1,16778212,230,33304,52,66608,0,0,0,1
o,0x12be7237,1556708688.961231,10.1.1.67,22,10.1.1.11,18983,4464,5792,0,66496,66608,6,6,4,1448,208,1,16778212,230,33304,192,66608,0,52,0,1
i,0x35e9db8a,1556708688.961481,10.1.1.67,22,10.1.1.11,18983,4464,5792,0,66496,66608,6,6,4,1448,208,1,16778212,230,33304,192,66608,0,192,0,1
i,0x9c7bbb74,1556708688.961809,10.1.1.67,22,10.1.1.11,18983,4464,5792,0,66432,66608,6,6,4,1448,182,1,996,230,33304,0,66608,0,0,0,1
o,0x3d2d76a9,1556708689.067818,10.1.1.67,22,10.1.1.11,18983,4464,5792,0,66560,66608,6,6,4,1448,182,1,997,230,33304,0,66608,0,0,0,1
i,0x562fb5ea,1556708689.068077,10.1.1.67,22,10.1.1.11,18983,4464,5792,0,66560,66608,6,6,4,1448,182,1,996,230,33304,0,66608,0,0,0,1
o,0x56a8df18,1556708689.068113,10.1.1.67,22,10.1.1.11,18983,4464,5792,0,66560,66608,6,6,4,1448,182,1,16778212,230,33304,52,66608,0,0,0,1
i,0x1b7bf587,1556708689.111033,10.1.1.67,22,10.1.1.11,18983,4464,5792,0,66560,66608,6,6,4,1448,182,1,16778212,230,33304,52,66608,0,52,0,1
o,0xcc8c8588,1556708689.111236,10.1.1.67,22,10.1.1.11,18983,4464,5792,0,66560,66608,6,6,4,1448,332,1,16778212,265,33304,88,66608,0,0,0,1
o,0xcc33ad72,1556708689.116854,10.1.1.67,22,10.1.1.11,18983,4464,5792,0,66560,66608,6,6,4,1448,332,1,16778212,265,33304,124,66608,0,88,0,1
o,0xa16deed0,1556708689.116915,10.1.1.67,22,10.1.1.11,18983,4464,5792,0,66560,66608,6,6,4,1448,332,1,16778212,265,33304,228,66608,0,124,0,1
i,0xf4ae800a,1556708689.117154,10.1.1.67,22,10.1.1.11,18983,4464,5792,0,66560,66608,6,6,4,1448,332,1,16778212,265,33304,228,66608,0,228,0,1
i,0x374803d1,1556708689.117625,10.1.1.67,22,10.1.1.11,18983,4464,5792,0,66560,66608,6,6,4,1448,315,1,996,255,33304,104,66608,0,104,0,1
o,0xbc2beb29,1556708689.223816,10.1.1.67,22,10.1.1.11,18983,4464,5792,0,66560,66608,6,6,4,1448,280,1,997,252,33304,0,66608,0,0,0,1
i,0xc72a5872,1556708689.224072,10.1.1.67,22,10.1.1.11,18983,4464,5792,0,66560,66608,6,6,4,1448,280,1,996,252,33304,0,66608,0,0,0,1
o,0xf0f4b6e9,1556708689.329816,10.1.1.67,22,10.1.1.11,18983,4464,5792,0,66560,66608,6,6,4,1448,280,1,997,252,33304,0,66608,0,0,0,1
#o,0x91a01d34,1556708693.781033,172.16.11.67,60313,172.16.10.65,5000,1073725440,1073725440,0,0,0,0,0,2,536,0,1,672,3000,1048576,0,1048576,0,0,0,0
#i,0x546d7770,1556708693.822479,172.16.11.67,60313,172.16.10.65,5000,1073725440,1073725440,0,0,0,0,0,2,536,0,1,672,3000,1048576,0,1048576,0,1,0,0
o,0x607d291a,1556708693.822486,172.16.11.67,60313,172.16.10.65,5000,1073725440,14480,0,65535,1049800,6,6,4,1448,1344,1,16778209,326,1049800,0,1049800,0,0,0,0
o,0xa9b7903a,1556708693.822501,172.16.11.67,60313,172.16.10.65,5000,1073725440,14480,0,65535,1049800,6,6,4,1448,1344,1,16778208,326,1049800,28,1049800,0,0,0,0
o,0x847dba45,1556708693.822530,172.16.11.67,60313,172.16.10.65,5000,1073725440,14480,0,65535,1049800,6,6,4,1448,1344,1,16778208,326,1049800,131100,1049800,0,28,0,0
o,0x6a523bc2,1556708693.822534,172.16.11.67,60313,172.16.10.65,5000,1073725440,14480,0,65535,1049800,6,6,4,1448,1344,1,16778208,326,1049800,131100,1049800,0,1476,0,0
o,0x44108023,1556708693.822537,172.16.11.67,60313,172.16.10.65,5000,1073725440,14480,0,65535,1049800,6,6,4,1448,1344,1,16778208,326,1049800,131100,1049800,0,2924,0,0
o,0xf22765a3,1556708693.822541,172.16.11.67,60313,172.16.10.65,5000,1073725440,14480,0,65535,1049800,6,6,4,1448,1344,1,16778208,326,1049800,131100,1049800,0,4372,0,0
o,0x34259f02,1556708693.822544,172.16.11.67,60313,172.16.10.65,5000,1073725440,14480,0,65535,1049800,6,6,4,1448,1344,1,16778208,326,1049800,131100,1049800,0,5820,0,0
o,0xf30fd063,1556708693.822548,172.16.11.67,60313,172.16.10.65,5000,1073725440,14480,0,65535,1049800,6,6,4,1448,1344,1,16778208,326,1049800,131100,1049800,0,7268,0,0
o,0xeb0f28c2,1556708693.822551,172.16.11.67,60313,172.16.10.65,5000,1073725440,14480,0,65535,1049800,6,6,4,1448,1344,1,16778208,326,1049800,131100,1049800,0,8716,0,0
o,0x000bc342,1556708693.822555,172.16.11.67,60313,172.16.10.65,5000,1073725440,14480,0,65535,1049800,6,6,4,1448,1344,1,16778208,326,1049800,131100,1049800,0,10164,0,0
o,0x72e452a3,1556708693.822558,172.16.11.67,60313,172.16.10.65,5000,1073725440,14480,0,65535,1049800,6,6,4,1448,1344,1,16778208,326,1049800,131100,1049800,0,11612,0,0
i,0x858f555a,1556708693.864477,172.16.11.67,60313,172.16.10.65,5000,1073725440,14480,0,65535,1049800,6,6,4,1448,1344,1,16778208,326,1049800,1048604,1049800,0,13060,0,0
i,0xa77b4eb9,1556708693.889476,172.16.11.67,60313,172.16.10.65,5000,1073725440,14480,0,1049792,1049800,6,6,4,1448,1344,1,16778208,326,1049800,1048604,1049800,0,13060,0,0
o,0x922e8302,1556708693.889481,172.16.11.67,60313,172.16.10.65,5000,1073725440,15956,0,1048320,1049800,6,6,4,1448,1444,1,16778208,333,1049800,1047128,1049800,0,11584,0,68
o,0x8c570a82,1556708693.889486,172.16.11.67,60313,172.16.10.65,5000,1073725440,15956,0,1048320,1049800,6,6,4,1448,1444,1,16778208,333,1049800,1047128,1049800,0,13032,0,68
o,0x587a9a02,1556708693.889489,172.16.11.67,60313,172.16.10.65,5000,1073725440,15956,0,1048320,1049800,6,6,4,1448,1444,1,16778208,333,1049800,1047128,1049800,0,14480,0,68
i,0xbb79a97b,1556708693.936475,172.16.11.67,60313,172.16.10.65,5000,1073725440,15956,0,1048320,1049800,6,6,4,1448,1444,1,16778208,333,1049800,1049800,1049800,0,15928,0,68
o,0x94ec6123,1556708693.936479,172.16.11.67,60313,172.16.10.65,5000,1073725440,18852,0,1048320,1049800,6,6,4,1448,1720,1,16778208,388,1049800,1046904,1049800,0,13032,0,115
o,0x07c4f084,1556708693.936482,172.16.11.67,60313,172.16.10.65,5000,1073725440,18852,0,1048320,1049800,6,6,4,1448,1720,1,16778208,388,1049800,1046904,1049800,0,14480,0,115
o,0x76927c45,1556708693.936486,172.16.11.67,60313,172.16.10.65,5000,1073725440,18852,0,1048320,1049800,6,6,4,1448,1720,1,16778208,388,1049800,1046904,1049800,0,15928,0,115
o,0x9c96cca4,1556708693.936490,172.16.11.67,60313,172.16.10.65,5000,1073725440,18852,0,1048320,1049800,6,6,4,1448,1720,1,16778208,388,1049800,1046904,1049800,0,17376,0,115
i,0xb4c22e1a,1556708693.983476,172.16.11.67,60313,172.16.10.65,5000,1073725440,18852,0,1048320,1049800,6,6,4,1448,1720,1,16778208,388,1049800,1049800,1049800,0,18824,0,115
o,0xa4718f24,1556708693.983479,172.16.11.67,60313,172.16.10.65,5000,1073725440,21748,0,1048320,1049800,6,6,4,1448,2149,1,16778208,475,1049800,1046904,1049800,0,15928,0,162
o,0x7e2fd385,1556708693.983483,172.16.11.67,60313,172.16.10.65,5000,1073725440,21748,0,1048320,1049800,6,6,4,1448,2149,1,16778208,475,1049800,1046904,1049800,0,17376,0,162
o,0x582281e4,1556708693.983486,172.16.11.67,60313,172.16.10.65,5000,1073725440,21748,0,1048320,1049800,6,6,4,1448,2149,1,16778208,475,1049800,1046904,1049800,0,18824,0,162
o,0x6e44f264,1556708693.983490,172.16.11.67,60313,172.16.10.65,5000,1073725440,21748,0,1048320,1049800,6,6,4,1448,2149,1,16778208,475,1049800,1046904,1049800,0,20272,0,162
i,0x72d2179a,1556708694.030482,172.16.11.67,60313,172.16.10.65,5000,1073725440,21748,0,1048320,1049800,6,6,4,1448,2149,1,16778208,475,1049800,1049800,1049800,0,21720,0,162
o,0xa424ace4,1556708694.030485,172.16.11.67,60313,172.16.10.65,5000,1073725440,24644,0,1048320,1049800,6,6,4,1448,2713,1,16778208,582,1049800,1046904,1049800,0,18824,0,209
o,0x60e5af24,1556708694.030488,172.16.11.67,60313,172.16.10.65,5000,1073725440,24644,0,1048320,1049800,6,6,4,1448,2713,1,16778208,582,1049800,1046904,1049800,0,20272,0,209
o,0x75e249a4,1556708694.030491,172.16.11.67,60313,172.16.10.65,5000,1073725440,24644,0,1048320,1049800,6,6,4,1448,2713,1,16778208,582,1049800,1046904,1049800,0,21720,0,209
o,0x23f92f24,1556708694.030495,172.16.11.67,60313,172.16.10.65,5000,1073725440,24644,0,1048320,1049800,6,6,4,1448,2713,1,16778208,582,1049800,1046904,1049800,0,23168,0,209
i,0x0f4ff179,1556708694.076477,172.16.11.67,60313,172.16.10.65,5000,1073725440,24644,0,1048320,1049800,6,6,4,1448,2713,1,16778208,582,1049800,1049800,1049800,0,24616,0,209
o,0x599a5e83,1556708694.076480,172.16.11.67,60313,172.16.10.65,5000,1073725440,27540,0,1048320,1049800,6,6,4,1448,3390,1,16778208,698,1049800,1046904,1049800,0,21720,0,255
o,0x18848fe4,1556708694.076484,172.16.11.67,60313,172.16.10.65,5000,1073725440,27540,0,1048320,1049800,6,6,4,1448,3390,1,16778208,698,1049800,1046904,1049800,0,23168,0,255
o,0xe4a81f64,1556708694.076487,172.16.11.67,60313,172.16.10.65,5000,1073725440,27540,0,1048320,1049800,6,6,4,1448,3390,1,16778208,698,1049800,1046904,1049800,0,24616,0,255
o,0x258082c3,1556708694.076491,172.16.11.67,60313,172.16.10.65,5000,1073725440,27540,0,1048320,1049800,6,6,4,1448,3390,1,16778208,698,1049800,1046904,1049800,0,26064,0,255
i,0x775feb5a,1556708694.123476,172.16.11.67,60313,172.16.10.65,5000,1073725440,27540,0,1048320,1049800,6,6,4,1448,3390,1,16778208,698,1049800,1049800,1049800,0,27512,0,255
o,0x0f4e9b43,1556708694.123479,172.16.11.67,60313,172.16.10.65,5000,1073725440,30436,0,1048320,1049800,6,6,4,1448,3903,1,16778208,744,1049800,1046904,1049800,0,24616,0,235
o,0xea32b5a4,1556708694.123482,172.16.11.67,60313,172.16.10.65,5000,1073725440,30436,0,1048320,1049800,6,6,4,1448,3903,1,16778208,744,1049800,1046904,1049800,0,26064,0,235
o,0x10370603,1556708694.123486,172.16.11.67,60313,172.16.10.65,5000,1073725440,30436,0,1048320,1049800,6,6,4,1448,3903,1,16778208,744,1049800,1046904,1049800,0,27512,0,235
o,0xdc5a9583,1556708694.123489,172.16.11.67,60313,172.16.10.65,5000,1073725440,30436,0,1048320,1049800,6,6,4,1448,3903,1,16778208,744,1049800,1046904,1049800,0,28960,0,235
i,0x60e5179a,1556708694.170476,172.16.11.67,60313,172.16.10.65,5000,1073725440,30436,0,1048320,1049800,6,6,4,1448,3903,1,16778208,744,1049800,1049800,1049800,0,30408,0,235
o,0x1843e724,1556708694.170478,172.16.11.67,60313,172.16.10.65,5000,1073725440,33332,0,1048320,1049800,6,6,4,1448,4540,1,16778208,818,1049800,1046904,1049800,0,27512,0,235
o,0xb6f83f64,1556708694.170482,172.16.11.67,60313,172.16.10.65,5000,1073725440,33332,0,1048320,1049800,6,6,4,1448,4540,1,16778208,818,1049800,1046904,1049800,0,28960,0,235
o,0xcd1aafe4,1556708694.170486,172.16.11.67,60313,172.16.10.65,5000,1073725440,33332,0,1048320,1049800,6,6,4,1448,4540,1,16778208,818,1049800,1046904,1049800,0,30408,0,235
o,0xc7433764,1556708694.170489,172.16.11.67,60313,172.16.10.65,5000,1073725440,33332,0,1048320,1049800,6,6,4,1448,4540,1,16778208,818,1049800,1046904,1049800,0,31856,0,235
i,0x7bfb72db,1556708694.217477,172.16.11.67,60313,172.16.10.65,5000,1073725440,33332,0,1048320,1049800,6,6,4,1448,4540,1,16778208,818,1049800,1049800,1049800,0,33304,0,235
o,0xcfa66f64,1556708694.217480,172.16.11.67,60313,172.16.10.65,5000,1073725440,36228,0,1048320,1049800,6,6,4,1448,5097,1,16778208,856,1049800,1046904,1049800,0,30408,0,282
o,0xa964b3c5,1556708694.217483,172.16.11.67,60313,172.16.10.65,5000,1073725440,36228,0,1048320,1049800,6,6,4,1448,5097,1,16778208,856,1049800,1046904,1049800,0,31856,0,282
o,0x83576224,1556708694.217487,172.16.11.67,60313,172.16.10.65,5000,1073725440,36228,0,1048320,1049800,6,6,4,1448,5097,1,16778208,856,1049800,1046904,1049800,0,33304,0,282
o,0xa952a0e3,1556708694.217490,172.16.11.67,60313,172.16.10.65,5000,1073725440,36228,0,1048320,1049800,6,6,4,1448,5097,1,16778208,856,1049800,1046904,1049800,0,34752,0,282
i,0x9fbd25fc,1556708694.264476,172.16.11.67,60313,172.16.10.65,5000,1073725440,36228,0,1048320,1049800,6,6,4,1448,5097,1,16778208,856,1049800,1049800,1049800,0,36200,0,282
o,0xdf325b63,1556708694.264479,172.16.11.67,60313,172.16.10.65,5000,1073725440,39124,0,1048320,1049800,6,6,4,1448,5772,1,16778208,921,1049800,1046904,1049800,0,33304,0,282
o,0x9bf35da3,1556708694.264483,172.16.11.67,60313,172.16.10.65,5000,1073725440,39124,0,1048320,1049800,6,6,4,1448,5772,1,16778208,921,1049800,1046904,1049800,0,34752,0,282
o,0xb0eff823,1556708694.264487,172.16.11.67,60313,172.16.10.65,5000,1073725440,39124,0,1048320,1049800,6,6,4,1448,5772,1,16778208,921,1049800,1046904,1049800,0,36200,0,282
o,0x5f06dda3,1556708694.264490,172.16.11.67,60313,172.16.10.65,5000,1073725440,39124,0,1048320,1049800,6,6,4,1448,5772,1,16778208,921,1049800,1046904,1049800,0,37648,0,282
i,0x9ee8845b,1556708694.311476,172.16.11.67,60313,172.16.10.65,5000,1073725440,39124,0,1048320,1049800,6,6,4,1448,5772,1,16778208,921,1049800,1049800,1049800,0,39096,0,282
o,0xdcbc4a02,1556708694.311479,172.16.11.67,60313,172.16.10.65,5000,1073725440,42020,0,1048320,1049800,6,6,4,1448,6363,1,16778208,952,1049800,1046904,1049800,0,36200,0,329
o,0x9ba67b63,1556708694.311483,172.16.11.67,60313,172.16.10.65,5000,1073725440,42020,0,1048320,1049800,6,6,4,1448,6363,1,16778208,952,1049800,1046904,1049800,0,37648,0,329
o,0x67ca0ae3,1556708694.311487,172.16.11.67,60313,172.16.10.65,5000,1073725440,42020,0,1048320,1049800,6,6,4,1448,6363,1,16778208,952,1049800,1046904,1049800,0,39096,0,329
o,0xa8a26e42,1556708694.311491,172.16.11.67,60313,172.16.10.65,5000,1073725440,42020,0,1048320,1049800,6,6,4,1448,6363,1,16778208,952,1049800,1046904,1049800,0,40544,0,329
i,0x5cf86ddb,1556708694.358477,172.16.11.67,60313,172.16.10.65,5000,1073725440,42020,0,1048320,1049800,6,6,4,1448,6363,1,16778208,952,1049800,1049800,1049800,0,41992,0,329
o,0x927086c2,1556708694.358480,172.16.11.67,60313,172.16.10.65,5000,1073725440,44916,0,1048320,1049800,6,6,4,1448,7068,1,16778208,1012,1049800,1046904,1049800,0,39096,0,329
o,0x6d54a123,1556708694.358483,172.16.11.67,60313,172.16.10.65,5000,1073725440,44916,0,1048320,1049800,6,6,4,1448,7068,1,16778208,1012,1049800,1046904,1049800,0,40544,0,329
o,0x9358f182,1556708694.358487,172.16.11.67,60313,172.16.10.65,5000,1073725440,44916,0,1048320,1049800,6,6,4,1448,7068,1,16778208,1012,1049800,1046904,1049800,0,41992,0,329
o,0x5f7c8102,1556708694.358490,172.16.11.67,60313,172.16.10.65,5000,1073725440,44916,0,1048320,1049800,6,6,4,1448,7068,1,16778208,1012,1049800,1046904,1049800,0,43440,0,329
i,0xc1d595db,1556708694.405456,172.16.11.67,60313,172.16.10.65,5000,1073725440,44916,0,1048320,1049800,6,6,4,1448,7068,1,16778208,1012,1049800,1049800,1049800,0,44888,0,329
o,0xb0304e82,1556708694.405459,172.16.11.67,60313,172.16.10.65,5000,1073725440,47812,0,1048320,1049800,6,6,4,1448,7685,1,16778208,1038,1049800,1046904,1049800,0,41992,0,376
o,0x4ee4a6c2,1556708694.405462,172.16.11.67,60313,172.16.10.65,5000,1073725440,47812,0,1048320,1049800,6,6,4,1448,7685,1,16778208,1038,1049800,1046904,1049800,0,43440,0,376
o,0x65071742,1556708694.405466,172.16.11.67,60313,172.16.10.65,5000,1073725440,47812,0,1048320,1049800,6,6,4,1448,7685,1,16778208,1038,1049800,1046904,1049800,0,44888,0,376
o,0x5f2f9ec2,1556708694.405469,172.16.11.67,60313,172.16.10.65,5000,1073725440,47812,0,1048320,1049800,6,6,4,1448,7685,1,16778208,1038,1049800,1046904,1049800,0,46336,0,376
i,0xa535ef7b,1556708694.451476,172.16.11.67,60313,172.16.10.65,5000,1073725440,47812,0,1048320,1049800,6,6,4,1448,7685,1,16778208,1038,1049800,1049800,1049800,0,47784,0,376
o,0x0ab41de3,1556708694.451478,172.16.11.67,60313,172.16.10.65,5000,1073725440,50708,0,1048320,1049800,6,6,4,1448,8409,1,16778208,1092,1049800,1046904,1049800,0,44888,0,376
o,0xe4726244,1556708694.451482,172.16.11.67,60313,172.16.10.65,5000,1073725440,50708,0,1048320,1049800,6,6,4,1448,8409,1,16778208,1092,1049800,1046904,1049800,0,46336,0,376
o,0x928947c4,1556708694.451485,172.16.11.67,60313,172.16.10.65,5000,1073725440,50708,0,1048320,1049800,6,6,4,1448,8409,1,16778208,1092,1049800,1046904,1049800,0,47784,0,376
o,0x2d329c64,1556708694.451489,172.16.11.67,60313,172.16.10.65,5000,1073725440,50708,0,1048320,1049800,6,6,4,1448,8409,1,16778208,1092,1049800,1046904,1049800,0,49232,0,376
i,0x47a8bb9a,1556708694.498476,172.16.11.67,60313,172.16.10.65,5000,1073725440,50708,0,1048320,1049800,6,6,4,1448,8409,1,16778208,1092,1049800,1049800,1049800,0,50680,0,376
o,0x631256e4,1556708694.498479,172.16.11.67,60313,172.16.10.65,5000,1073725440,53604,0,1048320,1049800,6,6,4,1448,9046,1,16778208,1114,1049800,1046904,1049800,0,47784,0,423
o,0xf3f79045,1556708694.498483,172.16.11.67,60313,172.16.10.65,5000,1073725440,53604,0,1048320,1049800,6,6,4,1448,9046,1,16778208,1114,1049800,1046904,1049800,0,49232,0,423
o,0x34cff3a4,1556708694.498486,172.16.11.67,60313,172.16.10.65,5000,1073725440,53604,0,1048320,1049800,6,6,4,1448,9046,1,16778208,1114,1049800,1046904,1049800,0,50680,0,423
o,0xe2e6d924,1556708694.498490,172.16.11.67,60313,172.16.10.65,5000,1073725440,53604,0,1048320,1049800,6,6,4,1448,9046,1,16778208,1114,1049800,1046904,1049800,0,52128,0,423
i,0xa6a309da,1556708694.545476,172.16.11.67,60313,172.16.10.65,5000,1073725440,53604,0,1048320,1049800,6,6,4,1448,9046,1,16778208,1114,1049800,1049800,1049800,0,53576,0,423
o,0x34c07ca4,1556708694.545478,172.16.11.67,60313,172.16.10.65,5000,1073725440,56500,0,1048320,1049800,6,6,4,1448,9792,1,16778208,1166,1049800,1046904,1049800,0,50680,0,423
o,0x1f8676e4,1556708694.545482,172.16.11.67,60313,172.16.10.65,5000,1073725440,56500,0,1048320,1049800,6,6,4,1448,9792,1,16778208,1166,1049800,1046904,1049800,0,52128,0,423
o,0xebaa0664,1556708694.545486,172.16.11.67,60313,172.16.10.65,5000,1073725440,56500,0,1048320,1049800,6,6,4,1448,9792,1,16778208,1166,1049800,1046904,1049800,0,53576,0,423
o,0x00a6a0e4,1556708694.545489,172.16.11.67,60313,172.16.10.65,5000,1073725440,56500,0,1048320,1049800,6,6,4,1448,9792,1,16778208,1166,1049800,1046904,1049800,0,55024,0,423
i,0x6a95cd1a,1556708694.592477,172.16.11.67,60313,172.16.10.65,5000,1073725440,56500,0,1048320,1049800,6,6,4,1448,9792,1,16778208,1166,1049800,1049800,1049800,0,56472,0,423
o,0x16508243,1556708694.592480,172.16.11.67,60313,172.16.10.65,5000,1073725440,59396,0,1048320,1049800,6,6,4,1448,10444,1,16778208,1184,1049800,1046904,1049800,0,53576,0,470
o,0xf1349ca4,1556708694.592484,172.16.11.67,60313,172.16.10.65,5000,1073725440,59396,0,1048320,1049800,6,6,4,1448,10444,1,16778208,1184,1049800,1046904,1049800,0,55024,0,470
o,0x1738ed03,1556708694.592488,172.16.11.67,60313,172.16.10.65,5000,1073725440,59396,0,1048320,1049800,6,6,4,1448,10444,1,16778208,1184,1049800,1046904,1049800,0,56472,0,470
o,0xe35c7c83,1556708694.592491,172.16.11.67,60313,172.16.10.65,5000,1073725440,59396,0,1048320,1049800,6,6,4,1448,10444,1,16778208,1184,1049800,1046904,1049800,0,57920,0,470
i,0x63de51b9,1556708694.639462,172.16.11.67,60313,172.16.10.65,5000,1073725440,59396,0,1048320,1049800,6,6,4,1448,10444,1,16778208,1184,1049800,1049800,1049800,0,59368,0,470
o,0x34104a03,1556708694.639465,172.16.11.67,60313,172.16.10.65,5000,1073725440,62292,0,1048320,1049800,6,6,4,1448,11203,1,16778208,1233,1049800,1046904,1049800,0,56472,0,470
o,0xd2c4a243,1556708694.639468,172.16.11.67,60313,172.16.10.65,5000,1073725440,62292,0,1048320,1049800,6,6,4,1448,11203,1,16778208,1233,1049800,1046904,1049800,0,57920,0,470
o,0xe8e712c3,1556708694.639472,172.16.11.67,60313,172.16.10.65,5000,1073725440,62292,0,1048320,1049800,6,6,4,1448,11203,1,16778208,1233,1049800,1046904,1049800,0,59368,0,470
o,0xe30f9a43,1556708694.639475,172.16.11.67,60313,172.16.10.65,5000,1073725440,62292,0,1048320,1049800,6,6,4,1448,11203,1,16778208,1233,1049800,1046904,1049800,0,60816,0,470
i,0x7dbf863b,1556708694.686477,172.16.11.67,60313,172.16.10.65,5000,1073725440,62292,0,1048320,1049800,6,6,4,1448,11203,1,16778208,1233,1049800,1049800,1049800,0,62264,0,470
o,0x01fba9c3,1556708694.686480,172.16.11.67,60313,172.16.10.65,5000,1073725440,65188,0,1048320,1049800,6,6,4,1448,11867,1,16778208,1249,1049800,1046904,1049800,0,59368,0,517
o,0xdbb9ee24,1556708694.686484,172.16.11.67,60313,172.16.10.65,5000,1073725440,65188,0,1048320,1049800,6,6,4,1448,11867,1,16778208,1249,1049800,1046904,1049800,0,60816,0,517
o,0x89d0d3a4,1556708694.686488,172.16.11.67,60313,172.16.10.65,5000,1073725440,65188,0,1048320,1049800,6,6,4,1448,11867,1,16778208,1249,1049800,1046904,1049800,0,62264,0,517
o,0xcbcf0d03,1556708694.686491,172.16.11.67,60313,172.16.10.65,5000,1073725440,65188,0,1048320,1049800,6,6,4,1448,11867,1,16778208,1249,1049800,1046904,1049800,0,63712,0,517
i,0x77080ada,1556708694.733477,172.16.11.67,60313,172.16.10.65,5000,1073725440,65188,0,1048320,1049800,6,6,4,1448,11867,1,16778208,1249,1049800,1049800,1049800,0,65160,0,517
o,0xd65b7424,1556708694.733480,172.16.11.67,60313,172.16.10.65,5000,1073725440,68084,0,1048320,1049800,6,6,4,1448,12636,1,16778208,1296,1049800,1046904,1049800,0,62264,0,517
o,0x6740ad85,1556708694.733483,172.16.11.67,60313,172.16.10.65,5000,1073725440,68084,0,1048320,1049800,6,6,4,1448,12636,1,16778208,1296,1049800,1046904,1049800,0,63712,0,517
o,0xa81910e4,1556708694.733487,172.16.11.67,60313,172.16.10.65,5000,1073725440,68084,0,1048320,1049800,6,6,4,1448,12636,1,16778208,1296,1049800,1046904,1049800,0,65160,0,517
o,0x6608c4a3,1556708694.733491,172.16.11.67,60313,172.16.10.65,5000,1073725440,68084,0,1048320,1049800,6,6,4,1448,12636,1,16778208,1296,1049800,1046904,1049800,0,66608,0,517
i,0x7633685a,1556708694.780480,172.16.11.67,60313,172.16.10.65,5000,1073725440,68084,0,1048320,1049800,6,6,4,1448,12636,1,16778208,1296,1049800,1049800,1049800,0,68056,0,517
o,0xb7e26823,1556708694.780482,172.16.11.67,60313,172.16.10.65,5000,1073725440,70980,0,1048320,1049800,6,6,4,1448,13309,1,16778208,1310,1049800,1046904,1049800,0,65160,0,564
o,0xa2a86263,1556708694.780486,172.16.11.67,60313,172.16.10.65,5000,1073725440,70980,0,1048320,1049800,6,6,4,1448,13309,1,16778208,1310,1049800,1046904,1049800,0,66608,0,564
o,0x6ecbf1e3,1556708694.780490,172.16.11.67,60313,172.16.10.65,5000,1073725440,70980,0,1048320,1049800,6,6,4,1448,13309,1,16778208,1310,1049800,1046904,1049800,0,68056,0,564
o,0x83c88c63,1556708694.780493,172.16.11.67,60313,172.16.10.65,5000,1073725440,70980,0,1048320,1049800,6,6,4,1448,13309,1,16778208,1310,1049800,1046904,1049800,0,69504,0,564
i,0xd778a71a,1556708694.826477,172.16.11.67,60313,172.16.10.65,5000,1073725440,70980,0,1048320,1049800,6,6,4,1448,13309,1,16778208,1310,1049800,1049800,1049800,0,70952,0,564
o,0x515e30c2,1556708694.826480,172.16.11.67,60313,172.16.10.65,5000,1073725440,73876,0,1048320,1049800,6,6,4,1448,14082,1,16778208,1354,1049800,1046904,1049800,0,68056,0,563
o,0x2c424b23,1556708694.826484,172.16.11.67,60313,172.16.10.65,5000,1073725440,73876,0,1048320,1049800,6,6,4,1448,14082,1,16778208,1354,1049800,1046904,1049800,0,69504,0,563
o,0x8ba28585,1556708694.826487,172.16.11.67,60313,172.16.10.65,5000,1073725440,73876,0,1048320,1049800,6,6,4,1448,14082,1,16778208,1354,1049800,1046904,1049800,0,70952,0,563
o,0xe04cc402,1556708694.826491,172.16.11.67,60313,172.16.10.65,5000,1073725440,73876,0,1048320,1049800,6,6,4,1448,14082,1,16778208,1354,1049800,1046904,1049800,0,72400,0,563
i,0x3c55cf1a,1556708694.873460,172.16.11.67,60313,172.16.10.65,5000,1073725440,73876,0,1048320,1049800,6,6,4,1448,14082,1,16778208,1354,1049800,1049800,1049800,0,73848,0,563
o,0xca1adc82,1556708694.873463,172.16.11.67,60313,172.16.10.65,5000,1073725440,76772,0,1048320,1049800,6,6,4,1448,14758,1,16778208,1365,1049800,1046904,1049800,0,70952,0,610
o,0xa4fef6e3,1556708694.873466,172.16.11.67,60313,172.16.10.65,5000,1073725440,76772,0,1048320,1049800,6,6,4,1448,14758,1,16778208,1365,1049800,1046904,1049800,0,72400,0,610
o,0xcb034742,1556708694.873470,172.16.11.67,60313,172.16.10.65,5000,1073725440,76772,0,1048320,1049800,6,6,4,1448,14758,1,16778208,1365,1049800,1046904,1049800,0,73848,0,610
o,0x9726d6c2,1556708694.873473,172.16.11.67,60313,172.16.10.65,5000,1073725440,76772,0,1048320,1049800,6,6,4,1448,14758,1,16778208,1365,1049800,1046904,1049800,0,75296,0,610
i,0xfa65b89a,1556708694.920477,172.16.11.67,60313,172.16.10.65,5000,1073725440,76772,0,1048320,1049800,6,6,4,1448,14758,1,16778208,1365,1049800,1049800,1049800,0,76744,0,610
o,0xe7daa442,1556708694.920480,172.16.11.67,60313,172.16.10.65,5000,1073725440,79668,0,1048320,1049800,6,6,4,1448,15538,1,16778208,1409,1049800,1046904,1049800,0,73848,0,610
o,0x868efc82,1556708694.920484,172.16.11.67,60313,172.16.10.65,5000,1073725440,79668,0,1048320,1049800,6,6,4,1448,15538,1,16778208,1409,1049800,1046904,1049800,0,75296,0,610
o,0x9cb16d02,1556708694.920487,172.16.11.67,60313,172.16.10.65,5000,1073725440,79668,0,1048320,1049800,6,6,4,1448,15538,1,16778208,1409,1049800,1046904,1049800,0,76744,0,610
o,0x5b9b9e63,1556708694.920491,172.16.11.67,60313,172.16.10.65,5000,1073725440,79668,0,1048320,1049800,6,6,4,1448,15538,1,16778208,1409,1049800,1046904,1049800,0,78192,0,610
i,0xe9cdbe9a,1556708694.967478,172.16.11.67,60313,172.16.10.65,5000,1073725440,79668,0,1048320,1049800,6,6,4,1448,15538,1,16778208,1409,1049800,1049800,1049800,0,79640,0,610
o,0x8a72b0a3,1556708694.967481,172.16.11.67,60313,172.16.10.65,5000,1073725440,82564,0,1048320,1049800,6,6,4,1448,16220,1,16778208,1420,1049800,1046904,1049800,0,76744,0,657
o,0x6430f504,1556708694.967485,172.16.11.67,60313,172.16.10.65,5000,1073725440,82564,0,1048320,1049800,6,6,4,1448,16220,1,16778208,1420,1049800,1046904,1049800,0,78192,0,657
o,0x3e23a363,1556708694.967488,172.16.11.67,60313,172.16.10.65,5000,1073725440,82564,0,1048320,1049800,6,6,4,1448,16220,1,16778208,1420,1049800,1046904,1049800,0,79640,0,657
o,0x544613e3,1556708694.967492,172.16.11.67,60313,172.16.10.65,5000,1073725440,82564,0,1048320,1049800,6,6,4,1448,16220,1,16778208,1420,1049800,1046904,1049800,0,81088,0,657
i,0x0d8f71bb,1556708695.014478,172.16.11.67,60313,172.16.10.65,5000,1073725440,82564,0,1048320,1049800,6,6,4,1448,16220,1,16778208,1420,1049800,1049800,1049800,0,82536,0,657
o,0x8a25ce63,1556708695.014481,172.16.11.67,60313,172.16.10.65,5000,1073725440,85460,0,1048320,1049800,6,6,4,1448,17005,1,16778208,1462,1049800,1046904,1049800,0,79640,0,657
o,0x9f91ebe4,1556708695.014485,172.16.11.67,60313,172.16.10.65,5000,1073725440,85460,0,1048320,1049800,6,6,4,1448,17005,1,16778208,1462,1049800,1046904,1049800,0,81088,0,657
o,0xb48e8664,1556708695.014489,172.16.11.67,60313,172.16.10.65,5000,1073725440,85460,0,1048320,1049800,6,6,4,1448,17005,1,16778208,1462,1049800,1046904,1049800,0,82536,0,657
o,0x276715c5,1556708695.014493,172.16.11.67,60313,172.16.10.65,5000,1073725440,85460,0,1048320,1049800,6,6,4,1448,17005,1,16778208,1462,1049800,1046904,1049800,0,83984,0,657
i,0x0cbad01a,1556708695.061476,172.16.11.67,60313,172.16.10.65,5000,1073725440,85460,0,1048320,1049800,6,6,4,1448,17005,1,16778208,1462,1049800,1049800,1049800,0,85432,0,657
o,0xe05ad843,1556708695.061479,172.16.11.67,60313,172.16.10.65,5000,1073725440,88356,0,1048320,1049800,6,6,4,1448,17692,1,16778208,1473,1049800,1046904,1049800,0,82536,0,704
o,0x9f4509a4,1556708695.061483,172.16.11.67,60313,172.16.10.65,5000,1073725440,88356,0,1048320,1049800,6,6,4,1448,17692,1,16778208,1473,1049800,1046904,1049800,0,83984,0,704
o,0x6b689924,1556708695.061486,172.16.11.67,60313,172.16.10.65,5000,1073725440,88356,0,1048320,1049800,6,6,4,1448,17692,1,16778208,1473,1049800,1046904,1049800,0,85432,0,704
o,0x7102a664,1556708695.061490,172.16.11.67,60313,172.16.10.65,5000,1073725440,88356,0,1048320,1049800,6,6,4,1448,17692,1,16778208,1473,1049800,1046904,1049800,0,86880,0,704
i,0x060354b9,1556708695.108478,172.16.11.67,60313,172.16.10.65,5000,1073725440,88356,0,1048320,1049800,6,6,4,1448,17692,1,16778208,1473,1049800,1049800,1049800,0,88328,0,704
o,0x960f1503,1556708695.108480,172.16.11.67,60313,172.16.10.65,5000,1073725440,91252,0,1048320,1049800,6,6,4,1448,18481,1,16778208,1515,1049800,1046904,1049800,0,85432,0,704
o,0x70f32f64,1556708695.108484,172.16.11.67,60313,172.16.10.65,5000,1073725440,91252,0,1048320,1049800,6,6,4,1448,18481,1,16778208,1515,1049800,1046904,1049800,0,86880,0,704
o,0x96f77fc3,1556708695.108488,172.16.11.67,60313,172.16.10.65,5000,1073725440,91252,0,1048320,1049800,6,6,4,1448,18481,1,16778208,1515,1049800,1046904,1049800,0,88328,0,704
o,0x27dcb924,1556708695.108491,172.16.11.67,60313,172.16.10.65,5000,1073725440,91252,0,1048320,1049800,6,6,4,1448,18481,1,16778208,1515,1049800,1046904,1049800,0,89776,0,704
i,0x2fa7e19a,1556708695.155479,172.16.11.67,60313,172.16.10.65,5000,1073725440,91252,0,1048320,1049800,6,6,4,1448,18481,1,16778208,1515,1049800,1049800,1049800,0,91224,0,704
o,0x789086a4,1556708695.155482,172.16.11.67,60313,172.16.10.65,5000,1073725440,94148,0,1048320,1049800,6,6,4,1448,19171,1,16778208,1525,1049800,1046904,1049800,0,88328,0,751
o,0x52833503,1556708695.155486,172.16.11.67,60313,172.16.10.65,5000,1073725440,94148,0,1048320,1049800,6,6,4,1448,19171,1,16778208,1525,1049800,1046904,1049800,0,89776,0,751
o,0x68a5a583,1556708695.155489,172.16.11.67,60313,172.16.10.65,5000,1073725440,94148,0,1048320,1049800,6,6,4,1448,19171,1,16778208,1525,1049800,1046904,1049800,0,91224,0,751
o,0x278fd6e4,1556708695.155493,172.16.11.67,60313,172.16.10.65,5000,1073725440,94148,0,1048320,1049800,6,6,4,1448,19171,1,16778208,1525,1049800,1046904,1049800,0,92672,0,751
i,0xbc62631a,1556708695.201478,172.16.11.67,60313,172.16.10.65,5000,1073725440,94148,0,1048320,1049800,6,6,4,1448,19171,1,16778208,1525,1049800,1049800,1049800,0,94120,0,751
o,0xfe67a964,1556708695.201480,172.16.11.67,60313,172.16.10.65,5000,1073725440,97044,0,1048320,1049800,6,6,4,1448,19959,1,16778208,1565,1049800,1046904,1049800,0,91224,0,751
o,0x136443e4,1556708695.201484,172.16.11.67,60313,172.16.10.65,5000,1073725440,97044,0,1048320,1049800,6,6,4,1448,19959,1,16778208,1565,1049800,1046904,1049800,0,92672,0,751
o,0xc17b2964,1556708695.201488,172.16.11.67,60313,172.16.10.65,5000,1073725440,97044,0,1048320,1049800,6,6,4,1448,19959,1,16778208,1565,1049800,1046904,1049800,0,94120,0,751
o,0xc83b0ca4,1556708695.201492,172.16.11.67,60313,172.16.10.65,5000,1073725440,97044,0,1048320,1049800,6,6,4,1448,19959,1,16778208,1565,1049800,1046904,1049800,0,95568,0,751
i,0x3f8790fc,1556708695.248478,172.16.11.67,60313,172.16.10.65,5000,1073725440,97044,0,1048320,1049800,6,6,4,1448,19959,1,16778208,1565,1049800,1049800,1049800,0,97016,0,751
o,0xd2c773c5,1556708695.248481,172.16.11.67,60313,172.16.10.65,5000,1073725440,99940,0,1048320,1049800,6,6,4,1448,20653,1,16778208,1575,1049800,1046904,1049800,0,94120,0,798
o,0x9eeb0345,1556708695.248484,172.16.11.67,60313,172.16.10.65,5000,1073725440,99940,0,1048320,1049800,6,6,4,1448,20653,1,16778208,1575,1049800,1046904,1049800,0,95568,0,798
o,0xdfc366a4,1556708695.248488,172.16.11.67,60313,172.16.10.65,5000,1073725440,99940,0,1048320,1049800,6,6,4,1448,20653,1,16778208,1575,1049800,1046904,1049800,0,97016,0,798
o,0x529bf605,1556708695.248491,172.16.11.67,60313,172.16.10.65,5000,1073725440,99940,0,1048320,1049800,6,6,4,1448,20653,1,16778208,1575,1049800,1046904,1049800,0,98464,0,798
i,0x9e81df3c,1556708695.295478,172.16.11.67,60313,172.16.10.65,5000,1073725440,99940,0,1048320,1049800,6,6,4,1448,20653,1,16778208,1575,1049800,1049800,1049800,0,99912,0,798
o,0xb44e67c4,1556708695.295481,172.16.11.67,60313,172.16.10.65,5000,1073725440,102836,0,1048320,1049800,6,6,4,1448,21448,1,16778208,1616,1049800,1046904,1049800,0,97016,0,798
o,0xda52b823,1556708695.295485,172.16.11.67,60313,172.16.10.65,5000,1073725440,102836,0,1048320,1049800,6,6,4,1448,21448,1,16778208,1616,1049800,1046904,1049800,0,98464,0,798
o,0xa67647a3,1556708695.295488,172.16.11.67,60313,172.16.10.65,5000,1073725440,102836,0,1048320,1049800,6,6,4,1448,21448,1,16778208,1616,1049800,1046904,1049800,0,99912,0,798
o,0x80348c04,1556708695.295492,172.16.11.67,60313,172.16.10.65,5000,1073725440,102836,0,1048320,1049800,6,6,4,1448,21448,1,16778208,1616,1049800,1046904,1049800,0,101360,0,798
i,0x9dad3d9b,1556708695.342477,172.16.11.67,60313,172.16.10.65,5000,1073725440,102836,0,1048320,1049800,6,6,4,1448,21448,1,16778208,1616,1049800,1049800,1049800,0,102808,0,798
o,0x95de6d63,1556708695.342480,172.16.11.67,60313,172.16.10.65,5000,1073725440,105732,0,1048320,1049800,6,6,4,1448,22143,1,16778208,1625,1049800,1046904,1049800,0,99912,0,845
o,0xac00dde3,1556708695.342484,172.16.11.67,60313,172.16.10.65,5000,1073725440,105732,0,1048320,1049800,6,6,4,1448,22143,1,16778208,1625,1049800,1046904,1049800,0,101360,0,845
o,0xd2052e42,1556708695.342487,172.16.11.67,60313,172.16.10.65,5000,1073725440,105732,0,1048320,1049800,6,6,4,1448,22143,1,16778208,1625,1049800,1046904,1049800,0,102808,0,845
o,0x62ea67a3,1556708695.342491,172.16.11.67,60313,172.16.10.65,5000,1073725440,105732,0,1048320,1049800,6,6,4,1448,22143,1,16778208,1625,1049800,1046904,1049800,0,104256,0,845
i,0x5bbd271b,1556708695.389478,172.16.11.67,60313,172.16.10.65,5000,1073725440,105732,0,1048320,1049800,6,6,4,1448,22143,1,16778208,1625,1049800,1049800,1049800,0,105704,0,845
o,0xb39e3523,1556708695.389480,172.16.11.67,60313,172.16.10.65,5000,1073725440,108628,0,1048320,1049800,6,6,4,1448,22940,1,16778208,1666,1049800,1046904,1049800,0,102808,0,845
o,0x8d90e382,1556708695.389484,172.16.11.67,60313,172.16.10.65,5000,1073725440,108628,0,1048320,1049800,6,6,4,1448,22940,1,16778208,1666,1049800,1046904,1049800,0,104256,0,845
o,0xa3b35402,1556708695.389488,172.16.11.67,60313,172.16.10.65,5000,1073725440,108628,0,1048320,1049800,6,6,4,1448,22940,1,16778208,1666,1049800,1046904,1049800,0,105704,0,845
o,0x629d8563,1556708695.389491,172.16.11.67,60313,172.16.10.65,5000,1073725440,108628,0,1048320,1049800,6,6,4,1448,22940,1,16778208,1666,1049800,1046904,1049800,0,107152,0,845
i,0xc09a4f1b,1556708695.436477,172.16.11.67,60313,172.16.10.65,5000,1073725440,108628,0,1048320,1049800,6,6,4,1448,22940,1,16778208,1666,1049800,1049800,1049800,0,108600,0,845
o,0x965410c2,1556708695.436481,172.16.11.67,60313,172.16.10.65,5000,1073725440,111524,0,1048320,1049800,6,6,4,1448,23637,1,16778208,1675,1049800,1046904,1049800,0,105704,0,892
o,0xab50ab42,1556708695.436484,172.16.11.67,60313,172.16.10.65,5000,1073725440,111524,0,1048320,1049800,6,6,4,1448,23637,1,16778208,1675,1049800,1046904,1049800,0,107152,0,892
o,0x596790c2,1556708695.436488,172.16.11.67,60313,172.16.10.65,5000,1073725440,111524,0,1048320,1049800,6,6,4,1448,23637,1,16778208,1675,1049800,1046904,1049800,0,108600,0,892
o,0x60277402,1556708695.436491,172.16.11.67,60313,172.16.10.65,5000,1073725440,111524,0,1048320,1049800,6,6,4,1448,23637,1,16778208,1675,1049800,1046904,1049800,0,110048,0,892
i,0x00c5537b,1556708695.483478,172.16.11.67,60313,172.16.10.65,5000,1073725440,111524,0,1048320,1049800,6,6,4,1448,23637,1,16778208,1675,1049800,1049800,1049800,0,111496,0,892
o,0x55e95f44,1556708695.483481,172.16.11.67,60313,172.16.10.65,5000,1073725440,114420,0,1048320,1049800,6,6,4,1448,24435,1,16778208,1715,1049800,1046904,1049800,0,108600,0,892
o,0x220ceec4,1556708695.483485,172.16.11.67,60313,172.16.10.65,5000,1073725440,114420,0,1048320,1049800,6,6,4,1448,24435,1,16778208,1715,1049800,1046904,1049800,0,110048,0,892
o,0x62e55223,1556708695.483488,172.16.11.67,60313,172.16.10.65,5000,1073725440,114420,0,1048320,1049800,6,6,4,1448,24435,1,16778208,1715,1049800,1046904,1049800,0,111496,0,892
o,0xd5bde184,1556708695.483492,172.16.11.67,60313,172.16.10.65,5000,1073725440,114420,0,1048320,1049800,6,6,4,1448,24435,1,16778208,1715,1049800,1046904,1049800,0,112944,0,892
i,0xfff0b1da,1556708695.530478,172.16.11.67,60313,172.16.10.65,5000,1073725440,114420,0,1048320,1049800,6,6,4,1448,24435,1,16778208,1715,1049800,1049800,1049800,0,114392,0,892
o,0x27978504,1556708695.530481,172.16.11.67,60313,172.16.10.65,5000,1073725440,117316,0,1048320,1049800,6,6,4,1448,25133,1,16778208,1723,1049800,1046904,1049800,0,111496,0,939
o,0x4d9bd563,1556708695.530484,172.16.11.67,60313,172.16.10.65,5000,1073725440,117316,0,1048320,1049800,6,6,4,1448,25133,1,16778208,1723,1049800,1046904,1049800,0,112944,0,939
o,0x726a8024,1556708695.530488,172.16.11.67,60313,172.16.10.65,5000,1073725440,117316,0,1048320,1049800,6,6,4,1448,25133,1,16778208,1723,1049800,1046904,1049800,0,114392,0,939
o,0x4c28c485,1556708695.530492,172.16.11.67,60313,172.16.10.65,5000,1073725440,117316,0,1048320,1049800,6,6,4,1448,25133,1,16778208,1723,1049800,1046904,1049800,0,115840,0,939
i,0x9c6e8bb9,1556708695.576478,172.16.11.67,60313,172.16.10.65,5000,1073725440,117316,0,1048320,1049800,6,6,4,1448,25133,1,16778208,1723,1049800,1049800,1049800,0,117288,0,939
o,0x19be68e4,1556708695.576481,172.16.11.67,60313,172.16.10.65,5000,1073725440,120212,0,1048320,1049800,6,6,4,1448,25928,1,16778208,1763,1049800,1046904,1049800,0,114392,0,938
o,0x2fe0d964,1556708695.576485,172.16.11.67,60313,172.16.10.65,5000,1073725440,120212,0,1048320,1049800,6,6,4,1448,25928,1,16778208,1763,1049800,1046904,1049800,0,115840,0,938
o,0x2a0960e4,1556708695.576489,172.16.11.67,60313,172.16.10.65,5000,1073725440,120212,0,1048320,1049800,6,6,4,1448,25928,1,16778208,1763,1049800,1046904,1049800,0,117288,0,938
o,0xe6ca6324,1556708695.576492,172.16.11.67,60313,172.16.10.65,5000,1073725440,120212,0,1048320,1049800,6,6,4,1448,25928,1,16778208,1763,1049800,1046904,1049800,0,118736,0,938
i,0xc613189a,1556708695.623478,172.16.11.67,60313,172.16.10.65,5000,1073725440,120212,0,1048320,1049800,6,6,4,1448,25928,1,16778208,1763,1049800,1049800,1049800,0,120184,0,938
o,0x377e30a4,1556708695.623481,172.16.11.67,60313,172.16.10.65,5000,1073725440,123108,0,1048320,1049800,6,6,4,1448,26623,1,16778208,1770,1049800,1046904,1049800,0,117288,0,985
o,0xe5951624,1556708695.623485,172.16.11.67,60313,172.16.10.65,5000,1073725440,123108,0,1048320,1049800,6,6,4,1448,26623,1,16778208,1770,1049800,1046904,1049800,0,118736,0,985
o,0x27934f83,1556708695.623488,172.16.11.67,60313,172.16.10.65,5000,1073725440,123108,0,1048320,1049800,6,6,4,1448,26623,1,16778208,1770,1049800,1046904,1049800,0,120184,0,985
o,0xe67d80e4,1556708695.623492,172.16.11.67,60313,172.16.10.65,5000,1073725440,123108,0,1048320,1049800,6,6,4,1448,26623,1,16778208,1770,1049800,1046904,1049800,0,121632,0,985
i,0xbf5b9d39,1556708695.670479,172.16.11.67,60313,172.16.10.65,5000,1073725440,123108,0,1048320,1049800,6,6,4,1448,26623,1,16778208,1770,1049800,1049800,1049800,0,123080,0,985
o,0xee584364,1556708695.670481,172.16.11.67,60313,172.16.10.65,5000,1073725440,126004,0,1048320,1049800,6,6,4,1448,27420,1,16778208,1810,1049800,1046904,1049800,0,120184,0,985
o,0x2f30a6c3,1556708695.670485,172.16.11.67,60313,172.16.10.65,5000,1073725440,126004,0,1048320,1049800,6,6,4,1448,27420,1,16778208,1810,1049800,1046904,1049800,0,121632,0,985
o,0xdd478c43,1556708695.670489,172.16.11.67,60313,172.16.10.65,5000,1073725440,126004,0,1048320,1049800,6,6,4,1448,27420,1,16778208,1810,1049800,1046904,1049800,0,123080,0,985
o,0xb82ba6a4,1556708695.670492,172.16.11.67,60313,172.16.10.65,5000,1073725440,126004,0,1048320,1049800,6,6,4,1448,27420,1,16778208,1810,1049800,1046904,1049800,0,124528,0,985
i,0x738b081a,1556708695.717480,172.16.11.67,60313,172.16.10.65,5000,1073725440,126004,0,1048320,1049800,6,6,4,1448,27420,1,16778208,1810,1049800,1049800,1049800,0,125976,0,985
o,0x051cae24,1556708695.717483,172.16.11.67,60313,172.16.10.65,5000,1073725440,128900,0,1048320,1049800,6,6,4,1448,28117,1,16778208,1817,1049800,1046904,1049800,0,123080,0,1032
o,0xd1403da4,1556708695.717487,172.16.11.67,60313,172.16.10.65,5000,1073725440,128900,0,1048320,1049800,6,6,4,1448,28117,1,16778208,1817,1049800,1046904,1049800,0,124528,0,1032
o,0x1218a103,1556708695.717491,172.16.11.67,60313,172.16.10.65,5000,1073725440,128900,0,1048320,1049800,6,6,4,1448,28117,1,16778208,1817,1049800,1046904,1049800,0,125976,0,1032
o,0x84f13064,1556708695.717494,172.16.11.67,60313,172.16.10.65,5000,1073725440,128900,0,1048320,1049800,6,6,4,1448,28117,1,16778208,1817,1049800,1046904,1049800,0,127424,0,1032
i,0xd285565a,1556708695.764477,172.16.11.67,60313,172.16.10.65,5000,1073725440,128900,0,1048320,1049800,6,6,4,1448,28117,1,16778208,1817,1049800,1049800,1049800,0,128872,0,1032
o,0xab778085,1556708695.764480,172.16.11.67,60313,172.16.10.65,5000,1073725440,131796,0,1048320,1049800,6,6,4,1448,28915,1,16778208,1857,1049800,1046904,1049800,0,125976,0,1032
o,0xd17bd0e4,1556708695.764484,172.16.11.67,60313,172.16.10.65,5000,1073725440,131796,0,1048320,1049800,6,6,4,1448,28915,1,16778208,1857,1049800,1046904,1049800,0,127424,0,1032
o,0x9d9f6064,1556708695.764487,172.16.11.67,60313,172.16.10.65,5000,1073725440,131796,0,1048320,1049800,6,6,4,1448,28915,1,16778208,1857,1049800,1046904,1049800,0,128872,0,1032
o,0x775da4c5,1556708695.764491,172.16.11.67,60313,172.16.10.65,5000,1073725440,131796,0,1048320,1049800,6,6,4,1448,28915,1,16778208,1857,1049800,1046904,1049800,0,130320,0,1032
i,0xd1b0b3da,1556708695.811477,172.16.11.67,60313,172.16.10.65,5000,1073725440,131796,0,1048320,1049800,6,6,4,1448,28915,1,16778208,1857,1049800,1049800,1049800,0,131768,0,1032
o,0x8d078624,1556708695.811480,172.16.11.67,60313,172.16.10.65,5000,1073725440,134692,0,1048320,1049800,6,6,4,1448,29613,1,16778208,1865,1049800,1046904,1049800,0,128872,0,1079
o,0xb302c4e3,1556708695.811484,172.16.11.67,60313,172.16.10.65,5000,1073725440,134692,0,1048320,1049800,6,6,4,1448,29613,1,16778208,1865,1049800,1046904,1049800,0,130320,0,1079
o,0xad2b4c63,1556708695.811487,172.16.11.67,60313,172.16.10.65,5000,1073725440,134692,0,1048320,1049800,6,6,4,1448,29613,1,16778208,1865,1049800,1046904,1049800,0,131768,0,1079
o,0x69ec4ea3,1556708695.811491,172.16.11.67,60313,172.16.10.65,5000,1073725440,134692,0,1048320,1049800,6,6,4,1448,29613,1,16778208,1865,1049800,1046904,1049800,0,133216,0,1079
i,0x8fc09d5a,1556708695.858478,172.16.11.67,60313,172.16.10.65,5000,1073725440,134692,0,1048320,1049800,6,6,4,1448,29613,1,16778208,1865,1049800,1049800,1049800,0,134664,0,1079
o,0xbaa01c23,1556708695.858480,172.16.11.67,60313,172.16.10.65,5000,1073725440,137588,0,1048320,1049800,6,6,4,1448,30412,1,16778208,1905,1049800,1046904,1049800,0,131768,0,1079
o,0x68b701a3,1556708695.858484,172.16.11.67,60313,172.16.10.65,5000,1073725440,137588,0,1048320,1049800,6,6,4,1448,30412,1,16778208,1905,1049800,1046904,1049800,0,133216,0,1079
o,0xaab53b02,1556708695.858488,172.16.11.67,60313,172.16.10.65,5000,1073725440,137588,0,1048320,1049800,6,6,4,1448,30412,1,16778208,1905,1049800,1046904,1049800,0,134664,0,1079
o,0x699f6c63,1556708695.858491,172.16.11.67,60313,172.16.10.65,5000,1073725440,137588,0,1048320,1049800,6,6,4,1448,30412,1,16778208,1905,1049800,1046904,1049800,0,136112,0,1079
i,0xf49dc55a,1556708695.905478,172.16.11.67,60313,172.16.10.65,5000,1073725440,137588,0,1048320,1049800,6,6,4,1448,30412,1,16778208,1905,1049800,1049800,1049800,0,137560,0,1079
o,0x717a2ee3,1556708695.905480,172.16.11.67,60313,172.16.10.65,5000,1073725440,140484,0,1048320,1049800,6,6,4,1448,31111,1,16778208,1913,1049800,1046904,1049800,0,134664,0,1126
o,0xf8807624,1556708695.905484,172.16.11.67,60313,172.16.10.65,5000,1073725440,140484,0,1048320,1049800,6,6,4,1448,31111,1,16778208,1913,1049800,1046904,1049800,0,136112,0,1126
o,0x2371e6c2,1556708695.905488,172.16.11.67,60313,172.16.10.65,5000,1073725440,140484,0,1048320,1049800,6,6,4,1448,31111,1,16778208,1913,1049800,1046904,1049800,0,137560,0,1126
o,0xe25c1823,1556708695.905492,172.16.11.67,60313,172.16.10.65,5000,1073725440,140484,0,1048320,1049800,6,6,4,1448,31111,1,16778208,1913,1049800,1046904,1049800,0,139008,0,1126
i,0x55e3041a,1556708695.951478,172.16.11.67,60313,172.16.10.65,5000,1073725440,140484,0,1048320,1049800,6,6,4,1448,31111,1,16778208,1913,1049800,1049800,1049800,0,140456,0,1126
o,0xcdfe6682,1556708695.951481,172.16.11.67,60313,172.16.10.65,5000,1073725440,143380,0,1048320,1049800,6,6,4,1448,31907,1,16778208,1951,1049800,1046904,1049800,0,137560,0,1126
o,0xe2fb0102,1556708695.951485,172.16.11.67,60313,172.16.10.65,5000,1073725440,143380,0,1048320,1049800,6,6,4,1448,31907,1,16778208,1951,1049800,1046904,1049800,0,139008,0,1126
o,0x9111e682,1556708695.951488,172.16.11.67,60313,172.16.10.65,5000,1073725440,143380,0,1048320,1049800,6,6,4,1448,31907,1,16778208,1951,1049800,1046904,1049800,0,140456,0,1126
o,0x97d1c9c2,1556708695.951492,172.16.11.67,60313,172.16.10.65,5000,1073725440,143380,0,1048320,1049800,6,6,4,1448,31907,1,16778208,1951,1049800,1046904,1049800,0,141904,0,1126
i,0xe89277da,1556708695.998478,172.16.11.67,60313,172.16.10.65,5000,1073725440,143380,0,1048320,1049800,6,6,4,1448,31907,1,16778208,1951,1049800,1049800,1049800,0,143352,0,1126
o,0x8d93b504,1556708695.998481,172.16.11.67,60313,172.16.10.65,5000,1073725440,146276,0,1048320,1049800,6,6,4,1448,32607,1,16778208,1960,1049800,1046904,1049800,0,140456,0,1173
o,0x59b74484,1556708695.998485,172.16.11.67,60313,172.16.10.65,5000,1073725440,146276,0,1048320,1049800,6,6,4,1448,32607,1,16778208,1960,1049800,1046904,1049800,0,141904,0,1173
o,0x9a8fa7e3,1556708695.998489,172.16.11.67,60313,172.16.10.65,5000,1073725440,146276,0,1048320,1049800,6,6,4,1448,32607,1,16778208,1960,1049800,1046904,1049800,0,143352,0,1173
o,0x0d683744,1556708695.998492,172.16.11.67,60313,172.16.10.65,5000,1073725440,146276,0,1048320,1049800,6,6,4,1448,32607,1,16778208,1960,1049800,1046904,1049800,0,144800,0,1173
i,0x0c542afb,1556708696.045479,172.16.11.67,60313,172.16.10.65,5000,1073725440,146276,0,1048320,1049800,6,6,4,1448,32607,1,16778208,1960,1049800,1047880,1049800,0,146248,0,1173
o,0x5f41dac4,1556708696.045482,172.16.11.67,60313,172.16.10.65,5000,1073725440,149172,0,1048320,1049800,6,6,4,1448,33408,1,16778208,2000,1049800,1044984,1049800,0,143352,0,1173
o,0x85462b23,1556708696.045486,172.16.11.67,60313,172.16.10.65,5000,1073725440,149172,0,1048320,1049800,6,6,4,1448,33408,1,16778208,2000,1049800,1044984,1049800,0,144800,0,1173
o,0x5169baa3,1556708696.045489,172.16.11.67,60313,172.16.10.65,5000,1073725440,149172,0,1048320,1049800,6,6,4,1448,33408,1,16778208,2000,1049800,1044984,1049800,0,146248,0,1173
o,0x83d31a45,1556708696.045493,172.16.11.67,60313,172.16.10.65,5000,1073725440,149172,0,1048320,1049800,6,6,4,1448,33408,1,16778208,2000,1049800,1044984,1049800,0,147696,0,1173
i,0x0b7f895a,1556708696.092478,172.16.11.67,60313,172.16.10.65,5000,1073725440,149172,0,1048320,1049800,6,6,4,1448,33408,1,16778208,2000,1049800,1049800,1049800,0,149144,0,1173
o,0x997cfba4,1556708696.092481,172.16.11.67,60313,172.16.10.65,5000,1073725440,152068,0,1048320,1049800,6,6,4,1448,34108,1,16778208,2008,1049800,1046904,1049800,0,146248,0,1220
o,0xaf9f6c24,1556708696.092484,172.16.11.67,60313,172.16.10.65,5000,1073725440,152068,0,1048320,1049800,6,6,4,1448,34108,1,16778208,2008,1049800,1046904,1049800,0,147696,0,1220
o,0xd5a3bc83,1556708696.092488,172.16.11.67,60313,172.16.10.65,5000,1073725440,152068,0,1048320,1049800,6,6,4,1448,34108,1,16778208,2008,1049800,1046904,1049800,0,149144,0,1220
o,0x6688f5e4,1556708696.092492,172.16.11.67,60313,172.16.10.65,5000,1073725440,152068,0,1048320,1049800,6,6,4,1448,34108,1,16778208,2008,1049800,1046904,1049800,0,150592,0,1220
