#enable_time_secs=1556708605	enable_time_usecs=634510	siftrver=1.2.4	hz=1000	tcp_rtt_scale=32	sysname=FreeBSD	sysver=1001000	ipmode=4
o,0xcec1887c,1556708605.634527,10.1.1.67,22,10.1.1.11,19096,1073725440,20330,0,66560,66608,6,6,4,1448,154,1,16778212,230,33304,208,66608,0,156,0,1
o,0x0ba2c01a,1556708605.634533,10.1.1.67,22,10.1.1.11,19096,1073725440,20330,0,66560,66608,6,6,4,1448,154,1,16778212,230,33304,260,66608,0,208,0,1
i,0xe1adc908,1556708605.634749,10.1.1.67,22,10.1.1.11,19096,1073725440,20330,0,66560,66608,6,6,4,1448,154,1,16778212,230,33304,260,66608,0,260,0,1
o,0x497dce33,1556708605.634751,10.1.1.67,22,10.1.1.11,19096,1073725440,20330,0,66560,66608,6,6,4,1448,154,1,16778212,230,33304,296,66608,0,260,0,1
i,0x1c61b9e9,1556708605.634756,10.1.1.67,22,10.1.1.11,19096,1073725440,20486,0,66496,66608,6,6,4,1448,163,1,996,230,33304,140,66608,0,140,0,2
o,0x02a4b1e5,1556708605.634898,10.1.1.67,22,10.1.1.11,19096,1073725440,20590,0,66432,66608,6,6,4,1448,147,1,16778212,230,33304,140,66608,0,36,0,2
i,0xabee5488,1556708605.635152,10.1.1.67,22,10.1.1.11,19096,1073725440,20590,0,66432,66608,6,6,4,1448,147,1,16778212,230,33304,140,66608,0,140,0,2
i,0xa85563f3,1556708605.635445,10.1.1.67,22,10.1.1.11,19096,1073725440,20730,0,66496,66608,6,6,4,1448,129,1,996,230,33304,0,66608,0,0,0,1
i,0xa9c0bb94,1556708605.649684,10.1.1.67,22,10.1.1.11,19096,1073725440,20730,0,66560,66608,6,6,4,1448,129,1,996,230,33304,0,66608,0,0,0,1
o,0x03bc2669,1556708605.649688,10.1.1.67,22,10.1.1.11,19096,1073725440,20730,0,66560,66608,6,6,5,1448,129,1,997,230,33304,0,66608,36,0,0,1
o,0x114f1ee9,1556708605.649817,10.1.1.67,22,10.1.1.11,19096,1073725440,20730,0,66560,66608,6,6,8,1448,129,1,996,230,33304,0,0,0,0,0,1
i,0xef17fa69,1556708605.649939,10.1.1.67,22,10.1.1.11,19096,1073725440,20730,0,66560,66608,6,6,8,1448,129,1,1012,230,33304,0,0,0,1,0,1
i,0xfe1461e8,1556708605.727534,10.1.1.67,22,10.1.1.11,34463,1073725440,14481,0,66560,66608,6,6,4,1448,161,1,16778208,231,33304,0,66608,0,0,0,0
o,0x5fdee929,1556708605.731797,10.1.1.67,22,10.1.1.11,34463,1073725440,14481,0,66560,66608,6,6,4,1448,161,1,16778208,231,33304,49,66608,25,0,0,0
o,0xd4aa89e6,1556708605.732290,10.1.1.67,22,10.1.1.11,34463,1073725440,14481,0,66560,66608,6,6,4,1448,161,1,16778208,231,33304,1697,66608,0,49,0,0
i,0xf569dd85,1556708605.732343,10.1.1.67,22,10.1.1.11,34463,1073725440,14481,0,66560,66608,6,6,4,1448,161,1,16778208,231,33304,1697,66608,0,1497,0,0
i,0x507aa389,1556708605.826741,10.1.1.67,22,10.1.1.11,34463,1073725440,14530,0,66560,66608,6,6,4,1448,141,1,992,230,33304,1648,66608,0,1448,0,1
o,0xd689dc05,1556708605.826745,10.1.1.67,22,10.1.1.11,34463,1073725440,15978,0,66560,66608,6,6,4,1448,504,1,16778208,325,33304,200,66608,0,0,0,96
i,0xb64e54f5,1556708605.838980,10.1.1.67,22,10.1.1.11,34463,1073725440,15978,0,66560,66608,6,6,4,1448,504,1,16778208,325,33304,200,66608,0,200,0,96
o,0xcf47ffc9,1556708605.840919,10.1.1.67,22,10.1.1.11,34463,1073725440,16178,0,66560,66608,6,6,4,1448,489,1,16778208,301,33304,848,66608,0,0,0,13
i,0x1a6f19b9,1556708605.856727,10.1.1.67,22,10.1.1.11,34463,1073725440,16178,0,66560,66608,6,6,4,1448,489,1,16778208,301,33304,848,66608,0,848,0,13
o,0x379cbc89,1556708605.962822,10.1.1.67,22,10.1.1.11,34463,1073725440,17026,0,66560,66608,6,6,4,1448,492,1,993,280,33304,0,66608,0,0,0,17
i,0x14eadb59,1556708605.963083,10.1.1.67,22,10.1.1.11,34463,1073725440,17026,0,66560,66608,6,6,4,1448,492,1,992,280,33304,0,66608,0,0,0,17
o,0x4eccc898,1556708605.963103,10.1.1.67,22,10.1.1.11,34463,1073725440,17026,0,66560,66608,6,6,4,1448,492,1,16778208,280,33304,52,66608,0,0,0,17
i,0xd21a06c4,1556708605.997940,10.1.1.67,22,10.1.1.11,34463,1073725440,17026,0,66560,66608,6,6,4,1448,492,1,16778208,280,33304,52,66608,0,52,0,17
o,0x08f2b3c2,1556708606.001165,10.1.1.67,22,10.1.1.11,34463,1073725440,17078,0,66560,66608,6,6,4,1448,571,1,16778208,286,33304,68,66608,0,0,0,36
i,0x655a835e,1556708606.017445,10.1.1.67,22,10.1.1.11,34463,1073725440,17078,0,66560,66608,6,6,4,1448,571,1,16778208,286,33304,68,66608,0,68,0,36
o,0xf26b3fdc,1556708606.017457,10.1.1.67,22,10.1.1.11,34463,1073725440,17146,0,66560,66608,6,6,4,1448,564,1,16778208,271,33304,52,66608,0,0,0,17
i,0xe17a11a9,1556708606.017913,10.1.1.67,22,10.1.1.11,34463,1073725440,17146,0,66560,66608,6,6,4,1448,564,1,16778208,271,33304,52,66608,0,52,0,17
o,0xb4b509ff,1556708606.017954,10.1.1.67,22,10.1.1.11,34463,1073725440,17198,0,66560,66608,6,6,4,1448,498,1,16778208,272,33304,68,66608,0,0,0,2
i,0x4baaa91c,1556708606.036848,10.1.1.67,22,10.1.1.11,34463,1073725440,17198,0,66560,66608,6,6,4,1448,498,1,16778208,272,33304,68,66608,0,68,0,2
o,0x2917d9c0,1556708606.036860,10.1.1.67,22,10.1.1.11,34463,1073725440,17266,0,66560,66608,6,6,4,1448,512,1,16778208,262,33304,52,66608,0,0,0,20
i,0xb765ed94,1556708606.037344,10.1.1.67,22,10.1.1.11,34463,1073725440,17266,0,66560,66608,6,6,4,1448,512,1,16778208,262,33304,52,66608,0,52,0,20
o,0xe2107a74,1556708606.037794,10.1.1.67,22,10.1.1.11,34463,1073725440,17318,0,66560,66608,6,6,4,1448,448,1,16778208,264,33304,100,66608,0,0,0,1
i,0x08b8109b,1556708606.038274,10.1.1.67,22,10.1.1.11,34463,1073725440,17318,0,66560,66608,6,6,4,1448,448,1,16778208,264,33304,100,66608,0,100,0,1
o,0x387e95fc,1556708606.041657,10.1.1.67,22,10.1.1.11,34463,1073725440,17418,0,66560,66608,6,6,4,1448,392,1,16778208,264,33304,52,66608,0,0,0,1
i,0xde8f4433,1556708606.042097,10.1.1.67,22,10.1.1.11,34463,1073725440,17418,0,66560,66608,6,6,4,1448,392,1,16778208,264,33304,52,66608,0,52,0,1
o,0xb3905f32,1556708606.042138,10.1.1.67,22,10.1.1.11,34463,1073725440,17470,0,66560,66608,6,6,4,1448,343,1,16778208,262,33304,36,66608,0,0,0,1
i,0xb9ac1f64,1556708606.056881,10.1.1.67,22,10.1.1.11,34463,1073725440,17470,0,66560,66608,6,6,4,1448,343,1,16778208,262,33304,36,66608,0,36,0,1
o,0xbacfa51c,1556708606.056927,10.1.1.67,22,10.1.1.11,34463,1073725440,17506,0,66560,66608,6,6,4,1448,361,1,16778208,254,33304,52,66608,0,0,0,16
i,0xe6da300a,1556708606.087069,10.1.1.67,22,10.1.1.11,34463,1073725440,17506,0,66560,66608,6,6,4,1448,361,1,16778208,254,33304,52,66608,0,52,0,16
o,0x4f102850,1556708606.087164,10.1.1.67,22,10.1.1.11,34463,1073725440,17558,0,66560,66608,6,6,4,1448,436,1,16778208,264,33304,36,66608,0,0,0,31
i,0x2224c52c,1556708606.087730,10.1.1.67,22,10.1.1.11,34463,1073725440,17558,0,66560,66608,6,6,4,1448,436,1,16778208,264,33304,36,66608,0,36,0,31
o,0x8df50666,1556708606.087938,10.1.1.67,22,10.1.1.11,34463,1073725440,17594,0,66560,66608,6,6,4,1448,386,1,16778212,263,33304,88,66608,0,0,0,2
o,0x46c373fb,1556708606.093480,10.1.1.67,22,10.1.1.11,34463,1073725440,17594,0,66560,66608,6,6,4,1448,386,1,16778212,263,33304,140,66608,0,88,0,2
i,0x24cc556a,1556708606.093743,10.1.1.67,22,10.1.1.11,34463,1073725440,17594,0,66560,66608,6,6,4,1448,386,1,16778212,263,33304,140,66608,0,140,0,2
o,0x7386db43,1556708606.095367,10.1.1.67,22,10.1.1.11,34463,1073725440,17734,0,66496,66608,6,6,4,1448,362,1,16778212,255,33304,132,66608,0,0,0,2
o,0x7f1e12ab,1556708606.095378,10.1.1.67,22,10.1.1.11,34463,1073725440,17734,0,66496,66608,6,6,4,1448,362,1,16778212,255,33304,216,66608,0,132,0,2
i,0x0e4c936a,1556708606.095639,10.1.1.67,22,10.1.1.11,34463,1073725440,17734,0,66496,66608,6,6,4,1448,362,1,16778212,255,33304,216,66608,0,216,0,2
o,0xc156ae59,1556708606.195897,10.1.1.67,22,10.1.1.11,34463,1073725440,17950,0,66368,66608,6,6,4,1448,321,1,16778212,253,33304,52,66608,0,0,0,2
o,0xe32af277,1556708606.196284,10.1.1.67,22,10.1.1.11,34463,1073725440,17950,0,66368,66608,6,6,4,1448,321,1,16778212,253,33304,192,66608,0,52,0,2
i,0x3c60dfa8,1556708606.196632,10.1.1.67,22,10.1.1.11,34463,1073725440,17950,0,66368,66608,6,6,4,1448,321,1,16778212,253,33304,192,66608,0,192,0,2
i,0x1504f312,1556708606.197015,10.1.1.67,22,10.1.1.11,34463,1073725440,18142,0,66432,66608,6,6,4,1448,285,1,996,250,33304,0,66608,0,0,0,2
o,0x8c0b6089,1556708606.301826,10.1.1.67,22,10.1.1.11,34463,1073725440,18142,0,66560,66608,6,6,4,1448,285,1,997,250,33304,0,66608,0,0,0,2
i,0x3105bd2e,1556708606.302083,10.1.1.67,22,10.1.1.11,34463,1073725440,18142,0,66560,66608,6,6,4,1448,285,1,996,250,33304,0,66608,0,0,0,2
o,0x8727a8bd,1556708606.302127,10.1.1.67,22,10.1.1.11,34463,1073725440,18142,0,66560,66608,6,6,4,1448,285,1,16778212,250,33304,52,66608,0,0,0,2
i,0x5b75f84d,1556708606.307514,10.1.1.67,22,10.1.1.11,34463,1073725440,18142,0,66560,66608,6,6,4,1448,285,1,16778212,250,33304,52,66608,0,52,0,2
o,0xce112845,1556708606.307727,10.1.1.67,22,10.1.1.11,34463,1073725440,18194,0,66560,66608,6,6,4,1448,270,1,16778212,243,33304,88,66608,0,0,0,2
o,0x8d5749d4,1556708606.313414,10.1.1.67,22,10.1.1.11,34463,1073725440,18194,0,66560,66608,6,6,4,1448,270,1,16778212,243,33304,124,66608,0,88,0,2
o,0x27a18c6d,1556708606.313478,10.1.1.67,22,10.1.1.11,34463,1073725440,18194,0,66560,66608,6,6,4,1448,270,1,16778212,243,33304,228,66608,0,124,0,2
i,0xf9ee822a,1556708606.313683,10.1.1.67,22,10.1.1.11,34463,1073725440,18194,0,66560,66608,6,6,4,1448,270,1,16778212,243,33304,228,66608,0,228,0,2
i,0xac01e5d0,1556708606.314050,10.1.1.67,22,10.1.1.11,34463,1073725440,18318,0,66560,66608,6,6,4,1448,261,1,996,236,33304,104,66608,0,104,0,2
i,0xfa064b2f,1556708606.338944,10.1.1.67,22,10.1.1.11,34463,1073725440,18422,0,66560,66608,6,6,4,1448,233,1,996,236,33304,0,66608,0,0,0,2
o,0x266c0209,1556708606.338948,10.1.1.67,22,10.1.1.11,34463,1073725440,18422,0,66560,66608,6,6,5,1448,233,1,997,236,33304,0,66608,36,0,0,2
o,0x33fefa89,1556708606.339074,10.1.1.67,22,10.1.1.11,34463,1073725440,18422,0,66560,66608,6,6,8,1448,233,1,996,236,33304,0,0,0,0,0,2
i,0x18d8ef89,1556708606.339348,10.1.1.67,22,10.1.1.11,34463,1073725440,18422,0,66560,66608,6,6,8,1448,233,1,1012,236,33304,0,0,0,1,0,2
i,0x302dc4c4,1556708607.317997,10.1.1.67,22,10.1.1.11,18983,4464,5792,0,66560,66608,6,6,4,1448,158,1,996,230,33304,0,66608,0,0,0,1
o,0x9303b93c,1556708607.318035,10.1.1.67,22,10.1.1.11,18983,4464,5792,0,66560,66608,6,6,4,1448,158,1,16778212,230,33304,52,66608,0,0,0,1
i,0x14ec8c08,1556708607.337009,10.1.1.67,22,10.1.1.11,18983,4464,5792,0,66560,66608,6,6,4,1448,158,1,16778212,230,33304,52,66608,0,52,0,1
o,0xf1ca2671,1556708607.337099,10.1.1.67,22,10.1.1.11,18983,4464,5792,0,66560,66608,6,6,4,1448,215,1,16778212,239,33304,36,66608,0,0,0,20
i,0xcd4d46e6,1556708607.337666,10.1.1.67,22,10.1.1.11,18983,4464,5792,0,66560,66608,6,6,4,1448,215,1,16778212,239,33304,36,66608,0,36,0,20
o,0x38430cc3,1556708607.337885,10.1.1.67,22,10.1.1.11,18983,4464,5792,0,66560,66608,6,6,4,1448,193,1,16778212,236,33304,88,66608,0,0,0,2
o,0xb88a7dbc,1556708607.343408,10.1.1.67,22,10.1.1.11,18983,4464,5792,0,66560,66608,6,6,4,1448,193,1,16778212,236,33304,140,66608,0,88,0,2
i,0x8f0895a9,1556708607.343672,10.1.1.67,22,10.1.1.11,18983,4464,5792,0,66560,66608,6,6,4,1448,193,1,16778212,236,33304,140,66608,0,140,0,2
o,0x1da3cefe,1556708607.450894,10.1.1.67,22,10.1.1.11,18983,4464,5792,0,66496,66608,6,6,4,1448,193,1,16778212,230,33304,52,66608,0,0,0,2
o,0x19410ad9,1556708607.451236,10.1.1.67,22,10.1.1.11,18983,4464,5792,0,66496,66608,6,6,4,1448,193,1,16778212,230,33304,192,66608,0,52,0,2
i,0x6118020a,1556708607.451498,10.1.1.67,22,10.1.1.11,18983,4464,5792,0,66496,66608,6,6,4,1448,193,1,16778212,230,33304,192,66608,0,192,0,2
i,0x823e2d97,1556708607.451858,10.1.1.67,22,10.1.1.11,18983,4464,5792,0,66432,66608,6,6,4,1448,169,1,996,230,33304,0,66608,0,0,0,1
o,0x1c4b8b29,1556708607.557821,10.1.1.67,22,10.1.1.11,18983,4464,5792,0,66560,66608,6,6,4,1448,169,1,997,230,33304,0,66608,0,0,0,1
i,0x858362a9,1556708607.558081,10.1.1.67,22,10.1.1.11,18983,4464,5792,0,66560,66608,6,6,4,1448,169,1,996,230,33304,0,66608,0,0,0,1
o,0x3ca79100,1556708607.558121,10.1.1.67,22,10.1.1.11,18983,4464,5792,0,66560,66608,6,6,4,1448,169,1,16778212,230,33304,52,66608,0,0,0,1
i,0x5d0b5fcb,1556708607.586797,10.1.1.67,22,10.1.1.11,18983,4464,5792,0,66560,66608,6,6,4,1448,169,1,16778212,230,33304,52,66608,0,52,0,1
o,0x80bdf00a,1556708607.587017,10.1.1.67,22,10.1.1.11,18983,4464,5792,0,66560,66608,6,6,4,1448,264,1,16778212,249,33304,88,66608,0,0,0,1
o,0x1f42f6f3,1556708607.592641,10.1.1.67,22,10.1.1.11,18983,4464,5792,0,66560,66608,6,6,4,1448,264,1,16778212,249,33304,124,66608,0,88,0,1
o,0xff1536d1,1556708607.592705,10.1.1.67,22,10.1.1.11,18983,4464,5792,0,66560,66608,6,6,4,1448,264,1,16778212,249,33304,228,66608,0,124,0,1
i,0x286f84a9,1556708607.592981,10.1.1.67,22,10.1.1.11,18983,4464,5792,0,66560,66608,6,6,4,1448,264,1,16778212,249,33304,228,66608,0,228,0,1
i,0xf15cf273,1556708607.593559,10.1.1.67,22,10.1.1.11,18983,4464,5792,0,66560,66608,6,6,4,1448,255,1,996,241,33304,104,66608,0,104,0,1
o,0xbc996bca,1556708607.698819,10.1.1.67,22,10.1.1.11,18983,4464,5792,0,66560,66608,6,6,4,1448,224,1,997,239,33304,0,66608,0,0,0,1
i,0xa7c58e2d,1556708607.699152,10.1.1.67,22,10.1.1.11,18983,4464,5792,0,66560,66608,6,6,4,1448,224,1,996,239,33304,0,66608,0,0,0,1
o,0x92a3395e,1556708607.699192,10.1.1.67,22,10.1.1.11,18983,4464,5792,0,66560,66608,6,6,4,1448,224,1,16778212,239,33304,52,66608,0,0,0,1
i,0x2feb5648,1556708607.716803,10.1.1.67,22,10.1.1.11,18983,4464,5792,0,66560,66608,6,6,4,1448,224,1,16778212,239,33304,52,66608,0,52,0,1
o,0x60318696,1556708607.716881,10.1.1.67,22,10.1.1.11,18983,4464,5792,0,66560,66608,6,6,4,1448,268,1,16778212,244,33304,36,66608,0,0,0,19
i,0xef95d849,1556708607.717473,10.1.1.67,22,10.1.1.11,18983,4464,5792,0,66560,66608,6,6,4,1448,268,1,16778212,244,33304,36,66608,0,36,0,19
o,0x9983c461,1556708607.717664,10.1.1.67,22,10.1.1.11,18983,4464,5792,0,66560,66608,6,6,4,1448,235,1,16778212,242,33304,88,66608,0,0,0,1
o,0x090bfcfb,1556708607.723083,10.1.1.67,22,10.1.1.11,18983,4464,5792,0,66560,66608,6,6,4,1448,235,1,16778212,242,33304,140,66608,0,88,0,1
i,0xdbdfa9ca,1556708607.723355,10.1.1.67,22,10.1.1.11,18983,4464,5792,0,66560,66608,6,6,4,1448,235,1,16778212,242,33304,140,66608,0,140,0,1
o,0x60ebfa3d,1556708607.823721,10.1.1.67,22,10.1.1.11,18983,4464,5792,0,66496,66608,6,6,4,1448,226,1,16778212,235,33304,52,66608,0,0,0,1
o,0xa3128d54,1556708607.824060,10.1.1.67,22,10.1.1.11,18983,4464,5792,0,66496,66608,6,6,4,1448,226,1,16778212,235,33304,192,66608,0,52,0,1
i,0x0f8349ca,1556708607.824325,10.1.1.67,22,10.1.1.11,18983,4464,5792,0,66496,66608,6,6,4,1448,226,1,16778212,235,33304,192,66608,0,192,0,1
i,0xcff931b5,1556708607.824672,10.1.1.67,22,10.1.1.11,18983,4464,5792,0,66432,66608,6,6,4,1448,198,1,996,234,33304,0,66608,0,0,0,1
o,0xf96e7ee9,1556708607.924649,10.1.1.67,22,10.1.1.11,18983,4464,5792,0,66560,66608,6,6,4,1448,198,1,997,234,33304,0,66608,0,0,0,1
i,0x53976fae,1556708607.924909,10.1.1.67,22,10.1.1.11,18983,4464,5792,0,66560,66608,6,6,4,1448,198,1,996,234,33304,0,66608,0,0,0,1
o,0x3b510a5c,1556708607.924945,10.1.1.67,22,10.1.1.11,18983,4464,5792,0,66560,66608,6,6,4,1448,198,1,16778212,234,33304,52,66608,0,0,0,1
i,0x253b3a6a,1556708607.927526,10.1.1.67,22,10.1.1.11,18983,4464,5792,0,66560,66608,6,6,4,1448,198,1,16778212,234,33304,52,66608,0,52,0,1
o,0x2db3c108,1556708607.927730,10.1.1.67,22,10.1.1.11,18983,4464,5792,0,66560,66608,6,6,4,1448,182,1,16778212,231,33304,88,66608,0,0,0,1
o,0x4f976354,1556708607.933351,10.1.1.67,22,10.1.1.11,18983,4464,5792,0,66560,66608,6,6,4,1448,182,1,16778212,231,33304,124,66608,0,88,0,1
o,0xbce9c6ed,1556708607.933416,10.1.1.67,22,10.1.1.11,18983,4464,5792,0,66560,66608,6,6,4,1448,182,1,16778212,231,33304,228,66608,0,124,0,1
i,0x1b789ba9,1556708607.933619,10.1.1.67,22,10.1.1.11,18983,4464,5792,0,66560,66608,6,6,4,1448,182,1,16778212,231,33304,228,66608,0,228,0,1
i,0x08c4c650,1556708607.933976,10.1.1.67,22,10.1.1.11,18983,4464,5792,0,66560,66608,6,6,4,1448,184,1,996,230,33304,104,66608,0,104,0,2
o,0xac3e77a9,1556708608.039830,10.1.1.67,22,10.1.1.11,18983,4464,5792,0,66560,66608,6,6,4,1448,165,1,997,230,33304,0,66608,0,0,0,2
i,0x3bdd7a30,1556708608.040082,10.1.1.67,22,10.1.1.11,18983,4464,5792,0,66560,66608,6,6,4,1448,165,1,996,230,33304,0,66608,0,0,0,2
o,0x9a7868c8,1556708608.145821,10.1.1.67,22,10.1.1.11,18983,4464,5792,0,66560,66608,6,6,4,1448,165,1,997,230,33304,0,66608,0,0,0,2
#o,0x9c02e755,1556708612.395049,172.16.11.67,21609,172.16.10.65,5000,1073725440,1073725440,0,0,0,0,0,2,536,0,1,672,3000,1048576,0,1048576,0,0,0,0
#i,0x6b355352,1556708612.436387,172.16.11.67,21609,172.16.10.65,5000,1073725440,1073725440,0,0,0,0,0,2,536,0,1,672,3000,1048576,0,1048576,0,1,0,0
o,0x3c87581d,1556708612.436393,172.16.11.67,21609,172.16.10.65,5000,1073725440,14480,0,65535,1049800,6,6,4,1448,1344,1,16778209,326,1049800,0,1049800,0,0,0,0
o,0x5b5201bd,1556708612.436410,172.16.11.67,21609,172.16.10.65,5000,1073725440,14480,0,65535,1049800,6,6,4,1448,1344,1,16778208,326,1049800,28,1049800,0,0,0,0
o,0xcec6b746,1556708612.436442,172.16.11.67,21609,172.16.10.65,5000,1073725440,14480,0,65535,1049800,6,6,4,1448,1344,1,16778208,326,1049800,131100,1049800,0,28,0,0
o,0x3da84b86,1556708612.436446,172.16.11.67,21609,172.16.10.65,5000,1073725440,14480,0,65535,1049800,6,6,4,1448,1344,1,16778208,326,1049800,131100,1049800,0,1476,0,0
o,0x52a4e606,1556708612.436450,172.16.11.67,21609,172.16.10.65,5000,1073725440,14480,0,65535,1049800,6,6,4,1448,1344,1,16778208,326,1049800,131100,1049800,0,2924,0,0
o,0x2c979465,1556708612.436454,172.16.11.67,21609,172.16.10.65,5000,1073725440,14480,0,65535,1049800,6,6,4,1448,1344,1,16778208,326,1049800,131100,1049800,0,4372,0,0
o,0x077baec6,1556708612.436457,172.16.11.67,21609,172.16.10.65,5000,1073725440,14480,0,65535,1049800,6,6,4,1448,1344,1,16778208,326,1049800,131100,1049800,0,5820,0,0
o,0x01a43646,1556708612.436461,172.16.11.67,21609,172.16.10.65,5000,1073725440,14480,0,65535,1049800,6,6,4,1448,1344,1,16778208,326,1049800,131100,1049800,0,7268,0,0
o,0xbe653886,1556708612.436464,172.16.11.67,21609,172.16.10.65,5000,1073725440,14480,0,65535,1049800,6,6,4,1448,1344,1,16778208,326,1049800,131100,1049800,0,8716,0,0
o,0xe33aa145,1556708612.436468,172.16.11.67,21609,172.16.10.65,5000,1073725440,14480,0,65535,1049800,6,6,4,1448,1344,1,16778208,326,1049800,131100,1049800,0,10164,0,0
o,0xbd2d4fa4,1556708612.436471,172.16.11.67,21609,172.16.10.65,5000,1073725440,14480,0,65535,1049800,6,6,4,1448,1344,1,16778208,326,1049800,131100,1049800,0,11612,0,0
i,0x98dc3f1d,1556708612.478384,172.16.11.67,21609,172.16.10.65,5000,1073725440,14480,0,65535,1049800,6,6,4,1448,1344,1,16778208,326,1049800,1048604,1049800,0,13060,0,0
i,0xbac8387c,1556708612.503383,172.16.11.67,21609,172.16.10.65,5000,1073725440,14480,0,1049792,1049800,6,6,4,1448,1344,1,16778208,326,1049800,1048604,1049800,0,13060,0,0
o,0xb09bb724,1556708612.503388,172.16.11.67,21609,172.16.10.65,5000,1073725440,15956,0,1048320,1049800,6,6,4,1448,1444,1,16778208,333,1049800,1047128,1049800,0,11584,0,68
o,0xaac43ea4,1556708612.503392,172.16.11.67,21609,172.16.10.65,5000,1073725440,15956,0,1048320,1049800,6,6,4,1448,1444,1,16778208,333,1049800,1047128,1049800,0,13032,0,68
o,0x678540e4,1556708612.503395,172.16.11.67,21609,172.16.10.65,5000,1073725440,15956,0,1048320,1049800,6,6,4,1448,1444,1,16778208,333,1049800,1047128,1049800,0,14480,0,68
i,0xb410bd1b,1556708612.550385,172.16.11.67,21609,172.16.10.65,5000,1073725440,15956,0,1048320,1049800,6,6,4,1448,1444,1,16778208,333,1049800,1049800,1049800,0,15928,0,68
o,0x8ce5bb05,1556708612.550388,172.16.11.67,21609,172.16.10.65,5000,1073725440,18852,0,1048320,1049800,6,6,4,1448,1720,1,16778208,388,1049800,1046904,1049800,0,13032,0,115
o,0x3afca085,1556708612.550392,172.16.11.67,21609,172.16.10.65,5000,1073725440,18852,0,1048320,1049800,6,6,4,1448,1720,1,16778208,388,1049800,1046904,1049800,0,14480,0,115
o,0x7cfad9e4,1556708612.550396,172.16.11.67,21609,172.16.10.65,5000,1073725440,18852,0,1048320,1049800,6,6,4,1448,1720,1,16778208,388,1049800,1046904,1049800,0,15928,0,115
o,0x3be50b45,1556708612.550400,172.16.11.67,21609,172.16.10.65,5000,1073725440,18852,0,1048320,1049800,6,6,4,1448,1720,1,16778208,388,1049800,1046904,1049800,0,17376,0,115
i,0xd7d2703c,1556708612.597384,172.16.11.67,21609,172.16.10.65,5000,1073725440,18852,0,1048320,1049800,6,6,4,1448,1720,1,16778208,388,1049800,1049800,1049800,0,18824,0,115
o,0x43bfcdc5,1556708612.597387,172.16.11.67,21609,172.16.10.65,5000,1073725440,21748,0,1048320,1049800,6,6,4,1448,2149,1,16778208,475,1049800,1046904,1049800,0,15928,0,162
o,0x84983124,1556708612.597391,172.16.11.67,21609,172.16.10.65,5000,1073725440,21748,0,1048320,1049800,6,6,4,1448,2149,1,16778208,475,1049800,1046904,1049800,0,17376,0,162
o,0x32af16a4,1556708612.597394,172.16.11.67,21609,172.16.10.65,5000,1073725440,21748,0,1048320,1049800,6,6,4,1448,2149,1,16778208,475,1049800,1046904,1049800,0,18824,0,162
o,0x0d933105,1556708612.597398,172.16.11.67,21609,172.16.10.65,5000,1073725440,21748,0,1048320,1049800,6,6,4,1448,2149,1,16778208,475,1049800,1046904,1049800,0,20272,0,162
i,0xd11af4db,1556708612.644384,172.16.11.67,21609,172.16.10.65,5000,1073725440,21748,0,1048320,1049800,6,6,4,1448,2149,1,16778208,475,1049800,1049800,1049800,0,21720,0,162
o,0x6f4eb464,1556708612.644387,172.16.11.67,21609,172.16.10.65,5000,1073725440,24644,0,1048320,1049800,6,6,4,1448,2713,1,16778208,582,1049800,1046904,1049800,0,18824,0,209
o,0x3b7243e4,1556708612.644391,172.16.11.67,21609,172.16.10.65,5000,1073725440,24644,0,1048320,1049800,6,6,4,1448,2713,1,16778208,582,1049800,1046904,1049800,0,20272,0,209
o,0x506ede64,1556708612.644395,172.16.11.67,21609,172.16.10.65,5000,1073725440,24644,0,1048320,1049800,6,6,4,1448,2713,1,16778208,582,1049800,1046904,1049800,0,21720,0,209
o,0xef2336a4,1556708612.644398,172.16.11.67,21609,172.16.10.65,5000,1073725440,24644,0,1048320,1049800,6,6,4,1448,2713,1,16778208,582,1049800,1046904,1049800,0,23168,0,209
i,0x229cdb3c,1556708612.690384,172.16.11.67,21609,172.16.10.65,5000,1073725440,24644,0,1048320,1049800,6,6,4,1448,2713,1,16778208,582,1049800,1049800,1049800,0,24616,0,209
o,0xe41e2145,1556708612.690386,172.16.11.67,21609,172.16.10.65,5000,1073725440,27540,0,1048320,1049800,6,6,4,1448,3390,1,16778208,698,1049800,1046904,1049800,0,21720,0,255
o,0xde46a8c5,1556708612.690390,172.16.11.67,21609,172.16.10.65,5000,1073725440,27540,0,1048320,1049800,6,6,4,1448,3390,1,16778208,698,1049800,1046904,1049800,0,23168,0,255
o,0xd6460124,1556708612.690394,172.16.11.67,21609,172.16.10.65,5000,1073725440,27540,0,1048320,1049800,6,6,4,1448,3390,1,16778208,698,1049800,1046904,1049800,0,24616,0,255
o,0xb0044585,1556708612.690397,172.16.11.67,21609,172.16.10.65,5000,1073725440,27540,0,1048320,1049800,6,6,4,1448,3390,1,16778208,698,1049800,1046904,1049800,0,26064,0,255
i,0x6033a69b,1556708612.737385,172.16.11.67,21609,172.16.10.65,5000,1073725440,27540,0,1048320,1049800,6,6,4,1448,3390,1,16778208,698,1049800,1049800,1049800,0,27512,0,255
o,0x99d25e05,1556708612.737388,172.16.11.67,21609,172.16.10.65,5000,1073725440,30436,0,1048320,1049800,6,6,4,1448,3903,1,16778208,744,1049800,1046904,1049800,0,24616,0,235
o,0xdbd09764,1556708612.737391,172.16.11.67,21609,172.16.10.65,5000,1073725440,30436,0,1048320,1049800,6,6,4,1448,3903,1,16778208,744,1049800,1046904,1049800,0,26064,0,235
o,0xd5f91ee4,1556708612.737395,172.16.11.67,21609,172.16.10.65,5000,1073725440,30436,0,1048320,1049800,6,6,4,1448,3903,1,16778208,744,1049800,1046904,1049800,0,27512,0,235
o,0x66de5845,1556708612.737398,172.16.11.67,21609,172.16.10.65,5000,1073725440,30436,0,1048320,1049800,6,6,4,1448,3903,1,16778208,744,1049800,1046904,1049800,0,28960,0,235
i,0x83f559bc,1556708612.784385,172.16.11.67,21609,172.16.10.65,5000,1073725440,30436,0,1048320,1049800,6,6,4,1448,3903,1,16778208,744,1049800,1049800,1049800,0,30408,0,235
o,0xb81a9b45,1556708612.784388,172.16.11.67,21609,172.16.10.65,5000,1073725440,33332,0,1048320,1049800,6,6,4,1448,4540,1,16778208,818,1049800,1046904,1049800,0,27512,0,235
o,0x663180c5,1556708612.784391,172.16.11.67,21609,172.16.10.65,5000,1073725440,33332,0,1048320,1049800,6,6,4,1448,4540,1,16778208,818,1049800,1046904,1049800,0,28960,0,235
o,0x7c53f145,1556708612.784395,172.16.11.67,21609,172.16.10.65,5000,1073725440,33332,0,1048320,1049800,6,6,4,1448,4540,1,16778208,818,1049800,1046904,1049800,0,30408,0,235
o,0x6719eb85,1556708612.784398,172.16.11.67,21609,172.16.10.65,5000,1073725440,33332,0,1048320,1049800,6,6,4,1448,4540,1,16778208,818,1049800,1046904,1049800,0,31856,0,235
i,0x8320b73c,1556708612.831386,172.16.11.67,21609,172.16.10.65,5000,1073725440,33332,0,1048320,1049800,6,6,4,1448,4540,1,16778208,818,1049800,1049800,1049800,0,33304,0,235
o,0x6ef4ae05,1556708612.831389,172.16.11.67,21609,172.16.10.65,5000,1073725440,36228,0,1048320,1049800,6,6,4,1448,5097,1,16778208,856,1049800,1046904,1049800,0,30408,0,282
o,0x83f14885,1556708612.831392,172.16.11.67,21609,172.16.10.65,5000,1073725440,36228,0,1048320,1049800,6,6,4,1448,5097,1,16778208,856,1049800,1046904,1049800,0,31856,0,282
o,0x5de3f6e4,1556708612.831396,172.16.11.67,21609,172.16.10.65,5000,1073725440,36228,0,1048320,1049800,6,6,4,1448,5097,1,16778208,856,1049800,1046904,1049800,0,33304,0,282
o,0x91732c86,1556708612.831399,172.16.11.67,21609,172.16.10.65,5000,1073725440,36228,0,1048320,1049800,6,6,4,1448,5097,1,16778208,856,1049800,1046904,1049800,0,34752,0,282
i,0x7c693bdb,1556708612.878384,172.16.11.67,21609,172.16.10.65,5000,1073725440,36228,0,1048320,1049800,6,6,4,1448,5097,1,16778208,856,1049800,1049800,1049800,0,36200,0,282
o,0xf32eafe5,1556708612.878387,172.16.11.67,21609,172.16.10.65,5000,1073725440,39124,0,1048320,1049800,6,6,4,1448,5772,1,16778208,921,1049800,1046904,1049800,0,33304,0,282
o,0xbf523f65,1556708612.878390,172.16.11.67,21609,172.16.10.65,5000,1073725440,39124,0,1048320,1049800,6,6,4,1448,5772,1,16778208,921,1049800,1046904,1049800,0,34752,0,282
o,0xd44ed9e5,1556708612.878394,172.16.11.67,21609,172.16.10.65,5000,1073725440,39124,0,1048320,1049800,6,6,4,1448,5772,1,16778208,921,1049800,1046904,1049800,0,36200,0,282
o,0x73033225,1556708612.878397,172.16.11.67,21609,172.16.10.65,5000,1073725440,39124,0,1048320,1049800,6,6,4,1448,5772,1,16778208,921,1049800,1046904,1049800,0,37648,0,282
i,0xa60dc8bc,1556708612.925386,172.16.11.67,21609,172.16.10.65,5000,1073725440,39124,0,1048320,1049800,6,6,4,1448,5772,1,16778208,921,1049800,1049800,1049800,0,39096,0,282
o,0xc4dcd5a5,1556708612.925388,172.16.11.67,21609,172.16.10.65,5000,1073725440,42020,0,1048320,1049800,6,6,4,1448,6363,1,16778208,952,1049800,1046904,1049800,0,36200,0,329
o,0xbf055d25,1556708612.925392,172.16.11.67,21609,172.16.10.65,5000,1073725440,42020,0,1048320,1049800,6,6,4,1448,6363,1,16778208,952,1049800,1046904,1049800,0,37648,0,329
o,0xb704b584,1556708612.925395,172.16.11.67,21609,172.16.10.65,5000,1073725440,42020,0,1048320,1049800,6,6,4,1448,6363,1,16778208,952,1049800,1046904,1049800,0,39096,0,329
o,0x90c2f9e5,1556708612.925399,172.16.11.67,21609,172.16.10.65,5000,1073725440,42020,0,1048320,1049800,6,6,4,1448,6363,1,16778208,952,1049800,1046904,1049800,0,40544,0,329
i,0x8f92f4fc,1556708612.972386,172.16.11.67,21609,172.16.10.65,5000,1073725440,42020,0,1048320,1049800,6,6,4,1448,6363,1,16778208,952,1049800,1049800,1049800,0,41992,0,329
o,0x65c69686,1556708612.972389,172.16.11.67,21609,172.16.10.65,5000,1073725440,44916,0,1048320,1049800,6,6,4,1448,7068,1,16778208,1012,1049800,1046904,1049800,0,39096,0,329
o,0xa7c4cfe5,1556708612.972393,172.16.11.67,21609,172.16.10.65,5000,1073725440,44916,0,1048320,1049800,6,6,4,1448,7068,1,16778208,1012,1049800,1046904,1049800,0,40544,0,329
o,0xa1ed5765,1556708612.972397,172.16.11.67,21609,172.16.10.65,5000,1073725440,44916,0,1048320,1049800,6,6,4,1448,7068,1,16778208,1012,1049800,1046904,1049800,0,41992,0,329
o,0x32d290c6,1556708612.972400,172.16.11.67,21609,172.16.10.65,5000,1073725440,44916,0,1048320,1049800,6,6,4,1448,7068,1,16778208,1012,1049800,1046904,1049800,0,43440,0,329
i,0x8ebe535b,1556708613.019387,172.16.11.67,21609,172.16.10.65,5000,1073725440,44916,0,1048320,1049800,6,6,4,1448,7068,1,16778208,1012,1049800,1049800,1049800,0,44888,0,329
o,0xbf3af564,1556708613.019389,172.16.11.67,21609,172.16.10.65,5000,1073725440,47812,0,1048320,1049800,6,6,4,1448,7685,1,16778208,1038,1049800,1046904,1049800,0,41992,0,376
o,0x6d51dae4,1556708613.019394,172.16.11.67,21609,172.16.10.65,5000,1073725440,47812,0,1048320,1049800,6,6,4,1448,7685,1,16778208,1038,1049800,1046904,1049800,0,43440,0,376
o,0x83744b64,1556708613.019397,172.16.11.67,21609,172.16.10.65,5000,1073725440,47812,0,1048320,1049800,6,6,4,1448,7685,1,16778208,1038,1049800,1046904,1049800,0,44888,0,376
o,0x6e3a45a4,1556708613.019401,172.16.11.67,21609,172.16.10.65,5000,1073725440,47812,0,1048320,1049800,6,6,4,1448,7685,1,16778208,1038,1049800,1046904,1049800,0,46336,0,376
i,0x55b55bbc,1556708613.065387,172.16.11.67,21609,172.16.10.65,5000,1073725440,47812,0,1048320,1049800,6,6,4,1448,7685,1,16778208,1038,1049800,1049800,1049800,0,47784,0,376
o,0x02ad77c5,1556708613.065393,172.16.11.67,21609,172.16.10.65,5000,1073725440,50708,0,1048320,1049800,6,6,4,1448,8409,1,16778208,1092,1049800,1046904,1049800,0,44888,0,376
o,0x17aa1245,1556708613.065397,172.16.11.67,21609,172.16.10.65,5000,1073725440,50708,0,1048320,1049800,6,6,4,1448,8409,1,16778208,1092,1049800,1046904,1049800,0,46336,0,376
o,0xf19cc0a4,1556708613.065401,172.16.11.67,21609,172.16.10.65,5000,1073725440,50708,0,1048320,1049800,6,6,4,1448,8409,1,16778208,1092,1049800,1046904,1049800,0,47784,0,376
o,0xcc80db05,1556708613.065404,172.16.11.67,21609,172.16.10.65,5000,1073725440,50708,0,1048320,1049800,6,6,4,1448,8409,1,16778208,1092,1049800,1046904,1049800,0,49232,0,376
i,0xf82827db,1556708613.112387,172.16.11.67,21609,172.16.10.65,5000,1073725440,50708,0,1048320,1049800,6,6,4,1448,8409,1,16778208,1092,1049800,1049800,1049800,0,50680,0,376
o,0x02609585,1556708613.112390,172.16.11.67,21609,172.16.10.65,5000,1073725440,53604,0,1048320,1049800,6,6,4,1448,9046,1,16778208,1114,1049800,1046904,1049800,0,47784,0,423
o,0xfa5fede4,1556708613.112394,172.16.11.67,21609,172.16.10.65,5000,1073725440,53604,0,1048320,1049800,6,6,4,1448,9046,1,16778208,1114,1049800,1046904,1049800,0,49232,0,423
o,0x0f5c8864,1556708613.112397,172.16.11.67,21609,172.16.10.65,5000,1073725440,53604,0,1048320,1049800,6,6,4,1448,9046,1,16778208,1114,1049800,1046904,1049800,0,50680,0,423
o,0x823517c5,1556708613.112401,172.16.11.67,21609,172.16.10.65,5000,1073725440,53604,0,1048320,1049800,6,6,4,1448,9046,1,16778208,1114,1049800,1046904,1049800,0,52128,0,423
i,0xb638115b,1556708613.159385,172.16.11.67,21609,172.16.10.65,5000,1073725440,53604,0,1048320,1049800,6,6,4,1448,9046,1,16778208,1114,1049800,1049800,1049800,0,53576,0,423
o,0xffea8424,1556708613.159388,172.16.11.67,21609,172.16.10.65,5000,1073725440,56500,0,1048320,1049800,6,6,4,1448,9792,1,16778208,1166,1049800,1046904,1049800,0,50680,0,423
o,0xfa130ba4,1556708613.159392,172.16.11.67,21609,172.16.10.65,5000,1073725440,56500,0,1048320,1049800,6,6,4,1448,9792,1,16778208,1166,1049800,1046904,1049800,0,52128,0,423
o,0x8af84505,1556708613.159396,172.16.11.67,21609,172.16.10.65,5000,1073725440,56500,0,1048320,1049800,6,6,4,1448,9792,1,16778208,1166,1049800,1046904,1049800,0,53576,0,423
o,0xcbd0a864,1556708613.159399,172.16.11.67,21609,172.16.10.65,5000,1073725440,56500,0,1048320,1049800,6,6,4,1448,9792,1,16778208,1166,1049800,1046904,1049800,0,55024,0,423
i,0x0b51e0fc,1556708613.206386,172.16.11.67,21609,172.16.10.65,5000,1073725440,56500,0,1048320,1049800,6,6,4,1448,9792,1,16778208,1166,1049800,1049800,1049800,0,56472,0,423
o,0xa0d44505,1556708613.206388,172.16.11.67,21609,172.16.10.65,5000,1073725440,59396,0,1048320,1049800,6,6,4,1448,10444,1,16778208,1184,1049800,1046904,1049800,0,53576,0,470
o,0xb6f6b585,1556708613.206392,172.16.11.67,21609,172.16.10.65,5000,1073725440,59396,0,1048320,1049800,6,6,4,1448,10444,1,16778208,1184,1049800,1046904,1049800,0,55024,0,470
o,0xa1bcafc5,1556708613.206396,172.16.11.67,21609,172.16.10.65,5000,1073725440,59396,0,1048320,1049800,6,6,4,1448,10444,1,16778208,1184,1049800,1046904,1049800,0,56472,0,470
o,0x6de03f45,1556708613.206399,172.16.11.67,21609,172.16.10.65,5000,1073725440,59396,0,1048320,1049800,6,6,4,1448,10444,1,16778208,1184,1049800,1046904,1049800,0,57920,0,470
i,0xc961ca7c,1556708613.253385,172.16.11.67,21609,172.16.10.65,5000,1073725440,59396,0,1048320,1049800,6,6,4,1448,10444,1,16778208,1184,1049800,1049800,1049800,0,59368,0,470
o,0xea6fd5a4,1556708613.253387,172.16.11.67,21609,172.16.10.65,5000,1073725440,62292,0,1048320,1049800,6,6,4,1448,11203,1,16778208,1233,1049800,1046904,1049800,0,56472,0,470
o,0x9886bb24,1556708613.253391,172.16.11.67,21609,172.16.10.65,5000,1073725440,62292,0,1048320,1049800,6,6,4,1448,11203,1,16778208,1233,1049800,1046904,1049800,0,57920,0,470
o,0xaea92ba4,1556708613.253395,172.16.11.67,21609,172.16.10.65,5000,1073725440,62292,0,1048320,1049800,6,6,4,1448,11203,1,16778208,1233,1049800,1046904,1049800,0,59368,0,470
o,0x996f25e4,1556708613.253398,172.16.11.67,21609,172.16.10.65,5000,1073725440,62292,0,1048320,1049800,6,6,4,1448,11203,1,16778208,1233,1049800,1046904,1049800,0,60816,0,470
i,0xc88d27fc,1556708613.300384,172.16.11.67,21609,172.16.10.65,5000,1073725440,62292,0,1048320,1049800,6,6,4,1448,11203,1,16778208,1233,1049800,1049800,1049800,0,62264,0,470
o,0x75f69505,1556708613.300387,172.16.11.67,21609,172.16.10.65,5000,1073725440,65188,0,1048320,1049800,6,6,4,1448,11867,1,16778208,1249,1049800,1046904,1049800,0,59368,0,517
o,0x8af32f85,1556708613.300391,172.16.11.67,21609,172.16.10.65,5000,1073725440,65188,0,1048320,1049800,6,6,4,1448,11867,1,16778208,1249,1049800,1046904,1049800,0,60816,0,517
o,0x29a787c5,1556708613.300394,172.16.11.67,21609,172.16.10.65,5000,1073725440,65188,0,1048320,1049800,6,6,4,1448,11867,1,16778208,1249,1049800,1046904,1049800,0,62264,0,517
o,0x3fc9f845,1556708613.300398,172.16.11.67,21609,172.16.10.65,5000,1073725440,65188,0,1048320,1049800,6,6,4,1448,11867,1,16778208,1249,1049800,1046904,1049800,0,63712,0,517
i,0xb965e97b,1556708613.347385,172.16.11.67,21609,172.16.10.65,5000,1073725440,65188,0,1048320,1049800,6,6,4,1448,11867,1,16778208,1249,1049800,1049800,1049800,0,65160,0,517
o,0x75a9b2c5,1556708613.347388,172.16.11.67,21609,172.16.10.65,5000,1073725440,68084,0,1048320,1049800,6,6,4,1448,12636,1,16778208,1296,1049800,1046904,1049800,0,62264,0,517
o,0x6da90b24,1556708613.347392,172.16.11.67,21609,172.16.10.65,5000,1073725440,68084,0,1048320,1049800,6,6,4,1448,12636,1,16778208,1296,1049800,1046904,1049800,0,63712,0,517
o,0x47674f85,1556708613.347395,172.16.11.67,21609,172.16.10.65,5000,1073725440,68084,0,1048320,1049800,6,6,4,1448,12636,1,16778208,1296,1049800,1046904,1049800,0,65160,0,517
o,0xf57e3505,1556708613.347399,172.16.11.67,21609,172.16.10.65,5000,1073725440,68084,0,1048320,1049800,6,6,4,1448,12636,1,16778208,1296,1049800,1046904,1049800,0,66608,0,517
i,0x9943aa7c,1556708613.394385,172.16.11.67,21609,172.16.10.65,5000,1073725440,68084,0,1048320,1049800,6,6,4,1448,12636,1,16778208,1296,1049800,1049800,1049800,0,68056,0,517
o,0xcbdebca5,1556708613.394387,172.16.11.67,21609,172.16.10.65,5000,1073725440,70980,0,1048320,1049800,6,6,4,1448,13309,1,16778208,1310,1049800,1046904,1049800,0,65160,0,564
o,0xc6074425,1556708613.394391,172.16.11.67,21609,172.16.10.65,5000,1073725440,70980,0,1048320,1049800,6,6,4,1448,13309,1,16778208,1310,1049800,1046904,1049800,0,66608,0,564
o,0x56ec7d86,1556708613.394395,172.16.11.67,21609,172.16.10.65,5000,1073725440,70980,0,1048320,1049800,6,6,4,1448,13309,1,16778208,1310,1049800,1046904,1049800,0,68056,0,564
o,0x97c4e0e5,1556708613.394398,172.16.11.67,21609,172.16.10.65,5000,1073725440,70980,0,1048320,1049800,6,6,4,1448,13309,1,16778208,1310,1049800,1046904,1049800,0,69504,0,564
i,0x35c1845b,1556708613.440384,172.16.11.67,21609,172.16.10.65,5000,1073725440,70980,0,1048320,1049800,6,6,4,1448,13309,1,16778208,1310,1049800,1049800,1049800,0,70952,0,564
o,0x397ebc65,1556708613.440387,172.16.11.67,21609,172.16.10.65,5000,1073725440,73876,0,1048320,1049800,6,6,4,1448,14082,1,16778208,1354,1049800,1046904,1049800,0,68056,0,563
o,0x4fa12ce5,1556708613.440391,172.16.11.67,21609,172.16.10.65,5000,1073725440,73876,0,1048320,1049800,6,6,4,1448,14082,1,16778208,1354,1049800,1046904,1049800,0,69504,0,563
o,0xaf77a846,1556708613.440394,172.16.11.67,21609,172.16.10.65,5000,1073725440,73876,0,1048320,1049800,6,6,4,1448,14082,1,16778208,1354,1049800,1046904,1049800,0,70952,0,563
o,0xc86d4fa5,1556708613.440398,172.16.11.67,21609,172.16.10.65,5000,1073725440,73876,0,1048320,1049800,6,6,4,1448,14082,1,16778208,1354,1049800,1046904,1049800,0,72400,0,563
i,0xe9f0ef3c,1556708613.487386,172.16.11.67,21609,172.16.10.65,5000,1073725440,73876,0,1048320,1049800,6,6,4,1448,14082,1,16778208,1354,1049800,1049800,1049800,0,73848,0,563
o,0x9d70ec46,1556708613.487389,172.16.11.67,21609,172.16.10.65,5000,1073725440,76772,0,1048320,1049800,6,6,4,1448,14758,1,16778208,1365,1049800,1046904,1049800,0,70952,0,610
o,0xdf6f25a5,1556708613.487393,172.16.11.67,21609,172.16.10.65,5000,1073725440,76772,0,1048320,1049800,6,6,4,1448,14758,1,16778208,1365,1049800,1046904,1049800,0,72400,0,610
o,0x9e595706,1556708613.487396,172.16.11.67,21609,172.16.10.65,5000,1073725440,76772,0,1048320,1049800,6,6,4,1448,14758,1,16778208,1365,1049800,1046904,1049800,0,73848,0,610
o,0x6a7ce686,1556708613.487400,172.16.11.67,21609,172.16.10.65,5000,1073725440,76772,0,1048320,1049800,6,6,4,1448,14758,1,16778208,1365,1049800,1046904,1049800,0,75296,0,610
i,0x48eb3d7c,1556708613.534386,172.16.11.67,21609,172.16.10.65,5000,1073725440,76772,0,1048320,1049800,6,6,4,1448,14758,1,16778208,1365,1049800,1049800,1049800,0,76744,0,610
o,0xf6e54b24,1556708613.534389,172.16.11.67,21609,172.16.10.65,5000,1073725440,79668,0,1048320,1049800,6,6,4,1448,15538,1,16778208,1409,1049800,1046904,1049800,0,73848,0,610
o,0xa4fc30a4,1556708613.534393,172.16.11.67,21609,172.16.10.65,5000,1073725440,79668,0,1048320,1049800,6,6,4,1448,15538,1,16778208,1409,1049800,1046904,1049800,0,75296,0,610
o,0x7fe04b05,1556708613.534396,172.16.11.67,21609,172.16.10.65,5000,1073725440,79668,0,1048320,1049800,6,6,4,1448,15538,1,16778208,1409,1049800,1046904,1049800,0,76744,0,610
o,0xa5e49b64,1556708613.534400,172.16.11.67,21609,172.16.10.65,5000,1073725440,79668,0,1048320,1049800,6,6,4,1448,15538,1,16778208,1409,1049800,1046904,1049800,0,78192,0,610
i,0x48169bdb,1556708613.581385,172.16.11.67,21609,172.16.10.65,5000,1073725440,79668,0,1048320,1049800,6,6,4,1448,15538,1,16778208,1409,1049800,1049800,1049800,0,79640,0,610
o,0x826c0a85,1556708613.581388,172.16.11.67,21609,172.16.10.65,5000,1073725440,82564,0,1048320,1049800,6,6,4,1448,16220,1,16778208,1420,1049800,1046904,1049800,0,76744,0,657
o,0x9768a505,1556708613.581392,172.16.11.67,21609,172.16.10.65,5000,1073725440,82564,0,1048320,1049800,6,6,4,1448,16220,1,16778208,1420,1049800,1046904,1049800,0,78192,0,657
o,0x361cfd45,1556708613.581395,172.16.11.67,21609,172.16.10.65,5000,1073725440,82564,0,1048320,1049800,6,6,4,1448,16220,1,16778208,1420,1049800,1046904,1049800,0,79640,0,657
o,0x4c3f6dc5,1556708613.581399,172.16.11.67,21609,172.16.10.65,5000,1073725440,82564,0,1048320,1049800,6,6,4,1448,16220,1,16778208,1420,1049800,1046904,1049800,0,81088,0,657
i,0x0626855b,1556708613.628385,172.16.11.67,21609,172.16.10.65,5000,1073725440,82564,0,1048320,1049800,6,6,4,1448,16220,1,16778208,1420,1049800,1049800,1049800,0,82536,0,657
o,0xadfaf124,1556708613.628388,172.16.11.67,21609,172.16.10.65,5000,1073725440,85460,0,1048320,1049800,6,6,4,1448,17005,1,16778208,1462,1049800,1046904,1049800,0,79640,0,657
o,0x7a1e80a4,1556708613.628392,172.16.11.67,21609,172.16.10.65,5000,1073725440,85460,0,1048320,1049800,6,6,4,1448,17005,1,16778208,1462,1049800,1046904,1049800,0,81088,0,657
o,0x53dcc505,1556708613.628395,172.16.11.67,21609,172.16.10.65,5000,1073725440,85460,0,1048320,1049800,6,6,4,1448,17005,1,16778208,1462,1049800,1046904,1049800,0,82536,0,657
o,0x2dcf7364,1556708613.628399,172.16.11.67,21609,172.16.10.65,5000,1073725440,85460,0,1048320,1049800,6,6,4,1448,17005,1,16778208,1462,1049800,1046904,1049800,0,83984,0,657
i,0x6b03ad5b,1556708613.675385,172.16.11.67,21609,172.16.10.65,5000,1073725440,85460,0,1048320,1049800,6,6,4,1448,17005,1,16778208,1462,1049800,1049800,1049800,0,85432,0,657
o,0x7fa916e4,1556708613.675389,172.16.11.67,21609,172.16.10.65,5000,1073725440,88356,0,1048320,1049800,6,6,4,1448,17692,1,16778208,1473,1049800,1046904,1049800,0,82536,0,704
o,0x79d19e64,1556708613.675392,172.16.11.67,21609,172.16.10.65,5000,1073725440,88356,0,1048320,1049800,6,6,4,1448,17692,1,16778208,1473,1049800,1046904,1049800,0,83984,0,704
o,0x3692a0a4,1556708613.675396,172.16.11.67,21609,172.16.10.65,5000,1073725440,88356,0,1048320,1049800,6,6,4,1448,17692,1,16778208,1473,1049800,1046904,1049800,0,85432,0,704
o,0x4b8f3b24,1556708613.675400,172.16.11.67,21609,172.16.10.65,5000,1073725440,88356,0,1048320,1049800,6,6,4,1448,17692,1,16778208,1473,1049800,1046904,1049800,0,86880,0,704
i,0x19503e7c,1556708613.722385,172.16.11.67,21609,172.16.10.65,5000,1073725440,88356,0,1048320,1049800,6,6,4,1448,17692,1,16778208,1473,1049800,1049800,1049800,0,88328,0,704
o,0x2092d7c5,1556708613.722387,172.16.11.67,21609,172.16.10.65,5000,1073725440,91252,0,1048320,1049800,6,6,4,1448,18481,1,16778208,1515,1049800,1046904,1049800,0,85432,0,704
o,0x62911124,1556708613.722391,172.16.11.67,21609,172.16.10.65,5000,1073725440,91252,0,1048320,1049800,6,6,4,1448,18481,1,16778208,1515,1049800,1046904,1049800,0,86880,0,704
o,0x217b4285,1556708613.722395,172.16.11.67,21609,172.16.10.65,5000,1073725440,91252,0,1048320,1049800,6,6,4,1448,18481,1,16778208,1515,1049800,1046904,1049800,0,88328,0,704
o,0xed9ed205,1556708613.722398,172.16.11.67,21609,172.16.10.65,5000,1073725440,91252,0,1048320,1049800,6,6,4,1448,18481,1,16778208,1515,1049800,1046904,1049800,0,89776,0,704
i,0x187b9cdb,1556708613.769385,172.16.11.67,21609,172.16.10.65,5000,1073725440,91252,0,1048320,1049800,6,6,4,1448,18481,1,16778208,1515,1049800,1049800,1049800,0,91224,0,704
o,0x6a2e6864,1556708613.769387,172.16.11.67,21609,172.16.10.65,5000,1073725440,94148,0,1048320,1049800,6,6,4,1448,19171,1,16778208,1525,1049800,1046904,1049800,0,88328,0,751
o,0x18454de4,1556708613.769391,172.16.11.67,21609,172.16.10.65,5000,1073725440,94148,0,1048320,1049800,6,6,4,1448,19171,1,16778208,1525,1049800,1046904,1049800,0,89776,0,751
o,0xf3296845,1556708613.769394,172.16.11.67,21609,172.16.10.65,5000,1073725440,94148,0,1048320,1049800,6,6,4,1448,19171,1,16778208,1525,1049800,1046904,1049800,0,91224,0,751
o,0x192db8a4,1556708613.769398,172.16.11.67,21609,172.16.10.65,5000,1073725440,94148,0,1048320,1049800,6,6,4,1448,19171,1,16778208,1525,1049800,1046904,1049800,0,92672,0,751
i,0xdf72a53c,1556708613.815386,172.16.11.67,21609,172.16.10.65,5000,1073725440,94148,0,1048320,1049800,6,6,4,1448,19171,1,16778208,1525,1049800,1049800,1049800,0,94120,0,751
o,0xada0eac5,1556708613.815389,172.16.11.67,21609,172.16.10.65,5000,1073725440,97044,0,1048320,1049800,6,6,4,1448,19959,1,16778208,1565,1049800,1046904,1049800,0,91224,0,751
o,0xc29d8545,1556708613.815393,172.16.11.67,21609,172.16.10.65,5000,1073725440,97044,0,1048320,1049800,6,6,4,1448,19959,1,16778208,1565,1049800,1046904,1049800,0,92672,0,751
o,0x6151dd85,1556708613.815396,172.16.11.67,21609,172.16.10.65,5000,1073725440,97044,0,1048320,1049800,6,6,4,1448,19959,1,16778208,1565,1049800,1046904,1049800,0,94120,0,751
o,0x77744e05,1556708613.815400,172.16.11.67,21609,172.16.10.65,5000,1073725440,97044,0,1048320,1049800,6,6,4,1448,19959,1,16778208,1565,1049800,1046904,1049800,0,95568,0,751
i,0x81e5707c,1556708613.862385,172.16.11.67,21609,172.16.10.65,5000,1073725440,97044,0,1048320,1049800,6,6,4,1448,19959,1,16778208,1565,1049800,1049800,1049800,0,97016,0,751
o,0xad540885,1556708613.862388,172.16.11.67,21609,172.16.10.65,5000,1073725440,99940,0,1048320,1049800,6,6,4,1448,20653,1,16778208,1575,1049800,1046904,1049800,0,94120,0,798
o,0xa55360e4,1556708613.862392,172.16.11.67,21609,172.16.10.65,5000,1073725440,99940,0,1048320,1049800,6,6,4,1448,20653,1,16778208,1575,1049800,1046904,1049800,0,95568,0,798
o,0x7f11a545,1556708613.862395,172.16.11.67,21609,172.16.10.65,5000,1073725440,99940,0,1048320,1049800,6,6,4,1448,20653,1,16778208,1575,1049800,1046904,1049800,0,97016,0,798
o,0x2d288ac5,1556708613.862399,172.16.11.67,21609,172.16.10.65,5000,1073725440,99940,0,1048320,1049800,6,6,4,1448,20653,1,16778208,1575,1049800,1046904,1049800,0,98464,0,798
i,0x7b2df51b,1556708613.909385,172.16.11.67,21609,172.16.10.65,5000,1073725440,99940,0,1048320,1049800,6,6,4,1448,20653,1,16778208,1575,1049800,1049800,1049800,0,99912,0,798
o,0xaaddf724,1556708613.909388,172.16.11.67,21609,172.16.10.65,5000,1073725440,102836,0,1048320,1049800,6,6,4,1448,21448,1,16778208,1616,1049800,1046904,1049800,0,97016,0,798
o,0xfdb199e5,1556708613.909392,172.16.11.67,21609,172.16.10.65,5000,1073725440,102836,0,1048320,1049800,6,6,4,1448,21448,1,16778208,1616,1049800,1046904,1049800,0,98464,0,798
o,0x8e96d346,1556708613.909395,172.16.11.67,21609,172.16.10.65,5000,1073725440,102836,0,1048320,1049800,6,6,4,1448,21448,1,16778208,1616,1049800,1046904,1049800,0,99912,0,798
o,0xcf6f36a5,1556708613.909399,172.16.11.67,21609,172.16.10.65,5000,1073725440,102836,0,1048320,1049800,6,6,4,1448,21448,1,16778208,1616,1049800,1046904,1049800,0,101360,0,798
i,0xa4d281fc,1556708613.956386,172.16.11.67,21609,172.16.10.65,5000,1073725440,102836,0,1048320,1049800,6,6,4,1448,21448,1,16778208,1616,1049800,1049800,1049800,0,102808,0,798
o,0xb93d4f25,1556708613.956389,172.16.11.67,21609,172.16.10.65,5000,1073725440,105732,0,1048320,1049800,6,6,4,1448,22143,1,16778208,1625,1049800,1046904,1049800,0,99912,0,845
o,0xcf5fbfa5,1556708613.956393,172.16.11.67,21609,172.16.10.65,5000,1073725440,105732,0,1048320,1049800,6,6,4,1448,22143,1,16778208,1625,1049800,1046904,1049800,0,101360,0,845
o,0xba25b9e5,1556708613.956397,172.16.11.67,21609,172.16.10.65,5000,1073725440,105732,0,1048320,1049800,6,6,4,1448,22143,1,16778208,1625,1049800,1046904,1049800,0,102808,0,845
o,0x86494965,1556708613.956400,172.16.11.67,21609,172.16.10.65,5000,1073725440,105732,0,1048320,1049800,6,6,4,1448,22143,1,16778208,1625,1049800,1046904,1049800,0,104256,0,845
i,0x8e57ae3c,1556708614.003387,172.16.11.67,21609,172.16.10.65,5000,1073725440,105732,0,1048320,1049800,6,6,4,1448,22143,1,16778208,1625,1049800,1049800,1049800,0,105704,0,845
o,0xee0e63e5,1556708614.003390,172.16.11.67,21609,172.16.10.65,5000,1073725440,108628,0,1048320,1049800,6,6,4,1448,22940,1,16778208,1666,1049800,1046904,1049800,0,102808,0,845
o,0x9c254965,1556708614.003394,172.16.11.67,21609,172.16.10.65,5000,1073725440,108628,0,1048320,1049800,6,6,4,1448,22940,1,16778208,1666,1049800,1046904,1049800,0,104256,0,845
o,0x770963c6,1556708614.003397,172.16.11.67,21609,172.16.10.65,5000,1073725440,108628,0,1048320,1049800,6,6,4,1448,22940,1,16778208,1666,1049800,1046904,1049800,0,105704,0,845
o,0x9d0db425,1556708614.003400,172.16.11.67,21609,172.16.10.65,5000,1073725440,108628,0,1048320,1049800,6,6,4,1448,22940,1,16778208,1666,1049800,1046904,1049800,0,107152,0,845
i,0x524a717c,1556708614.050386,172.16.11.67,21609,172.16.10.65,5000,1073725440,108628,0,1048320,1049800,6,6,4,1448,22940,1,16778208,1666,1049800,1049800,1049800,0,108600,0,845
o,0xa4e876a5,1556708614.050389,172.16.11.67,21609,172.16.10.65,5000,1073725440,111524,0,1048320,1049800,6,6,4,1448,23637,1,16778208,1675,1049800,1046904,1049800,0,105704,0,892
o,0xc9bddf64,1556708614.050393,172.16.11.67,21609,172.16.10.65,5000,1073725440,111524,0,1048320,1049800,6,6,4,1448,23637,1,16778208,1675,1049800,1046904,1049800,0,107152,0,892
o,0x687237a4,1556708614.050396,172.16.11.67,21609,172.16.10.65,5000,1073725440,111524,0,1048320,1049800,6,6,4,1448,23637,1,16778208,1675,1049800,1046904,1049800,0,108600,0,892
o,0x7e94a824,1556708614.050399,172.16.11.67,21609,172.16.10.65,5000,1073725440,111524,0,1048320,1049800,6,6,4,1448,23637,1,16778208,1675,1049800,1046904,1049800,0,110048,0,892
i,0xb144bfbc,1556708614.097388,172.16.11.67,21609,172.16.10.65,5000,1073725440,111524,0,1048320,1049800,6,6,4,1448,23637,1,16778208,1675,1049800,1049800,1049800,0,111496,0,892
o,0x89210f45,1556708614.097390,172.16.11.67,21609,172.16.10.65,5000,1073725440,114420,0,1048320,1049800,6,6,4,1448,24435,1,16778208,1715,1049800,1046904,1049800,0,108600,0,892
o,0x812067a4,1556708614.097394,172.16.11.67,21609,172.16.10.65,5000,1073725440,114420,0,1048320,1049800,6,6,4,1448,24435,1,16778208,1715,1049800,1046904,1049800,0,110048,0,892
o,0x5adeac05,1556708614.097398,172.16.11.67,21609,172.16.10.65,5000,1073725440,114420,0,1048320,1049800,6,6,4,1448,24435,1,16778208,1715,1049800,1046904,1049800,0,111496,0,892
o,0x08f59185,1556708614.097401,172.16.11.67,21609,172.16.10.65,5000,1073725440,114420,0,1048320,1049800,6,6,4,1448,24435,1,16778208,1715,1049800,1046904,1049800,0,112944,0,892
i,0xb0701e1b,1556708614.144385,172.16.11.67,21609,172.16.10.65,5000,1073725440,114420,0,1048320,1049800,6,6,4,1448,24435,1,16778208,1715,1049800,1049800,1049800,0,114392,0,892
o,0x86aafde4,1556708614.144388,172.16.11.67,21609,172.16.10.65,5000,1073725440,117316,0,1048320,1049800,6,6,4,1448,25133,1,16778208,1723,1049800,1046904,1049800,0,111496,0,939
o,0x80d38564,1556708614.144392,172.16.11.67,21609,172.16.10.65,5000,1073725440,117316,0,1048320,1049800,6,6,4,1448,25133,1,16778208,1723,1049800,1046904,1049800,0,112944,0,939
o,0x11b8bec5,1556708614.144395,172.16.11.67,21609,172.16.10.65,5000,1073725440,117316,0,1048320,1049800,6,6,4,1448,25133,1,16778208,1723,1049800,1046904,1049800,0,114392,0,939
o,0x52912224,1556708614.144399,172.16.11.67,21609,172.16.10.65,5000,1073725440,117316,0,1048320,1049800,6,6,4,1448,25133,1,16778208,1723,1049800,1046904,1049800,0,115840,0,939
i,0x11b55cdb,1556708614.190386,172.16.11.67,21609,172.16.10.65,5000,1073725440,117316,0,1048320,1049800,6,6,4,1448,25133,1,16778208,1723,1049800,1049800,1049800,0,117288,0,939
o,0xf44afda4,1556708614.190389,172.16.11.67,21609,172.16.10.65,5000,1073725440,120212,0,1048320,1049800,6,6,4,1448,25928,1,16778208,1763,1049800,1046904,1049800,0,114392,0,938
o,0x0a6d6e24,1556708614.190393,172.16.11.67,21609,172.16.10.65,5000,1073725440,120212,0,1048320,1049800,6,6,4,1448,25928,1,16778208,1763,1049800,1046904,1049800,0,115840,0,938
o,0xf5336864,1556708614.190396,172.16.11.67,21609,172.16.10.65,5000,1073725440,120212,0,1048320,1049800,6,6,4,1448,25928,1,16778208,1763,1049800,1046904,1049800,0,117288,0,938
o,0xc156f7e4,1556708614.190400,172.16.11.67,21609,172.16.10.65,5000,1073725440,120212,0,1048320,1049800,6,6,4,1448,25928,1,16778208,1763,1049800,1046904,1049800,0,118736,0,938
i,0x011d62db,1556708614.237390,172.16.11.67,21609,172.16.10.65,5000,1073725440,120212,0,1048320,1049800,6,6,4,1448,25928,1,16778208,1763,1049800,1049800,1049800,0,120184,0,938
o,0xfd404985,1556708614.237392,172.16.11.67,21609,172.16.10.65,5000,1073725440,123108,0,1048320,1049800,6,6,4,1448,26623,1,16778208,1770,1049800,1046904,1049800,0,117288,0,985
o,0xd732f7e4,1556708614.237396,172.16.11.67,21609,172.16.10.65,5000,1073725440,123108,0,1048320,1049800,6,6,4,1448,26623,1,16778208,1770,1049800,1046904,1049800,0,118736,0,985
o,0xb2171245,1556708614.237400,172.16.11.67,21609,172.16.10.65,5000,1073725440,123108,0,1048320,1049800,6,6,4,1448,26623,1,16778208,1770,1049800,1046904,1049800,0,120184,0,985
o,0xac3f99c5,1556708614.237403,172.16.11.67,21609,172.16.10.65,5000,1073725440,123108,0,1048320,1049800,6,6,4,1448,26623,1,16778208,1770,1049800,1046904,1049800,0,121632,0,985
i,0x24df15fc,1556708614.284385,172.16.11.67,21609,172.16.10.65,5000,1073725440,123108,0,1048320,1049800,6,6,4,1448,26623,1,16778208,1770,1049800,1049800,1049800,0,123080,0,985
o,0xdff62524,1556708614.284388,172.16.11.67,21609,172.16.10.65,5000,1073725440,126004,0,1048320,1049800,6,6,4,1448,27420,1,16778208,1810,1049800,1046904,1049800,0,120184,0,985
o,0xf4f2bfa4,1556708614.284392,172.16.11.67,21609,172.16.10.65,5000,1073725440,126004,0,1048320,1049800,6,6,4,1448,27420,1,16778208,1810,1049800,1046904,1049800,0,121632,0,985
o,0x67cb4f05,1556708614.284396,172.16.11.67,21609,172.16.10.65,5000,1073725440,126004,0,1048320,1049800,6,6,4,1448,27420,1,16778208,1810,1049800,1046904,1049800,0,123080,0,985
o,0xa9c98864,1556708614.284399,172.16.11.67,21609,172.16.10.65,5000,1073725440,126004,0,1048320,1049800,6,6,4,1448,27420,1,16778208,1810,1049800,1046904,1049800,0,124528,0,985
i,0x240a737c,1556708614.331386,172.16.11.67,21609,172.16.10.65,5000,1073725440,126004,0,1048320,1049800,6,6,4,1448,27420,1,16778208,1810,1049800,1049800,1049800,0,125976,0,985
o,0xb455ef85,1556708614.331389,172.16.11.67,21609,172.16.10.65,5000,1073725440,128900,0,1048320,1049800,6,6,4,1448,28117,1,16778208,1817,1049800,1046904,1049800,0,123080,0,1032
o,0x80797f05,1556708614.331393,172.16.11.67,21609,172.16.10.65,5000,1073725440,128900,0,1048320,1049800,6,6,4,1448,28117,1,16778208,1817,1049800,1046904,1049800,0,124528,0,1032
o,0x86138c45,1556708614.331396,172.16.11.67,21609,172.16.10.65,5000,1073725440,128900,0,1048320,1049800,6,6,4,1448,28117,1,16778208,1817,1049800,1046904,1049800,0,125976,0,1032
o,0x342a71c5,1556708614.331400,172.16.11.67,21609,172.16.10.65,5000,1073725440,128900,0,1048320,1049800,6,6,4,1448,28117,1,16778208,1817,1049800,1046904,1049800,0,127424,0,1032
i,0x73f8d03b,1556708614.378386,172.16.11.67,21609,172.16.10.65,5000,1073725440,128900,0,1048320,1049800,6,6,4,1448,28117,1,16778208,1817,1049800,1049800,1049800,0,128872,0,1032
o,0xb1dfde24,1556708614.378389,172.16.11.67,21609,172.16.10.65,5000,1073725440,131796,0,1048320,1049800,6,6,4,1448,28915,1,16778208,1857,1049800,1046904,1049800,0,125976,0,1032
o,0xac0865a4,1556708614.378392,172.16.11.67,21609,172.16.10.65,5000,1073725440,131796,0,1048320,1049800,6,6,4,1448,28915,1,16778208,1857,1049800,1046904,1049800,0,127424,0,1032
o,0x3ced9f05,1556708614.378396,172.16.11.67,21609,172.16.10.65,5000,1073725440,131796,0,1048320,1049800,6,6,4,1448,28915,1,16778208,1857,1049800,1046904,1049800,0,128872,0,1032
o,0x7dc60264,1556708614.378400,172.16.11.67,21609,172.16.10.65,5000,1073725440,131796,0,1048320,1049800,6,6,4,1448,28915,1,16778208,1857,1049800,1046904,1049800,0,130320,0,1032
i,0xd8d5f83b,1556708614.425386,172.16.11.67,21609,172.16.10.65,5000,1073725440,131796,0,1048320,1049800,6,6,4,1448,28915,1,16778208,1857,1049800,1049800,1049800,0,131768,0,1032
o,0x67941ae4,1556708614.425389,172.16.11.67,21609,172.16.10.65,5000,1073725440,134692,0,1048320,1049800,6,6,4,1448,29613,1,16778208,1865,1049800,1046904,1049800,0,128872,0,1079
o,0x7db68b64,1556708614.425392,172.16.11.67,21609,172.16.10.65,5000,1073725440,134692,0,1048320,1049800,6,6,4,1448,29613,1,16778208,1865,1049800,1046904,1049800,0,130320,0,1079
o,0xc127a0e5,1556708614.425396,172.16.11.67,21609,172.16.10.65,5000,1073725440,134692,0,1048320,1049800,6,6,4,1448,29613,1,16778208,1865,1049800,1046904,1049800,0,131768,0,1079
o,0x8d4b3065,1556708614.425399,172.16.11.67,21609,172.16.10.65,5000,1073725440,134692,0,1048320,1049800,6,6,4,1448,29613,1,16778208,1865,1049800,1046904,1049800,0,133216,0,1079
i,0xee097a9b,1556708614.472386,172.16.11.67,21609,172.16.10.65,5000,1073725440,134692,0,1048320,1049800,6,6,4,1448,29613,1,16778208,1865,1049800,1049800,1049800,0,134664,0,1079
o,0xddfefde5,1556708614.472389,172.16.11.67,21609,172.16.10.65,5000,1073725440,137588,0,1048320,1049800,6,6,4,1448,30412,1,16778208,1905,1049800,1046904,1049800,0,131768,0,1079
o,0xb7f1ac44,1556708614.472392,172.16.11.67,21609,172.16.10.65,5000,1073725440,137588,0,1048320,1049800,6,6,4,1448,30412,1,16778208,1905,1049800,1046904,1049800,0,133216,0,1079
o,0x92d5c6a5,1556708614.472396,172.16.11.67,21609,172.16.10.65,5000,1073725440,137588,0,1048320,1049800,6,6,4,1448,30412,1,16778208,1905,1049800,1046904,1049800,0,134664,0,1079
o,0x8cfe4e25,1556708614.472400,172.16.11.67,21609,172.16.10.65,5000,1073725440,137588,0,1048320,1049800,6,6,4,1448,30412,1,16778208,1905,1049800,1046904,1049800,0,136112,0,1079
i,0xa238e57c,1556708614.519386,172.16.11.67,21609,172.16.10.65,5000,1073725440,137588,0,1048320,1049800,6,6,4,1448,30412,1,16778208,1905,1049800,1049800,1049800,0,137560,0,1079
o,0xabea5da5,1556708614.519388,172.16.11.67,21609,172.16.10.65,5000,1073725440,140484,0,1048320,1049800,6,6,4,1448,31111,1,16778208,1913,1049800,1046904,1049800,0,134664,0,1126
o,0x16edaa46,1556708614.519392,172.16.11.67,21609,172.16.10.65,5000,1073725440,140484,0,1048320,1049800,6,6,4,1448,31111,1,16778208,1913,1049800,1046904,1049800,0,136112,0,1126
o,0xf6c7f686,1556708614.519395,172.16.11.67,21609,172.16.10.65,5000,1073725440,140484,0,1048320,1049800,6,6,4,1448,31111,1,16778208,1913,1049800,1046904,1049800,0,137560,0,1126
o,0x1ccc46e5,1556708614.519399,172.16.11.67,21609,172.16.10.65,5000,1073725440,140484,0,1048320,1049800,6,6,4,1448,31111,1,16778208,1913,1049800,1046904,1049800,0,139008,0,1126
i,0xa46888fc,1556708614.565386,172.16.11.67,21609,172.16.10.65,5000,1073725440,140484,0,1048320,1049800,6,6,4,1448,31111,1,16778208,1913,1049800,1049800,1049800,0,140456,0,1126
o,0xdc92cc65,1556708614.565389,172.16.11.67,21609,172.16.10.65,5000,1073725440,143380,0,1048320,1049800,6,6,4,1448,31907,1,16778208,1951,1049800,1046904,1049800,0,137560,0,1126
o,0x01683524,1556708614.565392,172.16.11.67,21609,172.16.10.65,5000,1073725440,143380,0,1048320,1049800,6,6,4,1448,31907,1,16778208,1951,1049800,1046904,1049800,0,139008,0,1126
o,0xa01c8d64,1556708614.565396,172.16.11.67,21609,172.16.10.65,5000,1073725440,143380,0,1048320,1049800,6,6,4,1448,31907,1,16778208,1951,1049800,1046904,1049800,0,140456,0,1126
o,0xb63efde4,1556708614.565399,172.16.11.67,21609,172.16.10.65,5000,1073725440,143380,0,1048320,1049800,6,6,4,1448,31907,1,16778208,1951,1049800,1046904,1049800,0,141904,0,1126
i,0x0ba2b9fc,1556708614.612386,172.16.11.67,21609,172.16.10.65,5000,1073725440,143380,0,1048320,1049800,6,6,4,1448,31907,1,16778208,1951,1049800,1049800,1049800,0,143352,0,1126
o,0xc0cb6505,1556708614.612389,172.16.11.67,21609,172.16.10.65,5000,1073725440,146276,0,1048320,1049800,6,6,4,1448,32607,1,16778208,1960,1049800,1046904,1049800,0,140456,0,1173
o,0xb8cabd64,1556708614.612392,172.16.11.67,21609,172.16.10.65,5000,1073725440,146276,0,1048320,1049800,6,6,4,1448,32607,1,16778208,1960,1049800,1046904,1049800,0,141904,0,1173
o,0x928901c5,1556708614.612396,172.16.11.67,21609,172.16.10.65,5000,1073725440,146276,0,1048320,1049800,6,6,4,1448,32607,1,16778208,1960,1049800,1046904,1049800,0,143352,0,1173
o,0x409fe745,1556708614.612399,172.16.11.67,21609,172.16.10.65,5000,1073725440,146276,0,1048320,1049800,6,6,4,1448,32607,1,16778208,1960,1049800,1046904,1049800,0,144800,0,1173
i,0x04eb3e9b,1556708614.659386,172.16.11.67,21609,172.16.10.65,5000,1073725440,146276,0,1048320,1049800,6,6,4,1448,32607,1,16778208,1960,1049800,1047880,1049800,0,146248,0,1173
o,0xbe5553a4,1556708614.659390,172.16.11.67,21609,172.16.10.65,5000,1073725440,149172,0,1048320,1049800,6,6,4,1448,33408,1,16778208,2000,1049800,1044984,1049800,0,143352,0,1173
o,0xb87ddb24,1556708614.659394,172.16.11.67,21609,172.16.10.65,5000,1073725440,149172,0,1048320,1049800,6,6,4,1448,33408,1,16778208,2000,1049800,1044984,1049800,0,144800,0,1173
o,0x49631485,1556708614.659397,172.16.11.67,21609,172.16.10.65,5000,1073725440,149172,0,1048320,1049800,6,6,4,1448,33408,1,16778208,2000,1049800,1044984,1049800,0,146248,0,1173
o,0x8a3b77e4,1556708614.659400,172.16.11.67,21609,172.16.10.65,5000,1073725440,149172,0,1048320,1049800,6,6,4,1448,33408,1,16778208,2000,1049800,1044984,1049800,0,147696,0,1173
i,0x69c8669b,1556708614.706386,172.16.11.67,21609,172.16.10.65,5000,1073725440,149172,0,1048320,1049800,6,6,4,1448,33408,1,16778208,2000,1049800,1049800,1049800,0,149144,0,1173
o,0x74099064,1556708614.706389,172.16.11.67,21609,172.16.10.65,5000,1073725440,152068,0,1048320,1049800,6,6,4,1448,34108,1,16778208,2008,1049800,1046904,1049800,0,146248,0,1220
o,0x8a2c00e4,1556708614.706392,172.16.11.67,21609,172.16.10.65,5000,1073725440,152068,0,1048320,1049800,6,6,4,1448,34108,1,16778208,2008,1049800,1046904,1049800,0,147696,0,1220
o,0x74f1fb24,1556708614.706396,172.16.11.67,21609,172.16.10.65,5000,1073725440,152068,0,1048320,1049800,6,6,4,1448,34108,1,16778208,2008,1049800,1046904,1049800,0,149144,0,1220
o,0x41158aa4,1556708614.706399,172.16.11.67,21609,172.16.10.65,5000,1073725440,152068,0,1048320,1049800,6,6,4,1448,34108,1,16778208,2008,1049800,1046904,1049800,0,150592,0,1220
