#enable_time_secs=1556708767	enable_time_usecs=884575	siftrver=1.2.4	hz=1000	tcp_rtt_scale=32	sysname=FreeBSD	sysver=1001000	ipmode=4
o,0x65245e9c,1556708767.884592,10.1.1.67,22,10.1.1.11,23302,4464,5792,0,66560,66608,6,6,4,1448,157,1,16778212,230,33304,208,66608,0,156,0,1
o,0x4191333e,1556708767.884599,10.1.1.67,22,10.1.1.11,23302,4464,5792,0,66560,66608,6,6,4,1448,157,1,16778212,230,33304,260,66608,0,208,0,1
i,0xe13c99ab,1556708767.884808,10.1.1.67,22,10.1.1.11,23302,4464,5792,0,66560,66608,6,6,4,1448,157,1,16778212,230,33304,260,66608,0,260,0,1
o,0x89a8cef5,1556708767.884814,10.1.1.67,22,10.1.1.11,23302,4464,5792,0,66496,66608,6,6,4,1448,166,1,16778212,230,33304,140,66608,0,104,0,2
i,0x12f7532b,1556708767.884815,10.1.1.67,22,10.1.1.11,23302,4464,5792,0,66496,66608,6,6,4,1448,166,1,16778212,230,33304,140,66608,0,140,0,2
o,0x04b4b38c,1556708767.884962,10.1.1.67,22,10.1.1.11,23302,4464,5792,0,66432,66608,6,6,4,1448,146,1,16778212,230,33304,140,66608,0,36,0,1
i,0xab7d252b,1556708767.885220,10.1.1.67,22,10.1.1.11,23302,4464,5792,0,66432,66608,6,6,4,1448,146,1,16778212,230,33304,140,66608,0,140,0,1
i,0xd94f6b13,1556708767.885524,10.1.1.67,22,10.1.1.11,23302,4464,5792,0,66496,66608,6,6,4,1448,128,1,996,230,33304,0,66608,0,0,0,1
i,0x29a01476,1556708767.899942,10.1.1.67,22,10.1.1.11,23302,4464,5792,0,66560,66608,6,6,4,1448,128,1,996,230,33304,0,66608,0,0,0,1
o,0x18bb8dab,1556708767.899947,10.1.1.67,22,10.1.1.11,23302,4464,5792,0,66560,66608,6,6,5,1448,128,1,997,230,33304,0,66608,36,0,0,1
o,0x264e862b,1556708767.900075,10.1.1.67,22,10.1.1.11,23302,4464,5792,0,66560,66608,6,6,8,1448,128,1,996,230,33304,0,0,0,0,0,1
i,0x7b0c6e2b,1556708767.900344,10.1.1.67,22,10.1.1.11,23302,4464,5792,0,66560,66608,6,6,8,1448,128,1,1012,230,33304,0,0,0,1,0,1
i,0xec1b430a,1556708768.003504,10.1.1.67,22,10.1.1.11,36569,4464,14480,0,66560,66608,6,6,4,1448,157,1,16778208,230,33304,0,66608,0,0,0,0
o,0x83aee60b,1556708768.007518,10.1.1.67,22,10.1.1.11,36569,4464,14480,0,66560,66608,6,6,4,1448,157,1,16778208,230,33304,49,66608,25,0,0,0
o,0x748cb4e9,1556708768.008002,10.1.1.67,22,10.1.1.11,36569,4464,14480,0,66560,66608,6,6,4,1448,157,1,16778208,230,33304,1697,66608,0,49,0,0
i,0xf88e1e87,1556708768.008046,10.1.1.67,22,10.1.1.11,36569,4464,14480,0,66560,66608,6,6,4,1448,157,1,16778208,230,33304,1697,66608,0,1497,0,0
o,0x43e34c66,1556708768.113810,10.1.1.67,22,10.1.1.11,36569,4464,13032,0,66560,66608,6,6,4,1448,142,1,16778209,230,33304,1648,66608,0,1448,0,2
i,0x2c0269ea,1556708768.114070,10.1.1.67,22,10.1.1.11,36569,4464,13032,0,66560,66608,6,6,4,1448,142,1,16778208,230,33304,1648,66608,0,1648,0,2
i,0x2ed7243c,1556708768.126096,10.1.1.67,22,10.1.1.11,36569,4464,11584,0,66368,66608,6,6,4,1448,549,1,992,335,33304,0,66608,0,0,0,1
o,0xeb825443,1556708768.128043,10.1.1.67,22,10.1.1.11,36569,4464,11584,0,66560,66608,6,6,4,1448,549,1,16778208,335,33304,848,66608,0,0,0,1
i,0xac8e231a,1556708768.143858,10.1.1.67,22,10.1.1.11,36569,4464,11584,0,66560,66608,6,6,4,1448,549,1,16778208,335,33304,848,66608,0,848,0,1
o,0x10a03a09,1556708768.249821,10.1.1.67,22,10.1.1.11,36569,4464,10136,0,66560,66608,6,6,4,1448,545,1,993,307,33304,0,66608,0,0,0,17
i,0xc9866e9e,1556708768.250069,10.1.1.67,22,10.1.1.11,36569,4464,10136,0,66560,66608,6,6,4,1448,545,1,992,307,33304,0,66608,0,0,0,17
o,0xf15aaadb,1556708768.250089,10.1.1.67,22,10.1.1.11,36569,4464,10136,0,66560,66608,6,6,4,1448,545,1,16778208,307,33304,52,66608,0,0,0,17
i,0xde3a8916,1556708768.285159,10.1.1.67,22,10.1.1.11,36569,4464,10136,0,66560,66608,6,6,4,1448,545,1,16778208,307,33304,52,66608,0,52,0,17
o,0x57022242,1556708768.288467,10.1.1.67,22,10.1.1.11,36569,4464,8688,0,66560,66608,6,6,4,1448,617,1,16778208,305,33304,68,66608,0,0,0,36
i,0x5617a139,1556708768.297521,10.1.1.67,22,10.1.1.11,36569,4464,8688,0,66560,66608,6,6,4,1448,617,1,16778208,305,33304,68,66608,0,68,0,36
o,0xde6d4b79,1556708768.297533,10.1.1.67,22,10.1.1.11,36569,4464,7240,0,66560,66608,6,6,4,1448,576,1,16778208,292,33304,52,66608,0,0,0,10
i,0x64f99cec,1556708768.298074,10.1.1.67,22,10.1.1.11,36569,4464,7240,0,66560,66608,6,6,4,1448,576,1,16778208,292,33304,52,66608,0,52,0,10
o,0xa28247e7,1556708768.298114,10.1.1.67,22,10.1.1.11,36569,4464,5792,0,66560,66608,6,6,4,1448,508,1,16778208,289,33304,68,66608,0,0,0,2
i,0xded1ea3c,1556708768.317601,10.1.1.67,22,10.1.1.11,36569,4464,5792,0,66560,66608,6,6,4,1448,508,1,16778208,289,33304,68,66608,0,68,0,2
o,0x3cc0f35b,1556708768.317612,10.1.1.67,22,10.1.1.11,36569,4464,5792,0,66560,66608,6,6,4,1448,525,1,16778208,275,33304,52,66608,0,0,0,21
i,0xe1081115,1556708768.318088,10.1.1.67,22,10.1.1.11,36569,4464,5792,0,66560,66608,6,6,4,1448,525,1,16778208,275,33304,52,66608,0,52,0,21
o,0x41908e2f,1556708768.318541,10.1.1.67,22,10.1.1.11,36569,4464,5792,0,66560,66608,6,6,4,1448,460,1,16778208,275,33304,100,66608,0,0,0,1
i,0xb9d0ea1d,1556708768.319004,10.1.1.67,22,10.1.1.11,36569,4464,5792,0,66560,66608,6,6,4,1448,460,1,16778208,275,33304,100,66608,0,100,0,1
o,0x930635fa,1556708768.322392,10.1.1.67,22,10.1.1.11,36569,4464,5792,0,66560,66608,6,6,4,1448,407,1,16778208,271,33304,52,66608,0,0,0,2
i,0xb7f6f354,1556708768.322806,10.1.1.67,22,10.1.1.11,36569,4464,5792,0,66560,66608,6,6,4,1448,407,1,16778208,271,33304,52,66608,0,52,0,2
o,0x3d3e9515,1556708768.322849,10.1.1.67,22,10.1.1.11,36569,4464,5792,0,66560,66608,6,6,4,1448,361,1,16778208,267,33304,36,66608,0,0,0,2
i,0x87b06d60,1556708768.337733,10.1.1.67,22,10.1.1.11,36569,4464,5792,0,66560,66608,6,6,4,1448,361,1,16778208,267,33304,36,66608,0,36,0,2
o,0x2de4a4b9,1556708768.337778,10.1.1.67,22,10.1.1.11,36569,4464,5792,0,66560,66608,6,6,4,1448,376,1,16778208,257,33304,52,66608,0,0,0,16
i,0x42796d2c,1556708768.357643,10.1.1.67,22,10.1.1.11,36569,4464,5792,0,66560,66608,6,6,4,1448,376,1,16778208,257,33304,52,66608,0,52,0,16
o,0x487f73d4,1556708768.357738,10.1.1.67,22,10.1.1.11,36569,4464,5792,0,66560,66608,6,6,4,1448,409,1,16778208,255,33304,36,66608,0,0,0,21
i,0x4d36296b,1556708768.358345,10.1.1.67,22,10.1.1.11,36569,4464,5792,0,66560,66608,6,6,4,1448,409,1,16778208,255,33304,36,66608,0,36,0,21
o,0xdb69f4e7,1556708768.358559,10.1.1.67,22,10.1.1.11,36569,4464,5792,0,66560,66608,6,6,4,1448,358,1,16778212,256,33304,88,66608,0,0,0,1
o,0xc1c8e67a,1556708768.364119,10.1.1.67,22,10.1.1.11,36569,4464,5792,0,66560,66608,6,6,4,1448,358,1,16778212,256,33304,140,66608,0,88,0,1
i,0x9f7aed2a,1556708768.364373,10.1.1.67,22,10.1.1.11,36569,4464,5792,0,66560,66608,6,6,4,1448,358,1,16778212,256,33304,140,66608,0,140,0,1
o,0xa2ebcfc6,1556708768.366010,10.1.1.67,22,10.1.1.11,36569,4464,5792,0,66496,66608,6,6,4,1448,334,1,16778212,250,33304,132,66608,0,0,0,1
o,0xdb2fa8ab,1556708768.366020,10.1.1.67,22,10.1.1.11,36569,4464,5792,0,66496,66608,6,6,4,1448,334,1,16778212,250,33304,216,66608,0,132,0,1
i,0x88fb2a4b,1556708768.366286,10.1.1.67,22,10.1.1.11,36569,4464,5792,0,66496,66608,6,6,4,1448,334,1,16778212,250,33304,216,66608,0,216,0,1
o,0x8e7ea140,1556708768.470891,10.1.1.67,22,10.1.1.11,36569,4464,5792,0,66368,66608,6,6,4,1448,293,1,16778212,249,33304,52,66608,0,0,0,1
o,0x31c990f6,1556708768.471276,10.1.1.67,22,10.1.1.11,36569,4464,5792,0,66368,66608,6,6,4,1448,293,1,16778212,249,33304,192,66608,0,52,0,1
i,0x8fa3892a,1556708768.471539,10.1.1.67,22,10.1.1.11,36569,4464,5792,0,66368,66608,6,6,4,1448,293,1,16778212,249,33304,192,66608,0,192,0,1
i,0x56a908f4,1556708768.471970,10.1.1.67,22,10.1.1.11,36569,4464,5792,0,66432,66608,6,6,4,1448,257,1,996,247,33304,0,66608,0,0,0,1
o,0xa242102a,1556708768.575813,10.1.1.67,22,10.1.1.11,36569,4464,5792,0,66560,66608,6,6,4,1448,257,1,997,247,33304,0,66608,0,0,0,1
i,0xe28fec30,1556708768.576076,10.1.1.67,22,10.1.1.11,36569,4464,5792,0,66560,66608,6,6,4,1448,257,1,996,247,33304,0,66608,0,0,0,1
o,0x6b4206dc,1556708768.576120,10.1.1.67,22,10.1.1.11,36569,4464,5792,0,66560,66608,6,6,4,1448,257,1,16778212,247,33304,52,66608,0,0,0,1
i,0x99c0bf70,1556708768.577562,10.1.1.67,22,10.1.1.11,36569,4464,5792,0,66560,66608,6,6,4,1448,257,1,16778212,247,33304,52,66608,0,52,0,1
o,0x679e2b07,1556708768.577766,10.1.1.67,22,10.1.1.11,36569,4464,5792,0,66560,66608,6,6,4,1448,233,1,16778212,242,33304,88,66608,0,0,0,1
o,0xd07b02f5,1556708768.583443,10.1.1.67,22,10.1.1.11,36569,4464,5792,0,66560,66608,6,6,4,1448,233,1,16778212,242,33304,124,66608,0,88,0,1
o,0xd4759cac,1556708768.583501,10.1.1.67,22,10.1.1.11,36569,4464,5792,0,66560,66608,6,6,4,1448,233,1,16778212,242,33304,228,66608,0,124,0,1
i,0xbb19dcea,1556708768.583708,10.1.1.67,22,10.1.1.11,36569,4464,5792,0,66560,66608,6,6,4,1448,233,1,16778212,242,33304,228,66608,0,228,0,1
i,0xe91e1415,1556708768.584076,10.1.1.67,22,10.1.1.11,36569,4464,5792,0,66560,66608,6,6,4,1448,228,1,996,235,33304,104,66608,0,104,0,2
i,0x77a33773,1556708768.598989,10.1.1.67,22,10.1.1.11,36569,4464,5792,0,66560,66608,6,6,4,1448,204,1,996,233,33304,0,66608,0,0,0,2
o,0xccd4c8ea,1556708768.598993,10.1.1.67,22,10.1.1.11,36569,4464,5792,0,66560,66608,6,6,5,1448,204,1,997,233,33304,0,66608,36,0,0,2
o,0xda67c16a,1556708768.599118,10.1.1.67,22,10.1.1.11,36569,4464,5792,0,66560,66608,6,6,8,1448,204,1,996,233,33304,0,0,0,0,0,2
i,0x0095b1ea,1556708768.599390,10.1.1.67,22,10.1.1.11,36569,4464,5792,0,66560,66608,6,6,8,1448,204,1,1012,233,33304,0,0,0,1,0,2
i,0x74eb1062,1556708769.628406,10.1.1.67,22,10.1.1.11,18983,4464,5792,0,66560,66608,6,6,4,1448,160,1,996,230,33304,0,66608,0,0,0,1
o,0x91ac7020,1556708769.628442,10.1.1.67,22,10.1.1.11,18983,4464,5792,0,66560,66608,6,6,4,1448,160,1,16778212,230,33304,52,66608,0,0,0,1
i,0xb080a16e,1556708769.647541,10.1.1.67,22,10.1.1.11,18983,4464,5792,0,66560,66608,6,6,4,1448,160,1,16778212,230,33304,52,66608,0,52,0,1
o,0x7a7b92b1,1556708769.647630,10.1.1.67,22,10.1.1.11,18983,4464,5792,0,66560,66608,6,6,4,1448,216,1,16778212,239,33304,36,66608,0,0,0,20
i,0x662e391b,1556708769.648223,10.1.1.67,22,10.1.1.11,18983,4464,5792,0,66560,66608,6,6,4,1448,216,1,16778212,239,33304,36,66608,0,36,0,20
o,0xd1b64fe9,1556708769.648441,10.1.1.67,22,10.1.1.11,18983,4464,5792,0,66560,66608,6,6,4,1448,189,1,16778212,236,33304,88,66608,0,0,0,1
o,0xf3300139,1556708769.653965,10.1.1.67,22,10.1.1.11,18983,4464,5792,0,66560,66608,6,6,4,1448,189,1,16778212,236,33304,140,66608,0,88,0,1
i,0x68080a2a,1556708769.654237,10.1.1.67,22,10.1.1.11,18983,4464,5792,0,66560,66608,6,6,4,1448,189,1,16778212,236,33304,140,66608,0,140,0,1
o,0x53fe229e,1556708769.760883,10.1.1.67,22,10.1.1.11,18983,4464,5792,0,66496,66608,6,6,4,1448,190,1,16778212,230,33304,52,66608,0,0,0,1
o,0x668d1c99,1556708769.761235,10.1.1.67,22,10.1.1.11,18983,4464,5792,0,66496,66608,6,6,4,1448,190,1,16778212,230,33304,192,66608,0,52,0,1
i,0xe87abcaa,1556708769.761494,10.1.1.67,22,10.1.1.11,18983,4464,5792,0,66496,66608,6,6,4,1448,190,1,16778212,230,33304,192,66608,0,192,0,1
i,0xdfd9c476,1556708769.761868,10.1.1.67,22,10.1.1.11,18983,4464,5792,0,66432,66608,6,6,4,1448,167,1,996,230,33304,0,66608,0,0,0,1
o,0x900d17aa,1556708769.867810,10.1.1.67,22,10.1.1.11,18983,4464,5792,0,66560,66608,6,6,4,1448,167,1,997,230,33304,0,66608,0,0,0,1
i,0x091d97b0,1556708769.868071,10.1.1.67,22,10.1.1.11,18983,4464,5792,0,66560,66608,6,6,4,1448,167,1,996,230,33304,0,66608,0,0,0,1
o,0x5630d77b,1556708769.868106,10.1.1.67,22,10.1.1.11,18983,4464,5792,0,66560,66608,6,6,4,1448,167,1,16778212,230,33304,52,66608,0,0,0,1
i,0x38096409,1556708769.897542,10.1.1.67,22,10.1.1.11,18983,4464,5792,0,66560,66608,6,6,4,1448,167,1,16778212,230,33304,52,66608,0,52,0,1
o,0x967dbb05,1556708769.897755,10.1.1.67,22,10.1.1.11,18983,4464,5792,0,66560,66608,6,6,4,1448,263,1,16778212,249,33304,88,66608,0,0,0,1
o,0x0ab80bd6,1556708769.903395,10.1.1.67,22,10.1.1.11,18983,4464,5792,0,66560,66608,6,6,4,1448,263,1,16778212,249,33304,124,66608,0,88,0,1
o,0xc77e2650,1556708769.903461,10.1.1.67,22,10.1.1.11,18983,4464,5792,0,66560,66608,6,6,4,1448,263,1,16778212,249,33304,228,66608,0,124,0,1
i,0xff11f02a,1556708769.903658,10.1.1.67,22,10.1.1.11,18983,4464,5792,0,66560,66608,6,6,4,1448,263,1,16778212,249,33304,228,66608,0,228,0,1
i,0xcdf33377,1556708769.904065,10.1.1.67,22,10.1.1.11,18983,4464,5792,0,66560,66608,6,6,4,1448,255,1,996,241,33304,104,66608,0,104,0,2
o,0x1a435a0b,1556708770.009808,10.1.1.67,22,10.1.1.11,18983,4464,5792,0,66560,66608,6,6,4,1448,228,1,997,239,33304,0,66608,0,0,0,2
i,0x5b34e5d0,1556708770.010067,10.1.1.67,22,10.1.1.11,18983,4464,5792,0,66560,66608,6,6,4,1448,228,1,996,239,33304,0,66608,0,0,0,2
o,0x99ad1279,1556708770.010104,10.1.1.67,22,10.1.1.11,18983,4464,5792,0,66560,66608,6,6,4,1448,228,1,16778212,239,33304,52,66608,0,0,0,2
i,0xaf9f0089,1556708770.032566,10.1.1.67,22,10.1.1.11,18983,4464,5792,0,66560,66608,6,6,4,1448,228,1,16778212,239,33304,52,66608,0,52,0,2
o,0xc5b1adb5,1556708770.032650,10.1.1.67,22,10.1.1.11,18983,4464,5792,0,66560,66608,6,6,4,1448,292,1,16778212,249,33304,36,66608,0,0,0,24
i,0x96ae75cc,1556708770.033554,10.1.1.67,22,10.1.1.11,18983,4464,5792,0,66560,66608,6,6,4,1448,292,1,16778212,249,33304,36,66608,0,36,0,24
o,0x45502fcb,1556708770.033750,10.1.1.67,22,10.1.1.11,18983,4464,5792,0,66560,66608,6,6,4,1448,260,1,16778212,246,33304,88,66608,0,0,0,2
o,0x926b99da,1556708770.039175,10.1.1.67,22,10.1.1.11,18983,4464,5792,0,66560,66608,6,6,4,1448,260,1,16778212,246,33304,140,66608,0,88,0,2
i,0x3ab28ccb,1556708770.039446,10.1.1.67,22,10.1.1.11,18983,4464,5792,0,66560,66608,6,6,4,1448,260,1,16778212,246,33304,140,66608,0,140,0,2
o,0x5a11bebb,1556708770.139710,10.1.1.67,22,10.1.1.11,18983,4464,5792,0,66496,66608,6,6,4,1448,248,1,16778212,239,33304,52,66608,0,0,0,1
o,0xcec1ed37,1556708770.140048,10.1.1.67,22,10.1.1.11,18983,4464,5792,0,66496,66608,6,6,4,1448,248,1,16778212,239,33304,192,66608,0,52,0,1
i,0x55ab3c0b,1556708770.140311,10.1.1.67,22,10.1.1.11,18983,4464,5792,0,66496,66608,6,6,4,1448,248,1,16778212,239,33304,192,66608,0,192,0,1
i,0x96502612,1556708770.140679,10.1.1.67,22,10.1.1.11,18983,4464,5792,0,66432,66608,6,6,4,1448,217,1,996,238,33304,0,66608,0,0,0,1
o,0xcd4fd32c,1556708770.240638,10.1.1.67,22,10.1.1.11,18983,4464,5792,0,66560,66608,6,6,4,1448,217,1,997,238,33304,0,66608,0,0,0,1
i,0x0edb232c,1556708770.240908,10.1.1.67,22,10.1.1.11,18983,4464,5792,0,66560,66608,6,6,4,1448,217,1,996,238,33304,0,66608,0,0,0,1
o,0x8b637201,1556708770.240948,10.1.1.67,22,10.1.1.11,18983,4464,5792,0,66560,66608,6,6,4,1448,217,1,16778212,238,33304,52,66608,0,0,0,1
i,0x6e5cf22c,1556708770.267531,10.1.1.67,22,10.1.1.11,18983,4464,5792,0,66560,66608,6,6,4,1448,217,1,16778212,238,33304,52,66608,0,52,0,1
o,0x96187de2,1556708770.267738,10.1.1.67,22,10.1.1.11,18983,4464,5792,0,66560,66608,6,6,4,1448,294,1,16778212,252,33304,88,66608,0,0,0,1
o,0x1a411253,1556708770.273334,10.1.1.67,22,10.1.1.11,18983,4464,5792,0,66560,66608,6,6,4,1448,294,1,16778212,252,33304,124,66608,0,88,0,1
o,0x78da84d1,1556708770.273398,10.1.1.67,22,10.1.1.11,18983,4464,5792,0,66560,66608,6,6,4,1448,294,1,16778212,252,33304,228,66608,0,124,0,1
i,0x550e8b6a,1556708770.273594,10.1.1.67,22,10.1.1.11,18983,4464,5792,0,66560,66608,6,6,4,1448,294,1,16778212,252,33304,228,66608,0,228,0,1
i,0x8bd4d134,1556708770.273981,10.1.1.67,22,10.1.1.11,18983,4464,5792,0,66560,66608,6,6,4,1448,282,1,996,244,33304,104,66608,0,104,0,2
o,0x2496010b,1556708770.379809,10.1.1.67,22,10.1.1.11,18983,4464,5792,0,66560,66608,6,6,4,1448,251,1,997,242,33304,0,66608,0,0,0,2
i,0xefa82076,1556708770.380066,10.1.1.67,22,10.1.1.11,18983,4464,5792,0,66560,66608,6,6,4,1448,251,1,996,242,33304,0,66608,0,0,0,2
o,0x19364fac,1556708770.485808,10.1.1.67,22,10.1.1.11,18983,4464,5792,0,66560,66608,6,6,4,1448,251,1,997,242,33304,0,66608,0,0,0,2
#o,0xbb33b436,1556708774.678098,172.16.11.67,48389,172.16.10.65,5000,1073725440,1073725440,0,0,0,0,0,2,536,0,1,672,3000,1048576,0,1048576,0,0,0,0
#i,0x5b764f72,1556708774.719570,172.16.11.67,48389,172.16.10.65,5000,1073725440,1073725440,0,0,0,0,0,2,536,0,1,672,3000,1048576,0,1048576,0,1,0,0
o,0xbd6c4a3d,1556708774.719575,172.16.11.67,48389,172.16.10.65,5000,1073725440,14480,0,65535,1049800,6,6,4,1448,1376,1,16778209,329,1049800,0,1049800,0,0,0,0
o,0xc25363dd,1556708774.719594,172.16.11.67,48389,172.16.10.65,5000,1073725440,14480,0,65535,1049800,6,6,4,1448,1376,1,16778208,329,1049800,28,1049800,0,0,0,0
o,0xb1e24966,1556708774.719627,172.16.11.67,48389,172.16.10.65,5000,1073725440,14480,0,65535,1049800,6,6,4,1448,1376,1,16778208,329,1049800,131100,1049800,0,28,0,0
o,0x309cabe5,1556708774.719632,172.16.11.67,48389,172.16.10.65,5000,1073725440,14480,0,65535,1049800,6,6,4,1448,1376,1,16778208,329,1049800,131100,1049800,0,1476,0,0
o,0x71750f44,1556708774.719636,172.16.11.67,48389,172.16.10.65,5000,1073725440,14480,0,65535,1049800,6,6,4,1448,1376,1,16778208,329,1049800,131100,1049800,0,2924,0,0
o,0x1f8bf4c4,1556708774.719639,172.16.11.67,48389,172.16.10.65,5000,1073725440,14480,0,65535,1049800,6,6,4,1448,1376,1,16778208,329,1049800,131100,1049800,0,4372,0,0
o,0x264bd804,1556708774.719643,172.16.11.67,48389,172.16.10.65,5000,1073725440,14480,0,65535,1049800,6,6,4,1448,1376,1,16778208,329,1049800,131100,1049800,0,5820,0,0
o,0x20745f84,1556708774.719646,172.16.11.67,48389,172.16.10.65,5000,1073725440,14480,0,65535,1049800,6,6,4,1448,1376,1,16778208,329,1049800,131100,1049800,0,7268,0,0
o,0xec97ef04,1556708774.719650,172.16.11.67,48389,172.16.10.65,5000,1073725440,14480,0,65535,1049800,6,6,4,1448,1376,1,16778208,329,1049800,131100,1049800,0,8716,0,0
o,0xf231fc44,1556708774.719653,172.16.11.67,48389,172.16.10.65,5000,1073725440,14480,0,65535,1049800,6,6,4,1448,1376,1,16778208,329,1049800,131100,1049800,0,10164,0,0
o,0xa048e1c4,1556708774.719657,172.16.11.67,48389,172.16.10.65,5000,1073725440,14480,0,65535,1049800,6,6,4,1448,1376,1,16778208,329,1049800,131100,1049800,0,11612,0,0
i,0x2f1d359c,1556708774.761567,172.16.11.67,48389,172.16.10.65,5000,1073725440,14480,0,65535,1049800,6,6,4,1448,1376,1,16778208,329,1049800,1048604,1049800,0,13060,0,0
i,0x15d093dc,1556708774.786568,172.16.11.67,48389,172.16.10.65,5000,1073725440,14480,0,1049792,1049800,6,6,4,1448,1376,1,16778208,329,1049800,1048604,1049800,0,13060,0,0
o,0x93b74944,1556708774.786572,172.16.11.67,48389,172.16.10.65,5000,1073725440,14480,0,1048320,1049800,6,6,4,1448,1472,1,16778208,334,1049800,1047128,1049800,0,11584,0,68
o,0xb9bb99a3,1556708774.786576,172.16.11.67,48389,172.16.10.65,5000,1073725440,14480,0,1048320,1049800,6,6,4,1448,1472,1,16778208,334,1049800,1047128,1049800,0,13032,0,68
i,0x0f19187b,1556708774.833566,172.16.11.67,48389,172.16.10.65,5000,1073725440,14480,0,1048320,1049800,6,6,4,1448,1472,1,16778208,334,1049800,1049800,1049800,0,14480,0,68
o,0x964308c4,1556708774.833570,172.16.11.67,48389,172.16.10.65,5000,1073725440,14480,0,1048320,1049800,6,6,4,1448,1744,1,16778208,389,1049800,1046904,1049800,0,11584,0,115
o,0x70014d25,1556708774.833574,172.16.11.67,48389,172.16.10.65,5000,1073725440,14480,0,1048320,1049800,6,6,4,1448,1744,1,16778208,389,1049800,1046904,1049800,0,13032,0,115
i,0xcd2901fb,1556708774.880567,172.16.11.67,48389,172.16.10.65,5000,1073725440,14480,0,1048320,1049800,6,6,4,1448,1744,1,16778208,389,1049800,1049800,1049800,0,14480,0,115
o,0x85ab2e84,1556708774.880570,172.16.11.67,48389,172.16.10.65,5000,1073725440,14480,0,1048320,1049800,6,6,4,1448,2170,1,16778208,475,1049800,1046904,1049800,0,11584,0,162
o,0x9bcd9f04,1556708774.880574,172.16.11.67,48389,172.16.10.65,5000,1073725440,14480,0,1048320,1049800,6,6,4,1448,2170,1,16778208,475,1049800,1046904,1049800,0,13032,0,162
i,0xb6ae2e3b,1556708774.927566,172.16.11.67,48389,172.16.10.65,5000,1073725440,14480,0,1048320,1049800,6,6,4,1448,2170,1,16778208,475,1049800,1049800,1049800,0,14480,0,162
o,0xbce2dda5,1556708774.927569,172.16.11.67,48389,172.16.10.65,5000,1073725440,14480,0,1048320,1049800,6,6,4,1448,2731,1,16778208,581,1049800,1046904,1049800,0,11584,0,209
o,0xb4e23604,1556708774.927573,172.16.11.67,48389,172.16.10.65,5000,1073725440,14480,0,1048320,1049800,6,6,4,1448,2731,1,16778208,581,1049800,1046904,1049800,0,13032,0,209
i,0x7da5369c,1556708774.973567,172.16.11.67,48389,172.16.10.65,5000,1073725440,14480,0,1048320,1049800,6,6,4,1448,2731,1,16778208,581,1049800,1049800,1049800,0,14480,0,209
o,0xbd81c684,1556708774.973570,172.16.11.67,48389,172.16.10.65,5000,1073725440,14480,0,1048320,1049800,6,6,4,1448,3406,1,16778208,697,1049800,1046904,1049800,0,11584,0,255
o,0x305a55e5,1556708774.973574,172.16.11.67,48389,172.16.10.65,5000,1073725440,14480,0,1048320,1049800,6,6,4,1448,3406,1,16778208,697,1049800,1046904,1049800,0,13032,0,255
i,0xbb3c01fb,1556708775.020570,172.16.11.67,48389,172.16.10.65,5000,1073725440,14480,0,1048320,1049800,6,6,4,1448,3406,1,16778208,697,1049800,1049800,1049800,0,14480,0,255
o,0xae0fc244,1556708775.020573,172.16.11.67,48389,172.16.10.65,5000,13032,13032,0,1048320,1049800,6,6,4,1448,3917,1,16778208,743,1049800,1046904,1049800,0,11584,0,235
i,0xba675f7b,1556708775.067567,172.16.11.67,48389,172.16.10.65,5000,13032,13032,0,1048320,1049800,6,6,4,1448,3917,1,16778208,743,1049800,1049800,1049800,0,13032,0,235
o,0xe3ef7cc4,1556708775.067570,172.16.11.67,48389,172.16.10.65,5000,13032,13032,0,1048320,1049800,6,6,4,1448,4364,1,16778208,763,1049800,1046904,1049800,0,10136,0,235
o,0xb0130c44,1556708775.067574,172.16.11.67,48389,172.16.10.65,5000,13032,13032,0,1048320,1049800,6,6,4,1448,4364,1,16778208,763,1049800,1046904,1049800,0,11584,0,235
i,0xe40bec5c,1556708775.114570,172.16.11.67,48389,172.16.10.65,5000,13032,13032,0,1048320,1049800,6,6,4,1448,4364,1,16778208,763,1049800,1049800,1049800,0,13032,0,235
o,0x014f4f44,1556708775.114573,172.16.11.67,48389,172.16.10.65,5000,13032,13032,0,1048320,1049800,6,6,4,1448,4755,1,16778208,767,1049800,1046904,1049800,0,10136,0,235
o,0xaf6634c4,1556708775.114576,172.16.11.67,48389,172.16.10.65,5000,13032,13032,0,1048320,1049800,6,6,4,1448,4755,1,16778208,767,1049800,1046904,1049800,0,11584,0,235
i,0x7515bdfa,1556708775.161568,172.16.11.67,48389,172.16.10.65,5000,13032,13032,0,1048320,1049800,6,6,4,1448,4755,1,16778208,767,1049800,1049800,1049800,0,13032,0,235
o,0x013fd844,1556708775.161571,172.16.11.67,48389,172.16.10.65,5000,13032,13032,0,1048320,1049800,6,6,4,1448,5097,1,16778208,758,1049800,1046904,1049800,0,10136,0,235
o,0xec05d284,1556708775.161575,172.16.11.67,48389,172.16.10.65,5000,13032,13032,0,1048320,1049800,6,6,4,1448,5097,1,16778208,758,1049800,1046904,1049800,0,11584,0,235
i,0x07c531ba,1556708775.208568,172.16.11.67,48389,172.16.10.65,5000,13032,13032,0,1048320,1049800,6,6,4,1448,5097,1,16778208,758,1049800,1049800,1049800,0,13032,0,235
o,0x37c13466,1556708775.208571,172.16.11.67,48389,172.16.10.65,5000,13032,13032,0,1048320,1049800,6,6,4,1448,5400,1,16778208,744,1049800,1046904,1049800,0,10136,0,236
o,0x4cbdcee6,1556708775.208575,172.16.11.67,48389,172.16.10.65,5000,13032,13032,0,1048320,1049800,6,6,4,1448,5400,1,16778208,744,1049800,1046904,1049800,0,11584,0,236
i,0x3169be9b,1556708775.255567,172.16.11.67,48389,172.16.10.65,5000,13032,13032,0,1048320,1049800,6,6,4,1448,5400,1,16778208,744,1049800,1049800,1049800,0,13032,0,236
o,0x6267b045,1556708775.255570,172.16.11.67,48389,172.16.10.65,5000,11584,11584,0,1048320,1049800,6,6,4,1448,5665,1,16778208,725,1049800,1046904,1049800,0,10136,0,189
i,0x30951cfa,1556708775.302569,172.16.11.67,48389,172.16.10.65,5000,11584,11584,0,1048320,1049800,6,6,4,1448,5665,1,16778208,725,1049800,1049800,1049800,0,11584,0,189
o,0xb44153c5,1556708775.302572,172.16.11.67,48389,172.16.10.65,5000,11584,11584,0,1048320,1049800,6,6,4,1448,5897,1,16778208,703,1049800,1046904,1049800,0,8688,0,189
o,0xae69db45,1556708775.302576,172.16.11.67,48389,172.16.10.65,5000,11584,11584,0,1048320,1049800,6,6,4,1448,5897,1,16778208,703,1049800,1046904,1049800,0,10136,0,189
i,0xd2f5cfba,1556708775.348569,172.16.11.67,48389,172.16.10.65,5000,11584,11584,0,1048320,1049800,6,6,4,1448,5897,1,16778208,703,1049800,1049800,1049800,0,11584,0,189
o,0x7e91a484,1556708775.348571,172.16.11.67,48389,172.16.10.65,5000,11584,11584,0,1048320,1049800,6,6,4,1448,6096,1,16778208,679,1049800,1046904,1049800,0,8688,0,188
o,0x938e3f04,1556708775.348575,172.16.11.67,48389,172.16.10.65,5000,11584,11584,0,1048320,1049800,6,6,4,1448,6096,1,16778208,679,1049800,1046904,1049800,0,10136,0,188
i,0x18855a5c,1556708775.395568,172.16.11.67,48389,172.16.10.65,5000,11584,11584,0,1048320,1049800,6,6,4,1448,6096,1,16778208,679,1049800,1049800,1049800,0,11584,0,188
o,0x7d5c5784,1556708775.395571,172.16.11.67,48389,172.16.10.65,5000,11584,11584,0,1048320,1049800,6,6,4,1448,6270,1,16778208,656,1049800,1046904,1049800,0,8688,0,188
o,0x841c3ac4,1556708775.395575,172.16.11.67,48389,172.16.10.65,5000,11584,11584,0,1048320,1049800,6,6,4,1448,6270,1,16778208,656,1049800,1046904,1049800,0,10136,0,188
i,0x07ed605c,1556708775.442567,172.16.11.67,48389,172.16.10.65,5000,11584,11584,0,1048320,1049800,6,6,4,1448,6270,1,16778208,656,1049800,1049800,1049800,0,11584,0,188
o,0xa5317965,1556708775.442571,172.16.11.67,48389,172.16.10.65,5000,10136,10136,0,1048320,1049800,6,6,4,1448,6423,1,16778208,634,1049800,1046904,1049800,0,8688,0,188
i,0x0cfb987b,1556708775.489568,172.16.11.67,48389,172.16.10.65,5000,10136,10136,0,1048320,1049800,6,6,4,1448,6423,1,16778208,634,1049800,1049800,1049800,0,10136,0,188
o,0xd8e804c4,1556708775.489572,172.16.11.67,48389,172.16.10.65,5000,10136,10136,0,1048320,1049800,6,6,4,1448,6369,1,16778208,587,1049800,1046904,1049800,0,7240,0,188
o,0xede49f44,1556708775.489576,172.16.11.67,48389,172.16.10.65,5000,10136,10136,0,1048320,1049800,6,6,4,1448,6369,1,16778208,587,1049800,1046904,1049800,0,8688,0,188
i,0x15202d5c,1556708775.536568,172.16.11.67,48389,172.16.10.65,5000,10136,10136,0,1048320,1049800,6,6,4,1448,6369,1,16778208,587,1049800,1049800,1049800,0,10136,0,188
o,0xd7b2b7c4,1556708775.536571,172.16.11.67,48389,172.16.10.65,5000,10136,10136,0,1048320,1049800,6,6,4,1448,6325,1,16778208,550,1049800,1046904,1049800,0,7240,0,189
o,0x19b0f123,1556708775.536575,172.16.11.67,48389,172.16.10.65,5000,10136,10136,0,1048320,1049800,6,6,4,1448,6325,1,16778208,550,1049800,1046904,1049800,0,8688,0,189
i,0xd912f09c,1556708775.583568,172.16.11.67,48389,172.16.10.65,5000,10136,10136,0,1048320,1049800,6,6,4,1448,6325,1,16778208,550,1049800,1049800,1049800,0,10136,0,189
o,0x4f90aba3,1556708775.583571,172.16.11.67,48389,172.16.10.65,5000,10136,10136,0,1048320,1049800,6,6,4,1448,6287,1,16778208,520,1049800,1046904,1049800,0,7240,0,189
o,0xe075e504,1556708775.583575,172.16.11.67,48389,172.16.10.65,5000,10136,10136,0,1048320,1049800,6,6,4,1448,6287,1,16778208,520,1049800,1046904,1049800,0,8688,0,189
i,0xd83e4efb,1556708775.630567,172.16.11.67,48389,172.16.10.65,5000,10136,10136,0,1048320,1049800,6,6,4,1448,6287,1,16778208,520,1049800,1049800,1049800,0,10136,0,189
o,0x31b22804,1556708775.630570,172.16.11.67,48389,172.16.10.65,5000,8688,8688,0,1048320,1049800,6,6,4,1448,6254,1,16778208,496,1049800,1046904,1049800,0,7240,0,142
i,0xd769ad5a,1556708775.677568,172.16.11.67,48389,172.16.10.65,5000,8688,8688,0,1048320,1049800,6,6,4,1448,6254,1,16778208,496,1049800,1049800,1049800,0,8688,0,142
o,0x1b804084,1556708775.677571,172.16.11.67,48389,172.16.10.65,5000,8688,8688,0,1048320,1049800,6,6,4,1448,6225,1,16778208,478,1049800,1046904,1049800,0,5792,0,142
o,0x31a2b104,1556708775.677574,172.16.11.67,48389,172.16.10.65,5000,8688,8688,0,1048320,1049800,6,6,4,1448,6225,1,16778208,478,1049800,1046904,1049800,0,7240,0,142
i,0x9480371c,1556708775.723567,172.16.11.67,48389,172.16.10.65,5000,8688,8688,0,1048320,1049800,6,6,4,1448,6225,1,16778208,478,1049800,1049800,1049800,0,8688,0,142
o,0x367f7b84,1556708775.723570,172.16.11.67,48389,172.16.10.65,5000,8688,8688,0,1048320,1049800,6,6,4,1448,6195,1,16778208,463,1049800,1046904,1049800,0,5792,0,141
o,0x02a30b04,1556708775.723574,172.16.11.67,48389,172.16.10.65,5000,8688,8688,0,1048320,1049800,6,6,4,1448,6195,1,16778208,463,1049800,1046904,1049800,0,7240,0,141
i,0x93ab957b,1556708775.770569,172.16.11.67,48389,172.16.10.65,5000,8688,8688,0,1048320,1049800,6,6,4,1448,6195,1,16778208,463,1049800,1049800,1049800,0,8688,0,141
o,0x5356d884,1556708775.770572,172.16.11.67,48389,172.16.10.65,5000,8688,8688,0,1048320,1049800,6,6,4,1448,6169,1,16778208,452,1049800,1046904,1049800,0,5792,0,141
o,0xf20b30c4,1556708775.770576,172.16.11.67,48389,172.16.10.65,5000,8688,8688,0,1048320,1049800,6,6,4,1448,6169,1,16778208,452,1049800,1046904,1049800,0,7240,0,141
i,0x98b9ccbb,1556708775.817567,172.16.11.67,48389,172.16.10.65,5000,8688,8688,0,1048320,1049800,6,6,4,1448,6169,1,16778208,452,1049800,1049800,1049800,0,8688,0,141
o,0x43e4d444,1556708775.817570,172.16.11.67,48389,172.16.10.65,5000,8688,8688,0,1048320,1049800,6,6,4,1448,5958,1,16778208,483,1049800,1046904,1049800,0,5792,0,141
o,0x3e0d5bc4,1556708775.817574,172.16.11.67,48389,172.16.10.65,5000,8688,8688,0,1048320,1049800,6,6,4,1448,5958,1,16778208,483,1049800,1046904,1049800,0,7240,0,141
i,0xa0de627b,1556708775.864568,172.16.11.67,48389,172.16.10.65,5000,8688,8688,0,1048320,1049800,6,6,4,1448,5958,1,16778208,483,1049800,1049800,1049800,0,8688,0,141
o,0x467093c4,1556708775.864570,172.16.11.67,48389,172.16.10.65,5000,8688,8688,0,1048320,1049800,6,6,4,1448,5778,1,16778208,498,1049800,1046904,1049800,0,5792,0,142
o,0x5b6d2e44,1556708775.864574,172.16.11.67,48389,172.16.10.65,5000,8688,8688,0,1048320,1049800,6,6,4,1448,5778,1,16778208,498,1049800,1046904,1049800,0,7240,0,142
i,0x64d125bb,1556708775.911568,172.16.11.67,48389,172.16.10.65,5000,8688,8688,0,1048320,1049800,6,6,4,1448,5778,1,16778208,498,1049800,1049800,1049800,0,8688,0,142
o,0x453b46c4,1556708775.911571,172.16.11.67,48389,172.16.10.65,5000,8688,8688,0,1048320,1049800,6,6,4,1448,5620,1,16778208,503,1049800,1046904,1049800,0,5792,0,142
o,0x4bfb2a04,1556708775.911575,172.16.11.67,48389,172.16.10.65,5000,8688,8688,0,1048320,1049800,6,6,4,1448,5620,1,16778208,503,1049800,1046904,1049800,0,7240,0,142
i,0x54392bbb,1556708775.958570,172.16.11.67,48389,172.16.10.65,5000,8688,8688,0,1048320,1049800,6,6,4,1448,5620,1,16778208,503,1049800,1049800,1049800,0,8688,0,142
o,0x6d1068a5,1556708775.958572,172.16.11.67,48389,172.16.10.65,5000,8688,8688,0,1048320,1049800,6,6,4,1448,5482,1,16778208,501,1049800,1046904,1049800,0,5792,0,142
o,0x3933f825,1556708775.958576,172.16.11.67,48389,172.16.10.65,5000,8688,8688,0,1048320,1049800,6,6,4,1448,5482,1,16778208,501,1049800,1046904,1049800,0,7240,0,142
i,0xb91652dc,1556708776.005570,172.16.11.67,48389,172.16.10.65,5000,8688,8688,0,1048320,1049800,6,6,4,1448,5482,1,16778208,501,1049800,1049800,1049800,0,8688,0,142
o,0xb5c38e84,1556708776.005573,172.16.11.67,48389,172.16.10.65,5000,8688,8688,0,1048320,1049800,6,6,4,1448,5361,1,16778208,495,1049800,1046904,1049800,0,5792,0,142
o,0x63da7404,1556708776.005577,172.16.11.67,48389,172.16.10.65,5000,8688,8688,0,1048320,1049800,6,6,4,1448,5361,1,16778208,495,1049800,1046904,1049800,0,7240,0,142
i,0x7d09161c,1556708776.052569,172.16.11.67,48389,172.16.10.65,5000,8688,8688,0,1048320,1049800,6,6,4,1448,5361,1,16778208,495,1049800,1049800,1049800,0,8688,0,142
o,0xb5b41784,1556708776.052572,172.16.11.67,48389,172.16.10.65,5000,8688,8688,0,1048320,1049800,6,6,4,1448,5255,1,16778208,486,1049800,1046904,1049800,0,5792,0,142
o,0xa07a11c4,1556708776.052576,172.16.11.67,48389,172.16.10.65,5000,8688,8688,0,1048320,1049800,6,6,4,1448,5255,1,16778208,486,1049800,1046904,1049800,0,7240,0,142
i,0x1f69c9bb,1556708776.098569,172.16.11.67,48389,172.16.10.65,5000,8688,8688,0,1048320,1049800,6,6,4,1448,5255,1,16778208,486,1049800,1049800,1049800,0,8688,0,142
o,0x60409744,1556708776.098572,172.16.11.67,48389,172.16.10.65,5000,8688,8688,0,1048320,1049800,6,6,4,1448,5159,1,16778208,477,1049800,1046904,1049800,0,5792,0,141
o,0x753d31c4,1556708776.098575,172.16.11.67,48389,172.16.10.65,5000,8688,8688,0,1048320,1049800,6,6,4,1448,5159,1,16778208,477,1049800,1046904,1049800,0,7240,0,141
i,0x8446f1bb,1556708776.145569,172.16.11.67,48389,172.16.10.65,5000,8688,8688,0,1048320,1049800,6,6,4,1448,5159,1,16778208,477,1049800,1049800,1049800,0,8688,0,141
o,0x5f93bfc4,1556708776.145572,172.16.11.67,48389,172.16.10.65,5000,8688,8688,0,1048320,1049800,6,6,4,1448,5075,1,16778208,466,1049800,1046904,1049800,0,5792,0,141
o,0x75b63044,1556708776.145576,172.16.11.67,48389,172.16.10.65,5000,8688,8688,0,1048320,1049800,6,6,4,1448,5075,1,16778208,466,1049800,1046904,1049800,0,7240,0,141
i,0xda18283a,1556708776.192569,172.16.11.67,48389,172.16.10.65,5000,8688,8688,0,1048320,1049800,6,6,4,1448,5075,1,16778208,466,1049800,1049800,1049800,0,8688,0,141
o,0xab95eac4,1556708776.192572,172.16.11.67,48389,172.16.10.65,5000,8688,8688,0,1048320,1049800,6,6,4,1448,5001,1,16778208,456,1049800,1046904,1049800,0,5792,0,141
o,0x6856ed04,1556708776.192576,172.16.11.67,48389,172.16.10.65,5000,8688,8688,0,1048320,1049800,6,6,4,1448,5001,1,16778208,456,1049800,1046904,1049800,0,7240,0,141
i,0x6cc79bfa,1556708776.239568,172.16.11.67,48389,172.16.10.65,5000,8688,8688,0,1048320,1049800,6,6,4,1448,5001,1,16778208,456,1049800,1049800,1049800,0,8688,0,141
o,0xa4403ea5,1556708776.239572,172.16.11.67,48389,172.16.10.65,5000,8688,8688,0,1048320,1049800,6,6,4,1448,4940,1,16778208,444,1049800,1046904,1049800,0,5792,0,142
o,0x7e32ed04,1556708776.239576,172.16.11.67,48389,172.16.10.65,5000,8688,8688,0,1048320,1049800,6,6,4,1448,4940,1,16778208,444,1049800,1046904,1049800,0,7240,0,142
i,0xd1a4c31b,1556708776.286571,172.16.11.67,48389,172.16.10.65,5000,8688,8688,0,1048320,1049800,6,6,4,1448,4940,1,16778208,444,1049800,1049800,1049800,0,8688,0,142
o,0xd00c9084,1556708776.286574,172.16.11.67,48389,172.16.10.65,5000,8688,8688,0,1048320,1049800,6,6,4,1448,4887,1,16778208,433,1049800,1046904,1049800,0,5792,0,142
o,0xca351804,1556708776.286577,172.16.11.67,48389,172.16.10.65,5000,8688,8688,0,1048320,1049800,6,6,4,1448,4887,1,16778208,433,1049800,1046904,1049800,0,7240,0,142
i,0x9597865b,1556708776.333552,172.16.11.67,48389,172.16.10.65,5000,8688,8688,0,1048320,1049800,6,6,4,1448,4887,1,16778208,433,1049800,1049800,1049800,0,8688,0,142
o,0x8ea338a3,1556708776.333555,172.16.11.67,48389,172.16.10.65,5000,8688,8688,0,1048320,1049800,6,6,4,1448,4837,1,16778208,424,1049800,1046904,1049800,0,5792,0,141
o,0x30550305,1556708776.333559,172.16.11.67,48389,172.16.10.65,5000,8688,8688,0,1048320,1049800,6,6,4,1448,4837,1,16778208,424,1049800,1046904,1049800,0,7240,0,141
i,0x94c2e4ba,1556708776.380568,172.16.11.67,48389,172.16.10.65,5000,8688,8688,0,1048320,1049800,6,6,4,1448,4837,1,16778208,424,1049800,1049800,1049800,0,8688,0,141
o,0xeecfc826,1556708776.380571,172.16.11.67,48389,172.16.10.65,5000,8688,8688,0,1048320,1049800,6,6,4,1448,4797,1,16778208,414,1049800,1046904,1049800,0,5792,0,142
o,0x40a6cfc4,1556708776.380575,172.16.11.67,48389,172.16.10.65,5000,8688,8688,0,1048320,1049800,6,6,4,1448,4797,1,16778208,414,1049800,1046904,1049800,0,7240,0,142
i,0x93ee4319,1556708776.427570,172.16.11.67,48389,172.16.10.65,5000,8688,8688,0,1048320,1049800,6,6,4,1448,4797,1,16778208,414,1049800,1049800,1049800,0,8688,0,142
o,0x76868a44,1556708776.427572,172.16.11.67,48389,172.16.10.65,5000,8688,8688,0,1048320,1049800,6,6,4,1448,4762,1,16778208,406,1049800,1046904,1049800,0,5792,0,142
o,0x42aa19c4,1556708776.427576,172.16.11.67,48389,172.16.10.65,5000,8688,8688,0,1048320,1049800,6,6,4,1448,4762,1,16778208,406,1049800,1046904,1049800,0,7240,0,142
i,0x1037385c,1556708776.473569,172.16.11.67,48389,172.16.10.65,5000,8688,8688,0,1048320,1049800,6,6,4,1448,4762,1,16778208,406,1049800,1049800,1049800,0,8688,0,142
o,0x625af744,1556708776.473571,172.16.11.67,48389,172.16.10.65,5000,8688,8688,0,1048320,1049800,6,6,4,1448,4731,1,16778208,398,1049800,1046904,1049800,0,5792,0,141
o,0x1071dcc4,1556708776.473575,172.16.11.67,48389,172.16.10.65,5000,8688,8688,0,1048320,1049800,6,6,4,1448,4731,1,16778208,398,1049800,1046904,1049800,0,7240,0,141
i,0x6c1b281c,1556708776.520569,172.16.11.67,48389,172.16.10.65,5000,8688,8688,0,1048320,1049800,6,6,4,1448,4731,1,16778208,398,1049800,1049800,1049800,0,8688,0,141
o,0x624b8044,1556708776.520572,172.16.11.67,48389,172.16.10.65,5000,8688,8688,0,1048320,1049800,6,6,4,1448,4700,1,16778208,392,1049800,1046904,1049800,0,5792,0,141
o,0x4d117a84,1556708776.520576,172.16.11.67,48389,172.16.10.65,5000,8688,8688,0,1048320,1049800,6,6,4,1448,4700,1,16778208,392,1049800,1046904,1049800,0,7240,0,141
i,0x6b46867b,1556708776.567569,172.16.11.67,48389,172.16.10.65,5000,8688,8688,0,1048320,1049800,6,6,4,1448,4700,1,16778208,392,1049800,1049800,1049800,0,8688,0,141
o,0x54ec3d04,1556708776.567572,172.16.11.67,48389,172.16.10.65,5000,8688,8688,0,1048320,1049800,6,6,4,1448,4673,1,16778208,387,1049800,1046904,1049800,0,5792,0,141
o,0x69e8d784,1556708776.567575,172.16.11.67,48389,172.16.10.65,5000,8688,8688,0,1048320,1049800,6,6,4,1448,4673,1,16778208,387,1049800,1046904,1049800,0,7240,0,141
i,0x3832811c,1556708776.614568,172.16.11.67,48389,172.16.10.65,5000,8688,8688,0,1048320,1049800,6,6,4,1448,4673,1,16778208,387,1049800,1049800,1049800,0,8688,0,141
o,0x7f92b8e3,1556708776.614571,172.16.11.67,48389,172.16.10.65,5000,8688,8688,0,1048320,1049800,6,6,4,1448,4653,1,16778208,381,1049800,1046904,1049800,0,5792,0,142
o,0x95b52963,1556708776.614575,172.16.11.67,48389,172.16.10.65,5000,8688,8688,0,1048320,1049800,6,6,4,1448,4653,1,16778208,381,1049800,1046904,1049800,0,7240,0,142
i,0x375ddf7b,1556708776.661569,172.16.11.67,48389,172.16.10.65,5000,8688,8688,0,1048320,1049800,6,6,4,1448,4653,1,16778208,381,1049800,1049800,1049800,0,8688,0,142
o,0xa0419084,1556708776.661572,172.16.11.67,48389,172.16.10.65,5000,8688,8688,0,1048320,1049800,6,6,4,1448,4636,1,16778208,376,1049800,1046904,1049800,0,5792,0,142
o,0x5d0292c4,1556708776.661575,172.16.11.67,48389,172.16.10.65,5000,8688,8688,0,1048320,1049800,6,6,4,1448,4636,1,16778208,376,1049800,1046904,1049800,0,7240,0,142
i,0x36893dda,1556708776.708570,172.16.11.67,48389,172.16.10.65,5000,8688,8688,0,1048320,1049800,6,6,4,1448,4636,1,16778208,376,1049800,1049800,1049800,0,8688,0,142
o,0xadb66044,1556708776.708573,172.16.11.67,48389,172.16.10.65,5000,8688,8688,0,1048320,1049800,6,6,4,1448,4621,1,16778208,371,1049800,1046904,1049800,0,5792,0,142
o,0x5bcd45c4,1556708776.708576,172.16.11.67,48389,172.16.10.65,5000,8688,8688,0,1048320,1049800,6,6,4,1448,4621,1,16778208,371,1049800,1046904,1049800,0,7240,0,142
i,0x8ba30d7b,1556708776.755569,172.16.11.67,48389,172.16.10.65,5000,8688,8688,0,1048320,1049800,6,6,4,1448,4621,1,16778208,371,1049800,1049800,1049800,0,8688,0,142
o,0xc4b83644,1556708776.755572,172.16.11.67,48389,172.16.10.65,5000,8688,8688,0,1048320,1049800,6,6,4,1448,4608,1,16778208,367,1049800,1046904,1049800,0,5792,0,142
o,0x241870a6,1556708776.755576,172.16.11.67,48389,172.16.10.65,5000,8688,8688,0,1048320,1049800,6,6,4,1448,4608,1,16778208,367,1049800,1046904,1049800,0,7240,0,142
i,0x4f95cfdc,1556708776.802570,172.16.11.67,48389,172.16.10.65,5000,8688,8688,0,1048320,1049800,6,6,4,1448,4608,1,16778208,367,1049800,1049800,1049800,0,8688,0,142
o,0x889e1944,1556708776.802573,172.16.11.67,48389,172.16.10.65,5000,8688,8688,0,1048320,1049800,6,6,4,1448,4596,1,16778208,364,1049800,1046904,1049800,0,5792,0,142
o,0x27527184,1556708776.802577,172.16.11.67,48389,172.16.10.65,5000,8688,8688,0,1048320,1049800,6,6,4,1448,4596,1,16778208,364,1049800,1046904,1049800,0,7240,0,142
i,0xf1f6837b,1556708776.848569,172.16.11.67,48389,172.16.10.65,5000,8688,8688,0,1048320,1049800,6,6,4,1448,4596,1,16778208,364,1049800,1049800,1049800,0,8688,0,142
o,0x3117d804,1556708776.848572,172.16.11.67,48389,172.16.10.65,5000,8688,8688,0,1048320,1049800,6,6,4,1448,4582,1,16778208,362,1049800,1046904,1049800,0,5792,0,141
o,0x2b405f84,1556708776.848576,172.16.11.67,48389,172.16.10.65,5000,8688,8688,0,1048320,1049800,6,6,4,1448,4582,1,16778208,362,1049800,1046904,1049800,0,7240,0,141
i,0x56d3ab7b,1556708776.895571,172.16.11.67,48389,172.16.10.65,5000,8688,8688,0,1048320,1049800,6,6,4,1448,4582,1,16778208,362,1049800,1049800,1049800,0,8688,0,141
o,0x33a39784,1556708776.895573,172.16.11.67,48389,172.16.10.65,5000,8688,8688,0,1048320,1049800,6,6,4,1448,4570,1,16778208,360,1049800,1046904,1049800,0,5792,0,141
o,0x48a03204,1556708776.895577,172.16.11.67,48389,172.16.10.65,5000,8688,8688,0,1048320,1049800,6,6,4,1448,4570,1,16778208,360,1049800,1046904,1049800,0,7240,0,141
i,0x1ac66ebb,1556708776.942569,172.16.11.67,48389,172.16.10.65,5000,8688,8688,0,1048320,1049800,6,6,4,1448,4570,1,16778208,360,1049800,1047880,1049800,0,8688,0,141
o,0x326e4a84,1556708776.942571,172.16.11.67,48389,172.16.10.65,5000,8688,8688,0,1048320,1049800,6,6,4,1448,4559,1,16778208,358,1049800,1044984,1049800,0,5792,0,141
o,0x392e2dc4,1556708776.942575,172.16.11.67,48389,172.16.10.65,5000,8688,8688,0,1048320,1049800,6,6,4,1448,4559,1,16778208,358,1049800,1044984,1049800,0,7240,0,141
i,0xad75e27b,1556708776.989569,172.16.11.67,48389,172.16.10.65,5000,8688,8688,0,1048320,1049800,6,6,4,1448,4559,1,16778208,358,1049800,1049800,1049800,0,8688,0,141
o,0x5a436c65,1556708776.989573,172.16.11.67,48389,172.16.10.65,5000,8688,8688,0,1048320,1049800,6,6,4,1448,4554,1,16778208,355,1049800,1046904,1049800,0,5792,0,142
o,0x5242c4c4,1556708776.989577,172.16.11.67,48389,172.16.10.65,5000,8688,8688,0,1048320,1049800,6,6,4,1448,4554,1,16778208,355,1049800,1046904,1049800,0,7240,0,142
i,0x1253099c,1556708777.036570,172.16.11.67,48389,172.16.10.65,5000,8688,8688,0,1048320,1049800,6,6,4,1448,4554,1,16778208,355,1049800,1049800,1049800,0,8688,0,142
o,0xa2f69244,1556708777.036573,172.16.11.67,48389,172.16.10.65,5000,8688,8688,0,1048320,1049800,6,6,4,1448,4549,1,16778208,353,1049800,1046904,1049800,0,5792,0,142
o,0x510d77c4,1556708777.036577,172.16.11.67,48389,172.16.10.65,5000,8688,8688,0,1048320,1049800,6,6,4,1448,4549,1,16778208,353,1049800,1046904,1049800,0,7240,0,142
i,0xd645ccdc,1556708777.083570,172.16.11.67,48389,172.16.10.65,5000,8688,8688,0,1048320,1049800,6,6,4,1448,4549,1,16778208,353,1049800,1049800,1049800,0,8688,0,142
o,0xcec2e423,1556708777.083573,172.16.11.67,48389,172.16.10.65,5000,8688,8688,0,1048320,1049800,6,6,4,1448,4545,1,16778208,351,1049800,1046904,1049800,0,5792,0,142
o,0x8dad1584,1556708777.083576,172.16.11.67,48389,172.16.10.65,5000,8688,8688,0,1048320,1049800,6,6,4,1448,4545,1,16778208,351,1049800,1046904,1049800,0,7240,0,142
i,0xd5712b3b,1556708777.130569,172.16.11.67,48389,172.16.10.65,5000,8688,8688,0,1048320,1049800,6,6,4,1448,4545,1,16778208,351,1049800,1049800,1049800,0,8688,0,142
o,0x6a3484a5,1556708777.130572,172.16.11.67,48389,172.16.10.65,5000,8688,8688,0,1048320,1049800,6,6,4,1448,4541,1,16778208,350,1049800,1046904,1049800,0,5792,0,142
o,0xab0ce804,1556708777.130576,172.16.11.67,48389,172.16.10.65,5000,8688,8688,0,1048320,1049800,6,6,4,1448,4541,1,16778208,350,1049800,1046904,1049800,0,7240,0,142
i,0x667afcd9,1556708777.177569,172.16.11.67,48389,172.16.10.65,5000,8688,8688,0,1048320,1049800,6,6,4,1448,4541,1,16778208,350,1049800,1049800,1049800,0,8688,0,142
o,0x94db0084,1556708777.177572,172.16.11.67,48389,172.16.10.65,5000,8688,8688,0,1048320,1049800,6,6,4,1448,4538,1,16778208,348,1049800,1046904,1049800,0,5792,0,142
o,0xaafd7104,1556708777.177576,172.16.11.67,48389,172.16.10.65,5000,8688,8688,0,1048320,1049800,6,6,4,1448,4538,1,16778208,348,1049800,1046904,1049800,0,7240,0,142
i,0x3354defa,1556708777.223570,172.16.11.67,48389,172.16.10.65,5000,8688,8688,0,1048320,1049800,6,6,4,1448,4538,1,16778208,348,1049800,1049800,1049800,0,8688,0,142
o,0xc4a4b763,1556708777.223572,172.16.11.67,48389,172.16.10.65,5000,8688,8688,0,1048320,1049800,6,6,4,1448,4531,1,16778208,348,1049800,1046904,1049800,0,5792,0,141
o,0x5589f0c4,1556708777.223576,172.16.11.67,48389,172.16.10.65,5000,8688,8688,0,1048320,1049800,6,6,4,1448,4531,1,16778208,348,1049800,1046904,1049800,0,7240,0,141
i,0x22bce41b,1556708777.270570,172.16.11.67,48389,172.16.10.65,5000,8688,8688,0,1048320,1049800,6,6,4,1448,4531,1,16778208,348,1049800,1049800,1049800,0,8688,0,141
o,0x91734265,1556708777.270572,172.16.11.67,48389,172.16.10.65,5000,8688,8688,0,1048320,1049800,6,6,4,1448,4525,1,16778208,348,1049800,1046904,1049800,0,5792,0,141
o,0x6b65f0c4,1556708777.270576,172.16.11.67,48389,172.16.10.65,5000,8688,8688,0,1048320,1049800,6,6,4,1448,4525,1,16778208,348,1049800,1046904,1049800,0,7240,0,141
i,0x21e8427a,1556708777.317569,172.16.11.67,48389,172.16.10.65,5000,8688,8688,0,1048320,1049800,6,6,4,1448,4525,1,16778208,348,1049800,1049800,1049800,0,8688,0,141
o,0xbd3f9444,1556708777.317572,172.16.11.67,48389,172.16.10.65,5000,8688,8688,0,1048320,1049800,6,6,4,1448,4520,1,16778208,347,1049800,1046904,1049800,0,5792,0,141
o,0xb7681bc4,1556708777.317576,172.16.11.67,48389,172.16.10.65,5000,8688,8688,0,1048320,1049800,6,6,4,1448,4520,1,16778208,347,1049800,1046904,1049800,0,7240,0,141
i,0xeed43d1b,1556708777.364570,172.16.11.67,48389,172.16.10.65,5000,8688,8688,0,1048320,1049800,6,6,4,1448,4520,1,16778208,347,1049800,1049800,1049800,0,8688,0,141
o,0xeb1ea723,1556708777.364573,172.16.11.67,48389,172.16.10.65,5000,8688,8688,0,1048320,1049800,6,6,4,1448,4519,1,16778208,346,1049800,1046904,1049800,0,5792,0,142
o,0xc4dceb84,1556708777.364577,172.16.11.67,48389,172.16.10.65,5000,8688,8688,0,1048320,1049800,6,6,4,1448,4519,1,16778208,346,1049800,1046904,1049800,0,7240,0,142
i,0xedff9b7a,1556708777.411569,172.16.11.67,48389,172.16.10.65,5000,8688,8688,0,1048320,1049800,6,6,4,1448,4519,1,16778208,346,1049800,1049800,1049800,0,8688,0,142
o,0xdc02cbe6,1556708777.411572,172.16.11.67,48389,172.16.10.65,5000,8688,8688,0,1048320,1049800,6,6,4,1448,4519,1,16778208,345,1049800,1046904,1049800,0,5792,0,142
o,0x2dd9d384,1556708777.411576,172.16.11.67,48389,172.16.10.65,5000,8688,8688,0,1048320,1049800,6,6,4,1448,4519,1,16778208,345,1049800,1046904,1049800,0,7240,0,142
i,0xed2af9d9,1556708777.458569,172.16.11.67,48389,172.16.10.65,5000,8688,8688,0,1048320,1049800,6,6,4,1448,4519,1,16778208,345,1049800,1049800,1049800,0,8688,0,142
o,0x63b98e04,1556708777.458576,172.16.11.67,48389,172.16.10.65,5000,8688,8688,0,1048320,1049800,6,6,4,1448,4519,1,16778208,344,1049800,1046904,1049800,0,5792,0,142
o,0x2fdd1d84,1556708777.458581,172.16.11.67,48389,172.16.10.65,5000,8688,8688,0,1048320,1049800,6,6,4,1448,4519,1,16778208,344,1049800,1046904,1049800,0,7240,0,142
i,0x22f72c1c,1556708777.505569,172.16.11.67,48389,172.16.10.65,5000,8688,8688,0,1048320,1049800,6,6,4,1448,4519,1,16778208,344,1049800,1049800,1049800,0,8688,0,142
o,0x97a23804,1556708777.505573,172.16.11.67,48389,172.16.10.65,5000,8688,8688,0,1048320,1049800,6,6,4,1448,4519,1,16778208,343,1049800,1046904,1049800,0,5792,0,142
o,0x0a7ac765,1556708777.505577,172.16.11.67,48389,172.16.10.65,5000,8688,8688,0,1048320,1049800,6,6,4,1448,4519,1,16778208,343,1049800,1046904,1049800,0,7240,0,142
i,0x2222899c,1556708777.552569,172.16.11.67,48389,172.16.10.65,5000,8688,8688,0,1048320,1049800,6,6,4,1448,4519,1,16778208,343,1049800,1049800,1049800,0,8688,0,142
o,0x5c546ae5,1556708777.552572,172.16.11.67,48389,172.16.10.65,5000,8688,8688,0,1048320,1049800,6,6,4,1448,4519,1,16778208,342,1049800,1046904,1049800,0,5792,0,142
o,0x8258bb44,1556708777.552576,172.16.11.67,48389,172.16.10.65,5000,8688,8688,0,1048320,1049800,6,6,4,1448,4519,1,16778208,342,1049800,1046904,1049800,0,7240,0,142
i,0xc4833d3b,1556708777.598569,172.16.11.67,48389,172.16.10.65,5000,8688,8688,0,1048320,1049800,6,6,4,1448,4519,1,16778208,342,1049800,1049800,1049800,0,8688,0,142
o,0x421f40c4,1556708777.598572,172.16.11.67,48389,172.16.10.65,5000,8688,8688,0,1048320,1049800,6,6,4,1448,4515,1,16778208,343,1049800,1046904,1049800,0,5792,0,141
o,0x571bdb44,1556708777.598576,172.16.11.67,48389,172.16.10.65,5000,8688,8688,0,1048320,1049800,6,6,4,1448,4515,1,16778208,343,1049800,1046904,1049800,0,7240,0,141
i,0xee27ca1c,1556708777.645569,172.16.11.67,48389,172.16.10.65,5000,8688,8688,0,1048320,1049800,6,6,4,1448,4515,1,16778208,343,1049800,1049800,1049800,0,8688,0,141
o,0x41726944,1556708777.645572,172.16.11.67,48389,172.16.10.65,5000,8688,8688,0,1048320,1049800,6,6,4,1448,4511,1,16778208,343,1049800,1046904,1049800,0,5792,0,141
o,0x1c5683a5,1556708777.645576,172.16.11.67,48389,172.16.10.65,5000,8688,8688,0,1048320,1049800,6,6,4,1448,4511,1,16778208,343,1049800,1046904,1049800,0,7240,0,141
i,0xed53287b,1556708777.692569,172.16.11.67,48389,172.16.10.65,5000,8688,8688,0,1048320,1049800,6,6,4,1448,4511,1,16778208,343,1049800,1049800,1049800,0,8688,0,141
o,0x52363e25,1556708777.692572,172.16.11.67,48389,172.16.10.65,5000,8688,8688,0,1048320,1049800,6,6,4,1448,4508,1,16778208,343,1049800,1046904,1049800,0,5792,0,141
o,0x4a359684,1556708777.692576,172.16.11.67,48389,172.16.10.65,5000,8688,8688,0,1048320,1049800,6,6,4,1448,4508,1,16778208,343,1049800,1046904,1049800,0,7240,0,141
i,0x8fc5f49a,1556708777.739569,172.16.11.67,48389,172.16.10.65,5000,8688,8688,0,1048320,1049800,6,6,4,1448,4508,1,16778208,343,1049800,1049800,1049800,0,8688,0,141
o,0x9ae96404,1556708777.739572,172.16.11.67,48389,172.16.10.65,5000,8688,8688,0,1048320,1049800,6,6,4,1448,4509,1,16778208,343,1049800,1046904,1049800,0,5792,0,142
o,0x74dc1263,1556708777.739576,172.16.11.67,48389,172.16.10.65,5000,8688,8688,0,1048320,1049800,6,6,4,1448,4509,1,16778208,343,1049800,1046904,1049800,0,7240,0,142
i,0xa9a7283d,1556708777.786569,172.16.11.67,48389,172.16.10.65,5000,8688,8688,0,1048320,1049800,6,6,4,1448,4509,1,16778208,343,1049800,1049800,1049800,0,8688,0,142
o,0xb1eb3a04,1556708777.786572,172.16.11.67,48389,172.16.10.65,5000,8688,8688,0,1048320,1049800,6,6,4,1448,4510,1,16778208,343,1049800,1046904,1049800,0,5792,0,142
o,0x70d56b65,1556708777.786575,172.16.11.67,48389,172.16.10.65,5000,8688,8688,0,1048320,1049800,6,6,4,1448,4510,1,16778208,343,1049800,1046904,1049800,0,7240,0,142
i,0xa8d2869c,1556708777.833570,172.16.11.67,48389,172.16.10.65,5000,8688,8688,0,1048320,1049800,6,6,4,1448,4510,1,16778208,343,1049800,1049800,1049800,0,8688,0,142
o,0xdfca4ce3,1556708777.833573,172.16.11.67,48389,172.16.10.65,5000,8688,8688,0,1048320,1049800,6,6,4,1448,4511,1,16778208,342,1049800,1046904,1049800,0,5792,0,142
o,0xb9889144,1556708777.833577,172.16.11.67,48389,172.16.10.65,5000,8688,8688,0,1048320,1049800,6,6,4,1448,4511,1,16778208,342,1049800,1046904,1049800,0,7240,0,142
i,0xa7fde4fb,1556708777.880569,172.16.11.67,48389,172.16.10.65,5000,8688,8688,0,1048320,1049800,6,6,4,1448,4511,1,16778208,342,1049800,1049800,1049800,0,8688,0,142
o,0xa356a9c4,1556708777.880571,172.16.11.67,48389,172.16.10.65,5000,8688,8688,0,1048320,1049800,6,6,4,1448,4512,1,16778208,342,1049800,1046904,1049800,0,5792,0,142
o,0xe554e323,1556708777.880575,172.16.11.67,48389,172.16.10.65,5000,8688,8688,0,1048320,1049800,6,6,4,1448,4512,1,16778208,342,1049800,1046904,1049800,0,7240,0,142
i,0x6bf0a83b,1556708777.927570,172.16.11.67,48389,172.16.10.65,5000,8688,8688,0,1048320,1049800,6,6,4,1448,4512,1,16778208,342,1049800,1049800,1049800,0,8688,0,142
o,0xefe14a44,1556708777.927573,172.16.11.67,48389,172.16.10.65,5000,8688,8688,0,1048320,1049800,6,6,4,1448,4512,1,16778208,342,1049800,1046904,1049800,0,5792,0,142
o,0xbc04d9c4,1556708777.927577,172.16.11.67,48389,172.16.10.65,5000,8688,8688,0,1048320,1049800,6,6,4,1448,4512,1,16778208,342,1049800,1046904,1049800,0,7240,0,142
i,0x7403257b,1556708777.973572,172.16.11.67,48389,172.16.10.65,5000,8688,8688,0,1048320,1049800,6,6,4,1448,4512,1,16778208,342,1049800,1049800,1049800,0,8688,0,142
o,0xf0803323,1556708777.973574,172.16.11.67,48389,172.16.10.65,5000,8688,8688,0,1048320,1049800,6,6,4,1448,4508,1,16778208,343,1049800,1046904,1049800,0,5792,0,141
o,0x6358c284,1556708777.973578,172.16.11.67,48389,172.16.10.65,5000,8688,8688,0,1048320,1049800,6,6,4,1448,4508,1,16778208,343,1049800,1046904,1049800,0,7240,0,141
i,0x636b2b7b,1556708778.020571,172.16.11.67,48389,172.16.10.65,5000,8688,8688,0,1048320,1049800,6,6,4,1448,4508,1,16778208,343,1049800,1049800,1049800,0,8688,0,141
o,0xa067ea25,1556708778.020574,172.16.11.67,48389,172.16.10.65,5000,8688,8688,0,1048320,1049800,6,6,4,1448,4505,1,16778208,343,1049800,1046904,1049800,0,5792,0,141
o,0xc66c3a84,1556708778.020578,172.16.11.67,48389,172.16.10.65,5000,8688,8688,0,1048320,1049800,6,6,4,1448,4505,1,16778208,343,1049800,1046904,1049800,0,7240,0,141
i,0x629688fb,1556708778.067570,172.16.11.67,48389,172.16.10.65,5000,8688,8688,0,1048320,1049800,6,6,4,1448,4505,1,16778208,343,1049800,1049800,1049800,0,8688,0,141
o,0xce46fd04,1556708778.067572,172.16.11.67,48389,172.16.10.65,5000,8688,8688,0,1048320,1049800,6,6,4,1448,4502,1,16778208,343,1049800,1046904,1049800,0,5792,0,141
o,0xe3439784,1556708778.067576,172.16.11.67,48389,172.16.10.65,5000,8688,8688,0,1048320,1049800,6,6,4,1448,4502,1,16778208,343,1049800,1046904,1049800,0,7240,0,141
i,0x2f82839c,1556708778.114570,172.16.11.67,48389,172.16.10.65,5000,8688,8688,0,1048320,1049800,6,6,4,1448,4502,1,16778208,343,1049800,1049800,1049800,0,8688,0,141
o,0xf8ed78e3,1556708778.114573,172.16.11.67,48389,172.16.10.65,5000,8688,8688,0,1048320,1049800,6,6,4,1448,4504,1,16778208,343,1049800,1046904,1049800,0,5792,0,142
o,0xd3d19344,1556708778.114577,172.16.11.67,48389,172.16.10.65,5000,8688,8688,0,1048320,1049800,6,6,4,1448,4504,1,16778208,343,1049800,1046904,1049800,0,7240,0,142
i,0x2eade1fb,1556708778.161570,172.16.11.67,48389,172.16.10.65,5000,8688,8688,0,1048320,1049800,6,6,4,1448,4504,1,16778208,343,1049800,1049800,1049800,0,8688,0,142
o,0xde5dfa65,1556708778.161573,172.16.11.67,48389,172.16.10.65,5000,8688,8688,0,1048320,1049800,6,6,4,1448,4505,1,16778208,343,1049800,1046904,1049800,0,5792,0,142
o,0xd65d52c4,1556708778.161577,172.16.11.67,48389,172.16.10.65,5000,8688,8688,0,1048320,1049800,6,6,4,1448,4505,1,16778208,343,1049800,1046904,1049800,0,7240,0,142
i,0xbfb7b399,1556708778.208570,172.16.11.67,48389,172.16.10.65,5000,8688,8688,0,1048320,1049800,6,6,4,1448,4505,1,16778208,343,1049800,1049800,1049800,0,8688,0,142
o,0x27112044,1556708778.208572,172.16.11.67,48389,172.16.10.65,5000,8688,8688,0,1048320,1049800,6,6,4,1448,4506,1,16778208,343,1049800,1046904,1049800,0,5792,0,142
o,0xd52805c4,1556708778.208576,172.16.11.67,48389,172.16.10.65,5000,8688,8688,0,1048320,1049800,6,6,4,1448,4506,1,16778208,343,1049800,1046904,1049800,0,7240,0,142
i,0xd998e81b,1556708778.255569,172.16.11.67,48389,172.16.10.65,5000,8688,8688,0,1048320,1049800,6,6,4,1448,4506,1,16778208,343,1049800,1049800,1049800,0,8688,0,142
o,0x3e12f644,1556708778.255572,172.16.11.67,48389,172.16.10.65,5000,8688,8688,0,1048320,1049800,6,6,4,1448,4507,1,16778208,342,1049800,1046904,1049800,0,5792,0,142
o,0xfcfd27a5,1556708778.255576,172.16.11.67,48389,172.16.10.65,5000,8688,8688,0,1048320,1049800,6,6,4,1448,4507,1,16778208,342,1049800,1046904,1049800,0,7240,0,142
i,0xd8c4459b,1556708778.302571,172.16.11.67,48389,172.16.10.65,5000,8688,8688,0,1048320,1049800,6,6,4,1448,4507,1,16778208,342,1049800,1049800,1049800,0,8688,0,142
o,0x04d7ea25,1556708778.302574,172.16.11.67,48389,172.16.10.65,5000,8688,8688,0,1048320,1049800,6,6,4,1448,4508,1,16778208,342,1049800,1046904,1049800,0,5792,0,142
o,0x45b04d84,1556708778.302578,172.16.11.67,48389,172.16.10.65,5000,8688,8688,0,1048320,1049800,6,6,4,1448,4508,1,16778208,342,1049800,1046904,1049800,0,7240,0,142
i,0x7b24f93a,1556708778.348571,172.16.11.67,48389,172.16.10.65,5000,8688,8688,0,1048320,1049800,6,6,4,1448,4508,1,16778208,342,1049800,1049800,1049800,0,8688,0,142
o,0xe76a2904,1556708778.348574,172.16.11.67,48389,172.16.10.65,5000,8688,8688,0,1048320,1049800,6,6,4,1448,4505,1,16778208,343,1049800,1046904,1049800,0,5792,0,141
o,0xfd8c9984,1556708778.348577,172.16.11.67,48389,172.16.10.65,5000,8688,8688,0,1048320,1049800,6,6,4,1448,4505,1,16778208,343,1049800,1046904,1049800,0,7240,0,141
i,0xa4c9861b,1556708778.395571,172.16.11.67,48389,172.16.10.65,5000,8688,8688,0,1048320,1049800,6,6,4,1448,4505,1,16778208,343,1049800,1049800,1049800,0,8688,0,141
o,0x5f481ce3,1556708778.395574,172.16.11.67,48389,172.16.10.65,5000,8688,8688,0,1048320,1049800,6,6,4,1448,4502,1,16778208,343,1049800,1046904,1049800,0,5792,0,141
o,0xf02d5644,1556708778.395578,172.16.11.67,48389,172.16.10.65,5000,8688,8688,0,1048320,1049800,6,6,4,1448,4502,1,16778208,343,1049800,1046904,1049800,0,7240,0,141
i,0xa3f4e47a,1556708778.442571,172.16.11.67,48389,172.16.10.65,5000,8688,8688,0,1048320,1049800,6,6,4,1448,4502,1,16778208,343,1049800,1049800,1049800,0,8688,0,141
o,0x158dd065,1556708778.442574,172.16.11.67,48389,172.16.10.65,5000,8688,8688,0,1048320,1049800,6,6,4,1448,4500,1,16778208,343,1049800,1046904,1049800,0,5792,0,141
o,0x58046844,1556708778.442577,172.16.11.67,48389,172.16.10.65,5000,8688,8688,0,1048320,1049800,6,6,4,1448,4500,1,16778208,343,1049800,1046904,1049800,0,7240,0,141
i,0x4667b099,1556708778.489571,172.16.11.67,48389,172.16.10.65,5000,8688,8688,0,1048320,1049800,6,6,4,1448,4500,1,16778208,343,1049800,1049800,1049800,0,8688,0,141
o,0xa9de0bc4,1556708778.489574,172.16.11.67,48389,172.16.10.65,5000,8688,8688,0,1048320,1049800,6,6,4,1448,4502,1,16778208,343,1049800,1046904,1049800,0,5792,0,142
o,0xcfe25c23,1556708778.489578,172.16.11.67,48389,172.16.10.65,5000,8688,8688,0,1048320,1049800,6,6,4,1448,4502,1,16778208,343,1049800,1046904,1049800,0,7240,0,142
i,0x6048e51b,1556708778.536572,172.16.11.67,48389,172.16.10.65,5000,8688,8688,0,1048320,1049800,6,6,4,1448,4502,1,16778208,343,1049800,1049800,1049800,0,8688,0,142
o,0xc2f2a2c4,1556708778.536574,172.16.11.67,48389,172.16.10.65,5000,8688,8688,0,1048320,1049800,6,6,4,1448,4504,1,16778208,343,1049800,1046904,1049800,0,5792,0,142
o,0x9cb0e725,1556708778.536578,172.16.11.67,48389,172.16.10.65,5000,8688,8688,0,1048320,1049800,6,6,4,1448,4504,1,16778208,343,1049800,1046904,1049800,0,7240,0,142
i,0x7b5f405c,1556708778.583570,172.16.11.67,48389,172.16.10.65,5000,8688,8688,0,1048320,1049800,6,6,4,1448,4504,1,16778208,343,1049800,1049800,1049800,0,8688,0,142
o,0xb25ac884,1556708778.583573,172.16.11.67,48389,172.16.10.65,5000,8688,8688,0,1048320,1049800,6,6,4,1448,4505,1,16778208,343,1049800,1046904,1049800,0,5792,0,142
o,0xc87d3904,1556708778.583577,172.16.11.67,48389,172.16.10.65,5000,8688,8688,0,1048320,1049800,6,6,4,1448,4505,1,16778208,343,1049800,1046904,1049800,0,7240,0,142
i,0x7a8a9ebb,1556708778.630570,172.16.11.67,48389,172.16.10.65,5000,8688,8688,0,1048320,1049800,6,6,4,1448,4505,1,16778208,343,1049800,1049800,1049800,0,8688,0,142
o,0xfe5cf384,1556708778.630573,172.16.11.67,48389,172.16.10.65,5000,8688,8688,0,1048320,1049800,6,6,4,1448,4506,1,16778208,342,1049800,1046904,1049800,0,5792,0,142
o,0xf65c4be3,1556708778.630576,172.16.11.67,48389,172.16.10.65,5000,8688,8688,0,1048320,1049800,6,6,4,1448,4506,1,16778208,342,1049800,1046904,1049800,0,7240,0,142
i,0x3e7d61fb,1556708778.677571,172.16.11.67,48389,172.16.10.65,5000,8688,8688,0,1048320,1049800,6,6,4,1448,4506,1,16778208,342,1049800,1049800,1049800,0,8688,0,142
o,0x1bbcc604,1556708778.677574,172.16.11.67,48389,172.16.10.65,5000,8688,8688,0,1048320,1049800,6,6,4,1448,4507,1,16778208,342,1049800,1046904,1049800,0,5792,0,142
o,0x8e955565,1556708778.677578,172.16.11.67,48389,172.16.10.65,5000,8688,8688,0,1048320,1049800,6,6,4,1448,4507,1,16778208,342,1049800,1046904,1049800,0,7240,0,142
i,0x468fdf3b,1556708778.723571,172.16.11.67,48389,172.16.10.65,5000,8688,8688,0,1048320,1049800,6,6,4,1448,4507,1,16778208,342,1049800,1049800,1049800,0,8688,0,142
o,0xc43684c4,1556708778.723574,172.16.11.67,48389,172.16.10.65,5000,8688,8688,0,1048320,1049800,6,6,4,1448,4504,1,16778208,343,1049800,1046904,1049800,0,5792,0,141
o,0xbe5f0c44,1556708778.723577,172.16.11.67,48389,172.16.10.65,5000,8688,8688,0,1048320,1049800,6,6,4,1448,4504,1,16778208,343,1049800,1046904,1049800,0,7240,0,141
i,0x35f7e53b,1556708778.770572,172.16.11.67,48389,172.16.10.65,5000,8688,8688,0,1048320,1049800,6,6,4,1448,4504,1,16778208,343,1049800,1049800,1049800,0,8688,0,141
o,0xb16f52e5,1556708778.770575,172.16.11.67,48389,172.16.10.65,5000,8688,8688,0,1048320,1049800,6,6,4,1448,4501,1,16778208,343,1049800,1046904,1049800,0,5792,0,141
o,0xf247b644,1556708778.770579,172.16.11.67,48389,172.16.10.65,5000,8688,8688,0,1048320,1049800,6,6,4,1448,4501,1,16778208,343,1049800,1046904,1049800,0,7240,0,141
i,0xf9eaa79c,1556708778.817571,172.16.11.67,48389,172.16.10.65,5000,8688,8688,0,1048320,1049800,6,6,4,1448,4501,1,16778208,343,1049800,1049800,1049800,0,8688,0,141
o,0xdc15cec4,1556708778.817573,172.16.11.67,48389,172.16.10.65,5000,8688,8688,0,1048320,1049800,6,6,4,1448,4499,1,16778208,343,1049800,1046904,1049800,0,5792,0,141
