#enable_time_secs=1556708941	enable_time_usecs=864507	siftrver=1.2.4	hz=1000	tcp_rtt_scale=32	sysname=FreeBSD	sysver=1001000	ipmode=4
o,0xc21a6ed5,1556708941.864533,10.1.1.67,22,10.1.1.11,35517,1073725440,20434,0,66560,66608,6,6,4,1448,152,1,16778212,230,33304,208,66608,0,156,0,1
o,0x3f0a9bb9,1556708941.864542,10.1.1.67,22,10.1.1.11,35517,1073725440,20434,0,66560,66608,6,6,4,1448,152,1,16778212,230,33304,260,66608,0,208,0,1
o,0xc510f38f,1556708941.864748,10.1.1.67,22,10.1.1.11,35517,1073725440,20434,0,66560,66608,6,6,4,1448,152,1,16778212,230,33304,296,66608,0,260,0,1
i,0x4327b606,1556708941.864754,10.1.1.67,22,10.1.1.11,35517,1073725440,20434,0,66560,66608,6,6,4,1448,152,1,16778212,230,33304,296,66608,0,296,0,1
i,0x53627865,1556708941.864758,10.1.1.67,22,10.1.1.11,35517,1073725440,20590,0,66496,66608,6,6,4,1448,161,1,996,230,33304,140,66608,0,140,0,2
o,0xbcc42f2e,1556708941.864892,10.1.1.67,22,10.1.1.11,35517,1073725440,20694,0,66432,66608,6,6,4,1448,145,1,16778212,230,33304,140,66608,0,36,0,2
i,0x0d684186,1556708941.865144,10.1.1.67,22,10.1.1.11,35517,1073725440,20694,0,66432,66608,6,6,4,1448,145,1,16778212,230,33304,140,66608,0,140,0,2
i,0x7d207430,1556708941.865449,10.1.1.67,22,10.1.1.11,35517,1073725440,20834,0,66496,66608,6,6,4,1448,127,1,996,230,33304,0,66608,0,0,0,1
i,0xbc1909d0,1556708941.879271,10.1.1.67,22,10.1.1.11,35517,1073725440,20834,0,66560,66608,6,6,4,1448,127,1,996,230,33304,0,66608,0,0,0,1
o,0x20d36fc6,1556708941.879274,10.1.1.67,22,10.1.1.11,35517,1073725440,20834,0,66560,66608,6,6,5,1448,127,1,997,230,33304,0,66608,36,0,0,1
o,0x2e666846,1556708941.879405,10.1.1.67,22,10.1.1.11,35517,1073725440,20834,0,66560,66608,6,6,8,1448,127,1,996,230,33304,0,0,0,0,0,1
i,0xabb43b06,1556708941.879661,10.1.1.67,22,10.1.1.11,35517,1073725440,20834,0,66560,66608,6,6,8,1448,127,1,1012,230,33304,0,0,0,1,0,1
i,0xe3019a8a,1556708941.983445,10.1.1.67,22,10.1.1.11,20001,1073725440,14481,0,66560,66608,6,6,4,1448,159,1,16778208,231,33304,0,66608,0,0,0,0
o,0x8218cc0b,1556708941.987297,10.1.1.67,22,10.1.1.11,20001,1073725440,14481,0,66560,66608,6,6,4,1448,159,1,16778208,231,33304,49,66608,25,0,0,0
o,0x63a1766a,1556708941.987780,10.1.1.67,22,10.1.1.11,20001,1073725440,14481,0,66560,66608,6,6,4,1448,159,1,16778208,231,33304,1697,66608,0,49,0,0
i,0x1c25dd8a,1556708941.987800,10.1.1.67,22,10.1.1.11,20001,1073725440,14481,0,66560,66608,6,6,4,1448,159,1,16778208,231,33304,1697,66608,0,1497,0,0
o,0xf010a546,1556708942.093797,10.1.1.67,22,10.1.1.11,20001,1073725440,14530,0,66560,66608,6,6,4,1448,144,1,16778209,230,33304,1648,66608,0,1448,0,2
i,0x5c878c4a,1556708942.094067,10.1.1.67,22,10.1.1.11,20001,1073725440,14530,0,66560,66608,6,6,4,1448,144,1,16778208,230,33304,1648,66608,0,1648,0,2
i,0x252d20d7,1556708942.106029,10.1.1.67,22,10.1.1.11,20001,1073725440,16178,0,66368,66608,6,6,4,1448,550,1,992,336,33304,0,66608,0,0,0,1
o,0xe7866103,1556708942.107971,10.1.1.67,22,10.1.1.11,20001,1073725440,16178,0,66560,66608,6,6,4,1448,550,1,16778208,336,33304,848,66608,0,0,0,1
i,0x969eb919,1556708942.123977,10.1.1.67,22,10.1.1.11,20001,1073725440,16178,0,66560,66608,6,6,4,1448,550,1,16778208,336,33304,848,66608,0,848,0,1
o,0xd671c929,1556708942.229800,10.1.1.67,22,10.1.1.11,20001,1073725440,17026,0,66560,66608,6,6,4,1448,546,1,993,307,33304,0,66608,0,0,0,17
i,0x77d71579,1556708942.230055,10.1.1.67,22,10.1.1.11,20001,1073725440,17026,0,66560,66608,6,6,4,1448,546,1,992,307,33304,0,66608,0,0,0,17
o,0xaeb7511c,1556708942.230073,10.1.1.67,22,10.1.1.11,20001,1073725440,17026,0,66560,66608,6,6,4,1448,546,1,16778208,307,33304,52,66608,0,0,0,17
i,0x06f9b7e2,1556708942.264412,10.1.1.67,22,10.1.1.11,20001,1073725440,17026,0,66560,66608,6,6,4,1448,546,1,16778208,307,33304,52,66608,0,52,0,17
o,0x67c4b1c6,1556708942.267687,10.1.1.67,22,10.1.1.11,20001,1073725440,17078,0,66560,66608,6,6,4,1448,614,1,16778208,304,33304,68,66608,0,0,0,35
i,0xc2296f5b,1556708942.277644,10.1.1.67,22,10.1.1.11,20001,1073725440,17078,0,66560,66608,6,6,4,1448,614,1,16778208,304,33304,68,66608,0,68,0,35
o,0x0bb848fd,1556708942.277656,10.1.1.67,22,10.1.1.11,20001,1073725440,17146,0,66560,66608,6,6,4,1448,578,1,16778208,291,33304,52,66608,0,0,0,11
i,0xd43994ad,1556708942.278152,10.1.1.67,22,10.1.1.11,20001,1073725440,17146,0,66560,66608,6,6,4,1448,578,1,16778208,291,33304,52,66608,0,52,0,11
o,0x13c55fde,1556708942.278192,10.1.1.67,22,10.1.1.11,20001,1073725440,17198,0,66560,66608,6,6,4,1448,506,1,16778208,288,33304,68,66608,0,0,0,1
i,0x022a25db,1556708942.297632,10.1.1.67,22,10.1.1.11,20001,1073725440,17198,0,66560,66608,6,6,4,1448,506,1,16778208,288,33304,68,66608,0,68,0,1
o,0xd0651fba,1556708942.297643,10.1.1.67,22,10.1.1.11,20001,1073725440,17266,0,66560,66608,6,6,4,1448,523,1,16778208,275,33304,52,66608,0,0,0,21
i,0x9ffafc6f,1556708942.298111,10.1.1.67,22,10.1.1.11,20001,1073725440,17266,0,66560,66608,6,6,4,1448,523,1,16778208,275,33304,52,66608,0,52,0,21
o,0xdcfa56d2,1556708942.298555,10.1.1.67,22,10.1.1.11,20001,1073725440,17318,0,66560,66608,6,6,4,1448,458,1,16778208,274,33304,100,66608,0,0,0,1
i,0x86fb5ddd,1556708942.299020,10.1.1.67,22,10.1.1.11,20001,1073725440,17318,0,66560,66608,6,6,4,1448,458,1,16778208,274,33304,100,66608,0,100,0,1
o,0x564fc6da,1556708942.302404,10.1.1.67,22,10.1.1.11,20001,1073725440,17418,0,66560,66608,6,6,4,1448,401,1,16778208,272,33304,52,66608,0,0,0,1
i,0xd1420113,1556708942.302843,10.1.1.67,22,10.1.1.11,20001,1073725440,17418,0,66560,66608,6,6,4,1448,401,1,16778208,272,33304,52,66608,0,52,0,1
o,0x609fc972,1556708942.302886,10.1.1.67,22,10.1.1.11,20001,1073725440,17470,0,66560,66608,6,6,4,1448,355,1,16778208,267,33304,36,66608,0,0,0,2
i,0x99aac982,1556708942.317931,10.1.1.67,22,10.1.1.11,20001,1073725440,17470,0,66560,66608,6,6,4,1448,355,1,16778208,267,33304,36,66608,0,36,0,2
o,0x01da7d39,1556708942.317975,10.1.1.67,22,10.1.1.11,20001,1073725440,17506,0,66560,66608,6,6,4,1448,371,1,16778208,258,33304,52,66608,0,0,0,16
i,0xd15fb8cc,1556708942.347661,10.1.1.67,22,10.1.1.11,20001,1073725440,17506,0,66560,66608,6,6,4,1448,371,1,16778208,258,33304,52,66608,0,52,0,16
o,0x51592e93,1556708942.347757,10.1.1.67,22,10.1.1.11,20001,1073725440,17558,0,66560,66608,6,6,4,1448,445,1,16778208,267,33304,36,66608,0,0,0,31
i,0x8f830b25,1556708942.348353,10.1.1.67,22,10.1.1.11,20001,1073725440,17558,0,66560,66608,6,6,4,1448,445,1,16778208,267,33304,36,66608,0,36,0,31
o,0x0a73edc7,1556708942.348563,10.1.1.67,22,10.1.1.11,20001,1073725440,17594,0,66560,66608,6,6,4,1448,390,1,16778212,266,33304,88,66608,0,0,0,1
o,0xc5cc4499,1556708942.354104,10.1.1.67,22,10.1.1.11,20001,1073725440,17594,0,66560,66608,6,6,4,1448,390,1,16778212,266,33304,140,66608,0,88,0,1
i,0x55521d0a,1556708942.354394,10.1.1.67,22,10.1.1.11,20001,1073725440,17594,0,66560,66608,6,6,4,1448,390,1,16778212,266,33304,140,66608,0,140,0,1
o,0x60ac9cc2,1556708942.356000,10.1.1.67,22,10.1.1.11,20001,1073725440,17734,0,66496,66608,6,6,4,1448,362,1,16778212,258,33304,132,66608,0,0,0,1
o,0x7897e90a,1556708942.356010,10.1.1.67,22,10.1.1.11,20001,1073725440,17734,0,66496,66608,6,6,4,1448,362,1,16778212,258,33304,216,66608,0,132,0,1
i,0x3ed25b0a,1556708942.356266,10.1.1.67,22,10.1.1.11,20001,1073725440,17734,0,66496,66608,6,6,4,1448,362,1,16778212,258,33304,216,66608,0,216,0,1
o,0x1f96245d,1556708942.460873,10.1.1.67,22,10.1.1.11,20001,1073725440,17950,0,66368,66608,6,6,4,1448,317,1,16778212,256,33304,52,66608,0,0,0,1
o,0x03131bf3,1556708942.461256,10.1.1.67,22,10.1.1.11,20001,1073725440,17950,0,66368,66608,6,6,4,1448,317,1,16778212,256,33304,192,66608,0,52,0,1
i,0xd005970a,1556708942.461515,10.1.1.67,22,10.1.1.11,20001,1073725440,17950,0,66368,66608,6,6,4,1448,317,1,16778212,256,33304,192,66608,0,192,0,1
i,0x71cad5d4,1556708942.461913,10.1.1.67,22,10.1.1.11,20001,1073725440,18142,0,66432,66608,6,6,4,1448,278,1,996,253,33304,0,66608,0,0,0,1
o,0x05920529,1556708942.567797,10.1.1.67,22,10.1.1.11,20001,1073725440,18142,0,66560,66608,6,6,4,1448,278,1,997,253,33304,0,66608,0,0,0,1
i,0x4005e06e,1556708942.568060,10.1.1.67,22,10.1.1.11,20001,1073725440,18142,0,66560,66608,6,6,4,1448,278,1,996,253,33304,0,66608,0,0,0,1
o,0x1752f038,1556708942.568102,10.1.1.67,22,10.1.1.11,20001,1073725440,18142,0,66560,66608,6,6,4,1448,278,1,16778212,253,33304,52,66608,0,0,0,1
i,0x74b3cc6c,1556708942.587627,10.1.1.67,22,10.1.1.11,20001,1073725440,18142,0,66560,66608,6,6,4,1448,278,1,16778212,253,33304,52,66608,0,52,0,1
o,0x61e456c6,1556708942.587831,10.1.1.67,22,10.1.1.11,20001,1073725440,18194,0,66560,66608,6,6,4,1448,324,1,16778212,255,33304,88,66608,0,0,0,1
o,0x702cbe56,1556708942.593496,10.1.1.67,22,10.1.1.11,20001,1073725440,18194,0,66560,66608,6,6,4,1448,324,1,16778212,255,33304,124,66608,0,88,0,1
o,0x154c4a6b,1556708942.593562,10.1.1.67,22,10.1.1.11,20001,1073725440,18194,0,66560,66608,6,6,4,1448,324,1,16778212,255,33304,228,66608,0,124,0,1
i,0x2a6a6be9,1556708942.593763,10.1.1.67,22,10.1.1.11,20001,1073725440,18194,0,66560,66608,6,6,4,1448,324,1,16778212,255,33304,228,66608,0,228,0,1
i,0x827c9413,1556708942.594130,10.1.1.67,22,10.1.1.11,20001,1073725440,18318,0,66560,66608,6,6,4,1448,308,1,996,247,33304,104,66608,0,104,0,2
i,0xd38c8df2,1556708942.618769,10.1.1.67,22,10.1.1.11,20001,1073725440,18422,0,66560,66608,6,6,4,1448,270,1,996,246,33304,0,66608,0,0,0,2
o,0x7051efca,1556708942.618773,10.1.1.67,22,10.1.1.11,20001,1073725440,18422,0,66560,66608,6,6,5,1448,270,1,997,246,33304,0,66608,36,0,0,2
o,0x7de4e84a,1556708942.618898,10.1.1.67,22,10.1.1.11,20001,1073725440,18422,0,66560,66608,6,6,8,1448,270,1,996,246,33304,0,0,0,0,0,2
i,0x73ce07ca,1556708942.619165,10.1.1.67,22,10.1.1.11,20001,1073725440,18422,0,66560,66608,6,6,8,1448,270,1,1012,246,33304,0,0,0,1,0,2
i,0xe300a8a2,1556708943.598524,10.1.1.67,22,10.1.1.11,59350,4464,5792,0,82944,66608,6,6,4,1448,103,1,996,230,33304,0,66608,0,0,0,1
o,0x56582217,1556708943.598563,10.1.1.67,22,10.1.1.11,59350,4464,5792,0,82944,66608,6,6,4,1448,103,1,16778212,230,33304,52,66608,0,0,0,1
i,0x32729cca,1556708943.628172,10.1.1.67,22,10.1.1.11,59350,4464,5792,0,82944,66608,6,6,4,1448,103,1,16778212,230,33304,52,66608,0,52,0,1
o,0x99b31232,1556708943.628261,10.1.1.67,22,10.1.1.11,59350,4464,5792,0,82944,66608,6,6,4,1448,207,1,16778212,244,33304,36,66608,0,0,0,30
i,0x44d1dcf9,1556708943.628903,10.1.1.67,22,10.1.1.11,59350,4464,5792,0,82944,66608,6,6,4,1448,207,1,16778212,244,33304,36,66608,0,36,0,30
o,0x264688e7,1556708943.629130,10.1.1.67,22,10.1.1.11,59350,4464,5792,0,82944,66608,6,6,4,1448,186,1,16778212,239,33304,88,66608,0,0,0,2
o,0x5e51d89b,1556708943.634670,10.1.1.67,22,10.1.1.11,59350,4464,5792,0,82944,66608,6,6,4,1448,186,1,16778212,239,33304,140,66608,0,88,0,2
i,0xaec48167,1556708943.634935,10.1.1.67,22,10.1.1.11,59350,4464,5792,0,82944,66608,6,6,4,1448,186,1,16778212,239,33304,140,66608,0,140,0,2
o,0xc150161b,1556708943.741870,10.1.1.67,22,10.1.1.11,59350,4464,5792,0,82880,66608,6,6,4,1448,187,1,16778212,231,33304,52,66608,0,0,0,1
o,0x5d69da58,1556708943.742214,10.1.1.67,22,10.1.1.11,59350,4464,5792,0,82880,66608,6,6,4,1448,187,1,16778212,231,33304,192,66608,0,52,0,1
i,0x1f73db88,1556708943.742468,10.1.1.67,22,10.1.1.11,59350,4464,5792,0,82880,66608,6,6,4,1448,187,1,16778212,231,33304,192,66608,0,192,0,1
i,0xe729a672,1556708943.742872,10.1.1.67,22,10.1.1.11,59350,4464,5792,0,82816,66608,6,6,4,1448,164,1,996,230,33304,0,66608,0,0,0,1
o,0xf41f0e48,1556708943.842628,10.1.1.67,22,10.1.1.11,59350,4464,5792,0,82944,66608,6,6,4,1448,164,1,997,230,33304,0,66608,0,0,0,1
i,0xdea5960c,1556708943.842884,10.1.1.67,22,10.1.1.11,59350,4464,5792,0,82944,66608,6,6,4,1448,164,1,996,230,33304,0,66608,0,0,0,1
o,0x2dee5f35,1556708943.842920,10.1.1.67,22,10.1.1.11,59350,4464,5792,0,82944,66608,6,6,4,1448,164,1,16778212,230,33304,52,66608,0,0,0,1
i,0x38242b28,1556708943.857624,10.1.1.67,22,10.1.1.11,59350,4464,5792,0,82944,66608,6,6,4,1448,164,1,16778212,230,33304,52,66608,0,52,0,1
o,0xf11a40a4,1556708943.857838,10.1.1.67,22,10.1.1.11,59350,4464,5792,0,82944,66608,6,6,4,1448,204,1,16778212,235,33304,88,66608,0,0,0,1
o,0x9c404830,1556708943.863519,10.1.1.67,22,10.1.1.11,59350,4464,5792,0,82944,66608,6,6,4,1448,204,1,16778212,235,33304,124,66608,0,88,0,1
o,0x861b5aee,1556708943.863582,10.1.1.67,22,10.1.1.11,59350,4464,5792,0,82944,66608,6,6,4,1448,204,1,16778212,235,33304,228,66608,0,124,0,1
i,0xd2d1cb48,1556708943.863785,10.1.1.67,22,10.1.1.11,59350,4464,5792,0,82944,66608,6,6,4,1448,204,1,16778212,235,33304,228,66608,0,228,0,1
i,0x4aff0854,1556708943.864164,10.1.1.67,22,10.1.1.11,59350,4464,5792,0,82944,66608,6,6,4,1448,203,1,996,230,33304,104,66608,0,104,0,2
o,0x73515108,1556708943.969798,10.1.1.67,22,10.1.1.11,59350,4464,5792,0,82944,66608,6,6,4,1448,178,1,997,230,33304,0,66608,0,0,0,2
i,0xf2648d89,1556708943.970053,10.1.1.67,22,10.1.1.11,59350,4464,5792,0,82944,66608,6,6,4,1448,178,1,996,230,33304,0,66608,0,0,0,2
o,0x6f51a91c,1556708943.970094,10.1.1.67,22,10.1.1.11,59350,4464,5792,0,82944,66608,6,6,4,1448,178,1,16778212,230,33304,52,66608,0,0,0,2
i,0x276964ce,1556708943.987609,10.1.1.67,22,10.1.1.11,59350,4464,5792,0,82944,66608,6,6,4,1448,178,1,16778212,230,33304,52,66608,0,52,0,2
o,0x28b54d32,1556708943.987692,10.1.1.67,22,10.1.1.11,59350,4464,5792,0,82944,66608,6,6,4,1448,228,1,16778212,236,33304,36,66608,0,0,0,19
i,0x174af8ca,1556708943.988277,10.1.1.67,22,10.1.1.11,59350,4464,5792,0,82944,66608,6,6,4,1448,228,1,16778212,236,33304,36,66608,0,36,0,19
o,0xd71a0086,1556708943.988476,10.1.1.67,22,10.1.1.11,59350,4464,5792,0,82944,66608,6,6,4,1448,200,1,16778212,235,33304,88,66608,0,0,0,1
o,0x1a5f12fd,1556708943.993931,10.1.1.67,22,10.1.1.11,59350,4464,5792,0,82944,66608,6,6,4,1448,200,1,16778212,235,33304,140,66608,0,88,0,1
i,0x951625c9,1556708943.994196,10.1.1.67,22,10.1.1.11,59350,4464,5792,0,82944,66608,6,6,4,1448,200,1,16778212,235,33304,140,66608,0,140,0,1
o,0xf537f49a,1556708944.100874,10.1.1.67,22,10.1.1.11,59350,4464,5792,0,82880,66608,6,6,4,1448,199,1,16778212,230,33304,52,66608,0,0,0,1
o,0x0c9ca371,1556708944.101207,10.1.1.67,22,10.1.1.11,59350,4464,5792,0,82880,66608,6,6,4,1448,199,1,16778212,230,33304,192,66608,0,52,0,1
i,0xda503e09,1556708944.101468,10.1.1.67,22,10.1.1.11,59350,4464,5792,0,82880,66608,6,6,4,1448,199,1,16778212,230,33304,192,66608,0,192,0,1
i,0x87fb2e32,1556708944.101843,10.1.1.67,22,10.1.1.11,59350,4464,5792,0,82816,66608,6,6,4,1448,175,1,996,230,33304,0,66608,0,0,0,1
o,0xa01c2fe8,1556708944.201628,10.1.1.67,22,10.1.1.11,59350,4464,5792,0,82944,66608,6,6,4,1448,175,1,997,230,33304,0,66608,0,0,0,1
i,0x622e6bad,1556708944.201889,10.1.1.67,22,10.1.1.11,59350,4464,5792,0,82944,66608,6,6,4,1448,175,1,996,230,33304,0,66608,0,0,0,1
o,0x16c27ddb,1556708944.201925,10.1.1.67,22,10.1.1.11,59350,4464,5792,0,82944,66608,6,6,4,1448,175,1,16778212,230,33304,52,66608,0,0,0,1
i,0x5827e248,1556708944.217587,10.1.1.67,22,10.1.1.11,59350,4464,5792,0,82944,66608,6,6,4,1448,175,1,16778212,230,33304,52,66608,0,52,0,1
o,0xe0d21b05,1556708944.217800,10.1.1.67,22,10.1.1.11,59350,4464,5792,0,82944,66608,6,6,4,1448,218,1,16778212,234,33304,88,66608,0,0,0,1
o,0x48153b95,1556708944.223438,10.1.1.67,22,10.1.1.11,59350,4464,5792,0,82944,66608,6,6,4,1448,218,1,16778212,234,33304,124,66608,0,88,0,1
o,0x9316a308,1556708944.223500,10.1.1.67,22,10.1.1.11,59350,4464,5792,0,82944,66608,6,6,4,1448,218,1,16778212,234,33304,228,66608,0,124,0,1
i,0x0cf4e3e8,1556708944.223702,10.1.1.67,22,10.1.1.11,59350,4464,5792,0,82944,66608,6,6,4,1448,218,1,16778212,234,33304,228,66608,0,228,0,1
i,0x356e2f10,1556708944.224074,10.1.1.67,22,10.1.1.11,59350,4464,5792,0,82944,66608,6,6,4,1448,215,1,996,230,33304,104,66608,0,104,0,2
o,0xac11ae49,1556708944.323626,10.1.1.67,22,10.1.1.11,59350,4464,5792,0,82944,66608,6,6,4,1448,193,1,997,230,33304,0,66608,0,0,0,2
i,0xaa3e1f0f,1556708944.323875,10.1.1.67,22,10.1.1.11,59350,4464,5792,0,82944,66608,6,6,4,1448,193,1,996,230,33304,0,66608,0,0,0,2
o,0x2b0e7aa8,1556708944.423626,10.1.1.67,22,10.1.1.11,59350,4464,5792,0,82944,66608,6,6,4,1448,193,1,997,230,33304,0,66608,0,0,0,2
#o,0x172ac834,1556708948.637014,172.16.11.67,55533,172.16.10.65,5000,1073725440,1073725440,0,0,0,0,0,2,536,0,1,672,3000,1048576,0,1048576,0,0,0,0
#i,0xe7f6f80e,1556708948.678750,172.16.11.67,55533,172.16.10.65,5000,1073725440,1073725440,0,0,0,0,0,2,536,0,1,672,3000,1048576,0,1048576,0,1,0,0
o,0x9fab713a,1556708948.678757,172.16.11.67,55533,172.16.10.65,5000,1073725440,14480,0,65535,1049800,6,6,4,1448,1376,1,16778209,329,1049800,0,1049800,0,0,0,0
o,0x579f485a,1556708948.678772,172.16.11.67,55533,172.16.10.65,5000,1073725440,14480,0,65535,1049800,6,6,4,1448,1376,1,16778208,329,1049800,28,1049800,0,0,0,0
o,0x29ac6b44,1556708948.678800,172.16.11.67,55533,172.16.10.65,5000,1073725440,14480,0,65535,1049800,6,6,4,1448,1376,1,16778208,329,1049800,131100,1049800,0,28,0,0
o,0xffa81e82,1556708948.678805,172.16.11.67,55533,172.16.10.65,5000,1073725440,14480,0,65535,1049800,6,6,4,1448,1376,1,16778208,329,1049800,131100,1049800,0,1476,0,0
o,0x14a4b902,1556708948.678808,172.16.11.67,55533,172.16.10.65,5000,1073725440,14480,0,65535,1049800,6,6,4,1448,1376,1,16778208,329,1049800,131100,1049800,0,2924,0,0
o,0x877d4863,1556708948.678812,172.16.11.67,55533,172.16.10.65,5000,1073725440,14480,0,65535,1049800,6,6,4,1448,1376,1,16778208,329,1049800,131100,1049800,0,4372,0,0
o,0xc97b81c2,1556708948.678815,172.16.11.67,55533,172.16.10.65,5000,1073725440,14480,0,65535,1049800,6,6,4,1448,1376,1,16778208,329,1049800,131100,1049800,0,5820,0,0
o,0xc3a40942,1556708948.678819,172.16.11.67,55533,172.16.10.65,5000,1073725440,14480,0,65535,1049800,6,6,4,1448,1376,1,16778208,329,1049800,131100,1049800,0,7268,0,0
o,0x548942a3,1556708948.678822,172.16.11.67,55533,172.16.10.65,5000,1073725440,14480,0,65535,1049800,6,6,4,1448,1376,1,16778208,329,1049800,131100,1049800,0,8716,0,0
o,0xa53a7441,1556708948.678826,172.16.11.67,55533,172.16.10.65,5000,1073725440,14480,0,65535,1049800,6,6,4,1448,1376,1,16778208,329,1049800,131100,1049800,0,10164,0,0
o,0x535159c1,1556708948.678829,172.16.11.67,55533,172.16.10.65,5000,1073725440,14480,0,65535,1049800,6,6,4,1448,1376,1,16778208,329,1049800,131100,1049800,0,11612,0,0
i,0x64c2723a,1556708948.720754,172.16.11.67,55533,172.16.10.65,5000,1073725440,14480,0,65535,1049800,6,6,4,1448,1376,1,16778208,329,1049800,1048604,1049800,0,13060,0,0
i,0xcac74ab8,1556708948.722747,172.16.11.67,55533,172.16.10.65,5000,1073725440,14480,0,1049792,1049800,6,6,4,1448,1376,1,16778208,329,1049800,1048604,1049800,0,13060,0,0
o,0xccee4641,1556708948.722752,172.16.11.67,55533,172.16.10.65,5000,1073725440,15956,0,1048320,1049800,6,6,4,1448,1380,1,16778208,308,1049800,1047128,1049800,0,11584,0,45
o,0xb7b44081,1556708948.722757,172.16.11.67,55533,172.16.10.65,5000,1073725440,15956,0,1048320,1049800,6,6,4,1448,1380,1,16778208,308,1049800,1047128,1049800,0,13032,0,45
o,0x83d7d001,1556708948.722760,172.16.11.67,55533,172.16.10.65,5000,1073725440,15956,0,1048320,1049800,6,6,4,1448,1380,1,16778208,308,1049800,1047128,1049800,0,14480,0,45
i,0xb548fa59,1556708948.727747,172.16.11.67,55533,172.16.10.65,5000,1073725440,15956,0,1048320,1049800,6,6,4,1448,1380,1,16778208,308,1049800,1049800,1049800,0,15928,0,45
o,0x01399b81,1556708948.727750,172.16.11.67,55533,172.16.10.65,5000,1073725440,18852,0,1048320,1049800,6,6,4,1448,1404,1,16778208,299,1049800,1046904,1049800,0,13032,0,50
o,0x9fedf3c1,1556708948.727754,172.16.11.67,55533,172.16.10.65,5000,1073725440,18852,0,1048320,1049800,6,6,4,1448,1404,1,16778208,299,1049800,1046904,1049800,0,14480,0,50
o,0xb6106441,1556708948.727758,172.16.11.67,55533,172.16.10.65,5000,1073725440,18852,0,1048320,1049800,6,6,4,1448,1404,1,16778208,299,1049800,1046904,1049800,0,15928,0,50
o,0xb038ebc1,1556708948.727761,172.16.11.67,55533,172.16.10.65,5000,1073725440,18852,0,1048320,1049800,6,6,4,1448,1404,1,16778208,299,1049800,1046904,1049800,0,17376,0,50
i,0x75517b78,1556708948.732750,172.16.11.67,55533,172.16.10.65,5000,1073725440,18852,0,1048320,1049800,6,6,4,1448,1404,1,16778208,299,1049800,1049800,1049800,0,18824,0,50
o,0x2e0a3a42,1556708948.732753,172.16.11.67,55533,172.16.10.65,5000,1073725440,21748,0,1048320,1049800,6,6,4,1448,1445,1,16778208,296,1049800,1046904,1049800,0,15928,0,55
o,0x4306d4c2,1556708948.732757,172.16.11.67,55533,172.16.10.65,5000,1073725440,21748,0,1048320,1049800,6,6,4,1448,1445,1,16778208,296,1049800,1046904,1049800,0,17376,0,55
o,0xf11dba42,1556708948.732760,172.16.11.67,55533,172.16.10.65,5000,1073725440,21748,0,1048320,1049800,6,6,4,1448,1445,1,16778208,296,1049800,1046904,1049800,0,18824,0,55
o,0xf7dd9d82,1556708948.732764,172.16.11.67,55533,172.16.10.65,5000,1073725440,21748,0,1048320,1049800,6,6,4,1448,1445,1,16778208,296,1049800,1046904,1049800,0,20272,0,55
i,0xfa216178,1556708948.737748,172.16.11.67,55533,172.16.10.65,5000,1073725440,21748,0,1048320,1049800,6,6,4,1448,1445,1,16778208,296,1049800,1049800,1049800,0,21720,0,55
o,0x5a6b5602,1556708948.737751,172.16.11.67,55533,172.16.10.65,5000,1073725440,24644,0,1048320,1049800,6,6,4,1448,1501,1,16778208,299,1049800,1046904,1049800,0,18824,0,60
o,0x268ee582,1556708948.737754,172.16.11.67,55533,172.16.10.65,5000,1073725440,24644,0,1048320,1049800,6,6,4,1448,1501,1,16778208,299,1049800,1046904,1049800,0,20272,0,60
o,0x2c28f2c2,1556708948.737758,172.16.11.67,55533,172.16.10.65,5000,1073725440,24644,0,1048320,1049800,6,6,4,1448,1501,1,16778208,299,1049800,1046904,1049800,0,21720,0,60
o,0xda3fd842,1556708948.737761,172.16.11.67,55533,172.16.10.65,5000,1073725440,24644,0,1048320,1049800,6,6,4,1448,1501,1,16778208,299,1049800,1046904,1049800,0,23168,0,60
i,0x87d86659,1556708948.741748,172.16.11.67,55533,172.16.10.65,5000,1073725440,24644,0,1048320,1049800,6,6,4,1448,1501,1,16778208,299,1049800,1049800,1049800,0,24616,0,60
o,0x3c8f05a1,1556708948.741750,172.16.11.67,55533,172.16.10.65,5000,1073725440,27540,0,1048320,1049800,6,6,4,1448,1566,1,16778208,304,1049800,1046904,1049800,0,21720,0,64
o,0xfb793702,1556708948.741754,172.16.11.67,55533,172.16.10.65,5000,1073725440,27540,0,1048320,1049800,6,6,4,1448,1566,1,16778208,304,1049800,1046904,1049800,0,23168,0,64
o,0xc79cc682,1556708948.741758,172.16.11.67,55533,172.16.10.65,5000,1073725440,27540,0,1048320,1049800,6,6,4,1448,1566,1,16778208,304,1049800,1046904,1049800,0,24616,0,64
o,0x087529e1,1556708948.741761,172.16.11.67,55533,172.16.10.65,5000,1073725440,27540,0,1048320,1049800,6,6,4,1448,1566,1,16778208,304,1049800,1046904,1049800,0,26064,0,64
i,0x3104b6f8,1556708948.768748,172.16.11.67,55533,172.16.10.65,5000,1073725440,27540,0,1048320,1049800,6,6,4,1448,1566,1,16778208,304,1049800,1049800,1049800,0,27512,0,64
o,0x15702842,1556708948.768751,172.16.11.67,55533,172.16.10.65,5000,1073725440,30436,0,1048320,1049800,6,6,4,1448,1555,1,16778208,293,1049800,1046904,1049800,0,24616,0,47
o,0x2b9298c2,1556708948.768755,172.16.11.67,55533,172.16.10.65,5000,1073725440,30436,0,1048320,1049800,6,6,4,1448,1555,1,16778208,293,1049800,1046904,1049800,0,26064,0,47
o,0x5196e921,1556708948.768759,172.16.11.67,55533,172.16.10.65,5000,1073725440,30436,0,1048320,1049800,6,6,4,1448,1555,1,16778208,293,1049800,1046904,1049800,0,27512,0,47
o,0xe27c2282,1556708948.768762,172.16.11.67,55533,172.16.10.65,5000,1073725440,30436,0,1048320,1049800,6,6,4,1448,1555,1,16778208,293,1049800,1046904,1049800,0,28960,0,47
i,0xb5d49cf8,1556708948.773748,172.16.11.67,55533,172.16.10.65,5000,1073725440,30436,0,1048320,1049800,6,6,4,1448,1555,1,16778208,293,1049800,1049800,1049800,0,30408,0,47
o,0x5fddee02,1556708948.773750,172.16.11.67,55533,172.16.10.65,5000,1073725440,33332,0,1048320,1049800,6,6,4,1448,1565,1,16778208,285,1049800,1046904,1049800,0,27512,0,47
o,0x39d09c61,1556708948.773754,172.16.11.67,55533,172.16.10.65,5000,1073725440,33332,0,1048320,1049800,6,6,4,1448,1565,1,16778208,285,1049800,1046904,1049800,0,28960,0,47
o,0x14b4b6c2,1556708948.773758,172.16.11.67,55533,172.16.10.65,5000,1073725440,33332,0,1048320,1049800,6,6,4,1448,1565,1,16778208,285,1049800,1046904,1049800,0,30408,0,47
o,0x0edd3e42,1556708948.773761,172.16.11.67,55533,172.16.10.65,5000,1073725440,33332,0,1048320,1049800,6,6,4,1448,1565,1,16778208,285,1049800,1046904,1049800,0,31856,0,47
i,0xab29c2f8,1556708948.778754,172.16.11.67,55533,172.16.10.65,5000,1073725440,33332,0,1048320,1049800,6,6,4,1448,1565,1,16778208,285,1049800,1049800,1049800,0,33304,0,47
o,0x6f41c7a1,1556708948.778757,172.16.11.67,55533,172.16.10.65,5000,1073725440,36228,0,1048320,1049800,6,6,4,1448,1574,1,16778208,278,1049800,1046904,1049800,0,30408,0,52
o,0x49000c02,1556708948.778761,172.16.11.67,55533,172.16.10.65,5000,1073725440,36228,0,1048320,1049800,6,6,4,1448,1574,1,16778208,278,1049800,1046904,1049800,0,31856,0,52
o,0xf716f182,1556708948.778764,172.16.11.67,55533,172.16.10.65,5000,1073725440,36228,0,1048320,1049800,6,6,4,1448,1574,1,16778208,278,1049800,1046904,1049800,0,33304,0,52
o,0x39152ae1,1556708948.778768,172.16.11.67,55533,172.16.10.65,5000,1073725440,36228,0,1048320,1049800,6,6,4,1448,1574,1,16778208,278,1049800,1046904,1049800,0,34752,0,52
i,0x4be4a6b9,1556708948.783753,172.16.11.67,55533,172.16.10.65,5000,1073725440,36228,0,1048320,1049800,6,6,4,1448,1574,1,16778208,278,1049800,1049800,1049800,0,36200,0,52
o,0x60648d42,1556708948.783755,172.16.11.67,55533,172.16.10.65,5000,1073725440,39124,0,1048320,1049800,6,6,4,1448,1602,1,16778208,279,1049800,1046904,1049800,0,33304,0,52
o,0x2c881cc2,1556708948.783759,172.16.11.67,55533,172.16.10.65,5000,1073725440,39124,0,1048320,1049800,6,6,4,1448,1602,1,16778208,279,1049800,1046904,1049800,0,34752,0,52
o,0x6d608021,1556708948.783763,172.16.11.67,55533,172.16.10.65,5000,1073725440,39124,0,1048320,1049800,6,6,4,1448,1602,1,16778208,279,1049800,1046904,1049800,0,36200,0,52
o,0xe0390f82,1556708948.783766,172.16.11.67,55533,172.16.10.65,5000,1073725440,39124,0,1048320,1049800,6,6,4,1448,1602,1,16778208,279,1049800,1046904,1049800,0,37648,0,52
i,0x33c164da,1556708948.787752,172.16.11.67,55533,172.16.10.65,5000,1073725440,39124,0,1048320,1049800,6,6,4,1448,1602,1,16778208,279,1049800,1049800,1049800,0,39096,0,52
o,0x01e1f823,1556708948.787755,172.16.11.67,55533,172.16.10.65,5000,1073725440,42020,0,1048320,1049800,6,6,4,1448,1622,1,16778208,277,1049800,1046904,1049800,0,36200,0,56
o,0x27e64882,1556708948.787758,172.16.11.67,55533,172.16.10.65,5000,1073725440,42020,0,1048320,1049800,6,6,4,1448,1622,1,16778208,277,1049800,1046904,1049800,0,37648,0,56
o,0xb8cb81e3,1556708948.787762,172.16.11.67,55533,172.16.10.65,5000,1073725440,42020,0,1048320,1049800,6,6,4,1448,1622,1,16778208,277,1049800,1046904,1049800,0,39096,0,56
o,0xcdc81c63,1556708948.787765,172.16.11.67,55533,172.16.10.65,5000,1073725440,42020,0,1048320,1049800,6,6,4,1448,1622,1,16778208,277,1049800,1046904,1049800,0,40544,0,56
i,0x597baf9a,1556708948.792748,172.16.11.67,55533,172.16.10.65,5000,1073725440,42020,0,1048320,1049800,6,6,4,1448,1622,1,16778208,277,1049800,1049800,1049800,0,41992,0,56
o,0x101ffbc2,1556708948.792751,172.16.11.67,55533,172.16.10.65,5000,1073725440,44916,0,1048320,1049800,6,6,4,1448,1660,1,16778208,281,1049800,1046904,1049800,0,39096,0,56
o,0xeb041623,1556708948.792754,172.16.11.67,55533,172.16.10.65,5000,1073725440,44916,0,1048320,1049800,6,6,4,1448,1660,1,16778208,281,1049800,1046904,1049800,0,40544,0,56
o,0xe52c9da3,1556708948.792758,172.16.11.67,55533,172.16.10.65,5000,1073725440,44916,0,1048320,1049800,6,6,4,1448,1660,1,16778208,281,1049800,1046904,1049800,0,41992,0,56
o,0xdd2bf602,1556708948.792761,172.16.11.67,55533,172.16.10.65,5000,1073725440,44916,0,1048320,1049800,6,6,4,1448,1660,1,16778208,281,1049800,1046904,1049800,0,43440,0,56
i,0xade670da,1556708948.797749,172.16.11.67,55533,172.16.10.65,5000,1073725440,44916,0,1048320,1049800,6,6,4,1448,1660,1,16778208,281,1049800,1049800,1049800,0,44888,0,56
o,0x2f2839a2,1556708948.797751,172.16.11.67,55533,172.16.10.65,5000,1073725440,47812,0,1048320,1049800,6,6,4,1448,1693,1,16778208,283,1049800,1046904,1049800,0,41992,0,61
o,0xdd3f1f22,1556708948.797755,172.16.11.67,55533,172.16.10.65,5000,1073725440,47812,0,1048320,1049800,6,6,4,1448,1693,1,16778208,283,1049800,1046904,1049800,0,43440,0,61
o,0x1f3d5881,1556708948.797759,172.16.11.67,55533,172.16.10.65,5000,1073725440,47812,0,1048320,1049800,6,6,4,1448,1693,1,16778208,283,1049800,1046904,1049800,0,44888,0,61
o,0xde2789e2,1556708948.797762,172.16.11.67,55533,172.16.10.65,5000,1073725440,47812,0,1048320,1049800,6,6,4,1448,1693,1,16778208,283,1049800,1046904,1049800,0,46336,0,61
i,0x32b656da,1556708948.802754,172.16.11.67,55533,172.16.10.65,5000,1073725440,47812,0,1048320,1049800,6,6,4,1448,1693,1,16778208,283,1049800,1049800,1049800,0,47784,0,61
o,0x3e8c1341,1556708948.802757,172.16.11.67,55533,172.16.10.65,5000,1073725440,50708,0,1048320,1049800,6,6,4,1448,1742,1,16778208,289,1049800,1046904,1049800,0,44888,0,62
o,0x5388adc1,1556708948.802761,172.16.11.67,55533,172.16.10.65,5000,1073725440,50708,0,1048320,1049800,6,6,4,1448,1742,1,16778208,289,1049800,1046904,1049800,0,46336,0,62
o,0xc6613d22,1556708948.802764,172.16.11.67,55533,172.16.10.65,5000,1073725440,50708,0,1048320,1049800,6,6,4,1448,1742,1,16778208,289,1049800,1046904,1049800,0,47784,0,62
o,0x085f7681,1556708948.802767,172.16.11.67,55533,172.16.10.65,5000,1073725440,50708,0,1048320,1049800,6,6,4,1448,1742,1,16778208,289,1049800,1046904,1049800,0,49232,0,62
i,0x65a120f9,1556708948.807753,172.16.11.67,55533,172.16.10.65,5000,1073725440,50708,0,1048320,1049800,6,6,4,1448,1742,1,16778208,289,1049800,1049800,1049800,0,50680,0,62
o,0x6aed2f01,1556708948.807755,172.16.11.67,55533,172.16.10.65,5000,1073725440,53604,0,1048320,1049800,6,6,4,1448,1789,1,16778208,294,1049800,1046904,1049800,0,47784,0,67
o,0x547d83a3,1556708948.807759,172.16.11.67,55533,172.16.10.65,5000,1073725440,53604,0,1048320,1049800,6,6,4,1448,1789,1,16778208,294,1049800,1046904,1049800,0,49232,0,67
o,0x9555e702,1556708948.807762,172.16.11.67,55533,172.16.10.65,5000,1073725440,53604,0,1048320,1049800,6,6,4,1448,1789,1,16778208,294,1049800,1046904,1049800,0,50680,0,67
o,0x436ccc82,1556708948.807766,172.16.11.67,55533,172.16.10.65,5000,1073725440,53604,0,1048320,1049800,6,6,4,1448,1789,1,16778208,294,1049800,1046904,1049800,0,52128,0,67
i,0xf35825da,1556708948.811748,172.16.11.67,55533,172.16.10.65,5000,1073725440,53604,0,1048320,1049800,6,6,4,1448,1789,1,16778208,294,1049800,1049800,1049800,0,53576,0,67
o,0x3ea1dae3,1556708948.811751,172.16.11.67,55533,172.16.10.65,5000,1073725440,56500,0,1048320,1049800,6,6,4,1448,1846,1,16778208,300,1049800,1046904,1049800,0,50680,0,44
o,0x64a62b42,1556708948.811754,172.16.11.67,55533,172.16.10.65,5000,1073725440,56500,0,1048320,1049800,6,6,4,1448,1846,1,16778208,300,1049800,1046904,1049800,0,52128,0,44
o,0x30c9bac2,1556708948.811758,172.16.11.67,55533,172.16.10.65,5000,1073725440,56500,0,1048320,1049800,6,6,4,1448,1846,1,16778208,300,1049800,1046904,1049800,0,53576,0,44
o,0x0a87ff23,1556708948.811761,172.16.11.67,55533,172.16.10.65,5000,1073725440,56500,0,1048320,1049800,6,6,4,1448,1846,1,16778208,300,1049800,1046904,1049800,0,55024,0,44
i,0x3f9f789a,1556708948.816748,172.16.11.67,55533,172.16.10.65,5000,1073725440,56500,0,1048320,1049800,6,6,4,1448,1846,1,16778208,300,1049800,1049800,1049800,0,56472,0,44
o,0x4cdfde82,1556708948.816751,172.16.11.67,55533,172.16.10.65,5000,1073725440,59396,0,1048320,1049800,6,6,4,1448,1808,1,16778208,298,1049800,1046904,1049800,0,53576,0,49
o,0x63024f02,1556708948.816755,172.16.11.67,55533,172.16.10.65,5000,1073725440,59396,0,1048320,1049800,6,6,4,1448,1808,1,16778208,298,1049800,1046904,1049800,0,55024,0,49
o,0x21ec8063,1556708948.816758,172.16.11.67,55533,172.16.10.65,5000,1073725440,59396,0,1048320,1049800,6,6,4,1448,1808,1,16778208,298,1049800,1046904,1049800,0,56472,0,49
o,0x19ebd8c2,1556708948.816762,172.16.11.67,55533,172.16.10.65,5000,1073725440,59396,0,1048320,1049800,6,6,4,1448,1808,1,16778208,298,1049800,1046904,1049800,0,57920,0,49
i,0xffa7f9b9,1556708948.821749,172.16.11.67,55533,172.16.10.65,5000,1073725440,59396,0,1048320,1049800,6,6,4,1448,1808,1,16778208,298,1049800,1049800,1049800,0,59368,0,49
o,0x974da442,1556708948.821751,172.16.11.67,55533,172.16.10.65,5000,1073725440,62292,0,1048320,1049800,6,6,4,1448,1794,1,16778208,291,1049800,1046904,1049800,0,56472,0,49
o,0x0a2633a3,1556708948.821755,172.16.11.67,55533,172.16.10.65,5000,1073725440,62292,0,1048320,1049800,6,6,4,1448,1794,1,16778208,291,1049800,1046904,1049800,0,57920,0,49
o,0x4c246d02,1556708948.821759,172.16.11.67,55533,172.16.10.65,5000,1073725440,62292,0,1048320,1049800,6,6,4,1448,1794,1,16778208,291,1049800,1046904,1049800,0,59368,0,49
o,0x464cf482,1556708948.821762,172.16.11.67,55533,172.16.10.65,5000,1073725440,62292,0,1048320,1049800,6,6,4,1448,1794,1,16778208,291,1049800,1046904,1049800,0,60816,0,49
i,0xb9c4849a,1556708948.826753,172.16.11.67,55533,172.16.10.65,5000,1073725440,62292,0,1048320,1049800,6,6,4,1448,1794,1,16778208,291,1049800,1049800,1049800,0,62264,0,49
o,0x3f975ee3,1556708948.826756,172.16.11.67,55533,172.16.10.65,5000,1073725440,65188,0,1048320,1049800,6,6,4,1448,1782,1,16778208,284,1049800,1046904,1049800,0,59368,0,54
o,0x806fc242,1556708948.826759,172.16.11.67,55533,172.16.10.65,5000,1073725440,65188,0,1048320,1049800,6,6,4,1448,1782,1,16778208,284,1049800,1046904,1049800,0,60816,0,54
o,0x2e86a7c2,1556708948.826763,172.16.11.67,55533,172.16.10.65,5000,1073725440,65188,0,1048320,1049800,6,6,4,1448,1782,1,16778208,284,1049800,1046904,1049800,0,62264,0,54
o,0x096ac223,1556708948.826766,172.16.11.67,55533,172.16.10.65,5000,1073725440,65188,0,1048320,1049800,6,6,4,1448,1782,1,16778208,284,1049800,1046904,1049800,0,63712,0,54
i,0xd072ddd9,1556708948.831753,172.16.11.67,55533,172.16.10.65,5000,1073725440,65188,0,1048320,1049800,6,6,4,1448,1782,1,16778208,284,1049800,1049800,1049800,0,65160,0,54
o,0x97d44382,1556708948.831756,172.16.11.67,55533,172.16.10.65,5000,1073725440,68084,0,1048320,1049800,6,6,4,1448,1792,1,16778208,280,1049800,1046904,1049800,0,62264,0,54
o,0x63f7d302,1556708948.831760,172.16.11.67,55533,172.16.10.65,5000,1073725440,68084,0,1048320,1049800,6,6,4,1448,1792,1,16778208,280,1049800,1046904,1049800,0,63712,0,54
o,0x3db61763,1556708948.831763,172.16.11.67,55533,172.16.10.65,5000,1073725440,68084,0,1048320,1049800,6,6,4,1448,1792,1,16778208,280,1049800,1046904,1049800,0,65160,0,54
o,0x17a8c5c2,1556708948.831767,172.16.11.67,55533,172.16.10.65,5000,1073725440,68084,0,1048320,1049800,6,6,4,1448,1792,1,16778208,280,1049800,1046904,1049800,0,66608,0,54
i,0x034b8f78,1556708948.835750,172.16.11.67,55533,172.16.10.65,5000,1073725440,68084,0,1048320,1049800,6,6,4,1448,1792,1,16778208,280,1049800,1049800,1049800,0,68056,0,54
o,0x4e1c2a42,1556708948.835752,172.16.11.67,55533,172.16.10.65,5000,1073725440,70980,0,1048320,1049800,6,6,4,1448,1796,1,16778208,275,1049800,1046904,1049800,0,65160,0,58
o,0x0d065ba3,1556708948.835756,172.16.11.67,55533,172.16.10.65,5000,1073725440,70980,0,1048320,1049800,6,6,4,1448,1796,1,16778208,275,1049800,1046904,1049800,0,66608,0,58
o,0x0505b402,1556708948.835760,172.16.11.67,55533,172.16.10.65,5000,1073725440,70980,0,1048320,1049800,6,6,4,1448,1796,1,16778208,275,1049800,1046904,1049800,0,68056,0,58
o,0x1a024e82,1556708948.835763,172.16.11.67,55533,172.16.10.65,5000,1073725440,70980,0,1048320,1049800,6,6,4,1448,1796,1,16778208,275,1049800,1046904,1049800,0,69504,0,58
i,0xedcd3f19,1556708948.840747,172.16.11.67,55533,172.16.10.65,5000,1073725440,70980,0,1048320,1049800,6,6,4,1448,1796,1,16778208,275,1049800,1049800,1049800,0,70952,0,58
o,0x211bd7c2,1556708948.840750,172.16.11.67,55533,172.16.10.65,5000,1073725440,73876,0,1048320,1049800,6,6,4,1448,1820,1,16778208,277,1049800,1046904,1049800,0,68056,0,58
o,0x373e4842,1556708948.840753,172.16.11.67,55533,172.16.10.65,5000,1073725440,73876,0,1048320,1049800,6,6,4,1448,1820,1,16778208,277,1049800,1046904,1049800,0,69504,0,58
o,0xa67750e3,1556708948.840757,172.16.11.67,55533,172.16.10.65,5000,1073725440,73876,0,1048320,1049800,6,6,4,1448,1820,1,16778208,277,1049800,1046904,1049800,0,70952,0,58
o,0xb00a6b02,1556708948.840761,172.16.11.67,55533,172.16.10.65,5000,1073725440,73876,0,1048320,1049800,6,6,4,1448,1820,1,16778208,277,1049800,1046904,1049800,0,72400,0,58
i,0x42380059,1556708948.845748,172.16.11.67,55533,172.16.10.65,5000,1073725440,73876,0,1048320,1049800,6,6,4,1448,1820,1,16778208,277,1049800,1049800,1049800,0,73848,0,58
o,0xc6868182,1556708948.845751,172.16.11.67,55533,172.16.10.65,5000,1073725440,76772,0,1048320,1049800,6,6,4,1448,1841,1,16778208,278,1049800,1046904,1049800,0,70952,0,63
o,0xdca8f202,1556708948.845754,172.16.11.67,55533,172.16.10.65,5000,1073725440,76772,0,1048320,1049800,6,6,4,1448,1841,1,16778208,278,1049800,1046904,1049800,0,72400,0,63
o,0xc76eec42,1556708948.845758,172.16.11.67,55533,172.16.10.65,5000,1073725440,76772,0,1048320,1049800,6,6,4,1448,1841,1,16778208,278,1049800,1046904,1049800,0,73848,0,63
o,0x93927bc2,1556708948.845762,172.16.11.67,55533,172.16.10.65,5000,1073725440,76772,0,1048320,1049800,6,6,4,1448,1841,1,16778208,278,1049800,1046904,1049800,0,75296,0,63
i,0x02408178,1556708948.850753,172.16.11.67,55533,172.16.10.65,5000,1073725440,76772,0,1048320,1049800,6,6,4,1448,1841,1,16778208,278,1049800,1049800,1049800,0,76744,0,63
o,0x10f44742,1556708948.850755,172.16.11.67,55533,172.16.10.65,5000,1073725440,79668,0,1048320,1049800,6,6,4,1448,1879,1,16778208,283,1049800,1046904,1049800,0,73848,0,64
o,0xbf816dc1,1556708948.850759,172.16.11.67,55533,172.16.10.65,5000,1073725440,79668,0,1048320,1049800,6,6,4,1448,1879,1,16778208,283,1049800,1046904,1049800,0,75296,0,64
o,0xd5a3de41,1556708948.850763,172.16.11.67,55533,172.16.10.65,5000,1073725440,79668,0,1048320,1049800,6,6,4,1448,1879,1,16778208,283,1049800,1046904,1049800,0,76744,0,64
o,0xcfcc65c1,1556708948.850766,172.16.11.67,55533,172.16.10.65,5000,1073725440,79668,0,1048320,1049800,6,6,4,1448,1879,1,16778208,283,1049800,1046904,1049800,0,78192,0,64
i,0x5fa47a19,1556708948.855752,172.16.11.67,55533,172.16.10.65,5000,1073725440,79668,0,1048320,1049800,6,6,4,1448,1879,1,16778208,283,1049800,1049800,1049800,0,79640,0,64
o,0xf4f29901,1556708948.855755,172.16.11.67,55533,172.16.10.65,5000,1073725440,82564,0,1048320,1049800,6,6,4,1448,1917,1,16778208,288,1049800,1046904,1049800,0,76744,0,69
o,0x09ef3381,1556708948.855758,172.16.11.67,55533,172.16.10.65,5000,1073725440,82564,0,1048320,1049800,6,6,4,1448,1917,1,16778208,288,1049800,1046904,1049800,0,78192,0,69
o,0xb8061901,1556708948.855762,172.16.11.67,55533,172.16.10.65,5000,1073725440,82564,0,1048320,1049800,6,6,4,1448,1917,1,16778208,288,1049800,1046904,1049800,0,79640,0,69
o,0xbec5fc41,1556708948.855765,172.16.11.67,55533,172.16.10.65,5000,1073725440,82564,0,1048320,1049800,6,6,4,1448,1917,1,16778208,288,1049800,1046904,1049800,0,81088,0,69
i,0x87a9b559,1556708948.859749,172.16.11.67,55533,172.16.10.65,5000,1073725440,82564,0,1048320,1049800,6,6,4,1448,1917,1,16778208,288,1049800,1049800,1049800,0,82536,0,69
o,0xd93f77c1,1556708948.859751,172.16.11.67,55533,172.16.10.65,5000,1073725440,85460,0,1048320,1049800,6,6,4,1448,1966,1,16778208,295,1049800,1046904,1049800,0,79640,0,68
o,0xa5630741,1556708948.859755,172.16.11.67,55533,172.16.10.65,5000,1073725440,85460,0,1048320,1049800,6,6,4,1448,1966,1,16778208,295,1049800,1046904,1049800,0,81088,0,68
o,0xaafd1481,1556708948.859758,172.16.11.67,55533,172.16.10.65,5000,1073725440,85460,0,1048320,1049800,6,6,4,1448,1966,1,16778208,295,1049800,1046904,1049800,0,82536,0,68
o,0xb1bf1542,1556708948.859762,172.16.11.67,55533,172.16.10.65,5000,1073725440,85460,0,1048320,1049800,6,6,4,1448,1966,1,16778208,295,1049800,1046904,1049800,0,83984,0,68
i,0x174d11b8,1556708948.864748,172.16.11.67,55533,172.16.10.65,5000,1073725440,85460,0,1048320,1049800,6,6,4,1448,1966,1,16778208,295,1049800,1049800,1049800,0,85432,0,68
o,0x3046b6c2,1556708948.864750,172.16.11.67,55533,172.16.10.65,5000,1073725440,88356,0,1048320,1049800,6,6,4,1448,2009,1,16778208,299,1049800,1046904,1049800,0,82536,0,73
o,0x1b0cb102,1556708948.864754,172.16.11.67,55533,172.16.10.65,5000,1073725440,88356,0,1048320,1049800,6,6,4,1448,2009,1,16778208,299,1049800,1046904,1049800,0,83984,0,73
o,0xe7304082,1556708948.864757,172.16.11.67,55533,172.16.10.65,5000,1073725440,88356,0,1048320,1049800,6,6,4,1448,2009,1,16778208,299,1049800,1046904,1049800,0,85432,0,73
o,0xfc2cdb02,1556708948.864761,172.16.11.67,55533,172.16.10.65,5000,1073725440,88356,0,1048320,1049800,6,6,4,1448,2009,1,16778208,299,1049800,1046904,1049800,0,86880,0,73
i,0x01cec159,1556708948.869748,172.16.11.67,55533,172.16.10.65,5000,1073725440,88356,0,1048320,1049800,6,6,4,1448,2009,1,16778208,299,1049800,1049800,1049800,0,88328,0,73
o,0x03466442,1556708948.869751,172.16.11.67,55533,172.16.10.65,5000,1073725440,91252,0,1048320,1049800,6,6,4,1448,2066,1,16778208,306,1049800,1046904,1049800,0,85432,0,73
o,0x1968d4c2,1556708948.869755,172.16.11.67,55533,172.16.10.65,5000,1073725440,91252,0,1048320,1049800,6,6,4,1448,2066,1,16778208,306,1049800,1046904,1049800,0,86880,0,73
o,0x13915c42,1556708948.869758,172.16.11.67,55533,172.16.10.65,5000,1073725440,91252,0,1048320,1049800,6,6,4,1448,2066,1,16778208,306,1049800,1046904,1049800,0,88328,0,73
o,0xd0525e82,1556708948.869762,172.16.11.67,55533,172.16.10.65,5000,1073725440,91252,0,1048320,1049800,6,6,4,1448,2066,1,16778208,306,1049800,1046904,1049800,0,89776,0,73
i,0x56398299,1556708948.874753,172.16.11.67,55533,172.16.10.65,5000,1073725440,91252,0,1048320,1049800,6,6,4,1448,2066,1,16778208,306,1049800,1049800,1049800,0,91224,0,73
o,0x4db42a02,1556708948.874756,172.16.11.67,55533,172.16.10.65,5000,1073725440,94148,0,1048320,1049800,6,6,4,1448,2116,1,16778208,309,1049800,1046904,1049800,0,88328,0,78
o,0xfbcb0f82,1556708948.874759,172.16.11.67,55533,172.16.10.65,5000,1073725440,94148,0,1048320,1049800,6,6,4,1448,2116,1,16778208,309,1049800,1046904,1049800,0,89776,0,78
o,0x028af2c2,1556708948.874763,172.16.11.67,55533,172.16.10.65,5000,1073725440,94148,0,1048320,1049800,6,6,4,1448,2116,1,16778208,309,1049800,1046904,1049800,0,91224,0,78
o,0xfcb37a42,1556708948.874766,172.16.11.67,55533,172.16.10.65,5000,1073725440,94148,0,1048320,1049800,6,6,4,1448,2116,1,16778208,309,1049800,1046904,1049800,0,92672,0,78
i,0x164203b8,1556708948.879753,172.16.11.67,55533,172.16.10.65,5000,1073725440,94148,0,1048320,1049800,6,6,4,1448,2116,1,16778208,309,1049800,1049800,1049800,0,94120,0,78
o,0x5d1803a1,1556708948.879756,172.16.11.67,55533,172.16.10.65,5000,1073725440,97044,0,1048320,1049800,6,6,4,1448,2180,1,16778208,317,1049800,1046904,1049800,0,91224,0,78
o,0x36d64802,1556708948.879760,172.16.11.67,55533,172.16.10.65,5000,1073725440,97044,0,1048320,1049800,6,6,4,1448,2180,1,16778208,317,1049800,1046904,1049800,0,92672,0,78
o,0xe4ed2d82,1556708948.879763,172.16.11.67,55533,172.16.10.65,5000,1073725440,97044,0,1048320,1049800,6,6,4,1448,2180,1,16778208,317,1049800,1046904,1049800,0,94120,0,78
o,0x26eb66e1,1556708948.879767,172.16.11.67,55533,172.16.10.65,5000,1073725440,97044,0,1048320,1049800,6,6,4,1448,2180,1,16778208,317,1049800,1046904,1049800,0,95568,0,78
i,0x0de21a38,1556708948.883753,172.16.11.67,55533,172.16.10.65,5000,1073725440,97044,0,1048320,1049800,6,6,4,1448,2180,1,16778208,317,1049800,1049800,1049800,0,97016,0,78
o,0x06268c42,1556708948.883756,172.16.11.67,55533,172.16.10.65,5000,1073725440,99940,0,1048320,1049800,6,6,4,1448,2232,1,16778208,319,1049800,1046904,1049800,0,94120,0,82
o,0xd24a1bc2,1556708948.883759,172.16.11.67,55533,172.16.10.65,5000,1073725440,99940,0,1048320,1049800,6,6,4,1448,2232,1,16778208,319,1049800,1046904,1049800,0,95568,0,82
o,0x13227f21,1556708948.883763,172.16.11.67,55533,172.16.10.65,5000,1073725440,99940,0,1048320,1049800,6,6,4,1448,2232,1,16778208,319,1049800,1046904,1049800,0,97016,0,82
o,0x85fb0e82,1556708948.883766,172.16.11.67,55533,172.16.10.65,5000,1073725440,99940,0,1048320,1049800,6,6,4,1448,2232,1,16778208,319,1049800,1046904,1049800,0,98464,0,82
i,0x144ec79a,1556708948.888747,172.16.11.67,55533,172.16.10.65,5000,1073725440,99940,0,1048320,1049800,6,6,4,1448,2232,1,16778208,319,1049800,1049800,1049800,0,99912,0,82
o,0x0482b002,1556708948.888749,172.16.11.67,55533,172.16.10.65,5000,1073725440,102836,0,1048320,1049800,6,6,4,1448,2297,1,16778208,325,1049800,1046904,1049800,0,97016,0,82
o,0x2a870061,1556708948.888753,172.16.11.67,55533,172.16.10.65,5000,1073725440,102836,0,1048320,1049800,6,6,4,1448,2297,1,16778208,325,1049800,1046904,1049800,0,98464,0,82
o,0xbb6c39c2,1556708948.888756,172.16.11.67,55533,172.16.10.65,5000,1073725440,102836,0,1048320,1049800,6,6,4,1448,2297,1,16778208,325,1049800,1046904,1049800,0,99912,0,82
o,0xd068d442,1556708948.888760,172.16.11.67,55533,172.16.10.65,5000,1073725440,102836,0,1048320,1049800,6,6,4,1448,2297,1,16778208,325,1049800,1046904,1049800,0,101360,0,82
i,0xa3f223f9,1556708948.893747,172.16.11.67,55533,172.16.10.65,5000,1073725440,102836,0,1048320,1049800,6,6,4,1448,2297,1,16778208,325,1049800,1049800,1049800,0,102808,0,82
o,0x12c0b3a1,1556708948.893750,172.16.11.67,55533,172.16.10.65,5000,1073725440,105732,0,1048320,1049800,6,6,4,1448,2354,1,16778208,328,1049800,1046904,1049800,0,99912,0,87
o,0xeda4ce02,1556708948.893754,172.16.11.67,55533,172.16.10.65,5000,1073725440,105732,0,1048320,1049800,6,6,4,1448,2354,1,16778208,328,1049800,1046904,1049800,0,101360,0,87
o,0xe7cd5582,1556708948.893758,172.16.11.67,55533,172.16.10.65,5000,1073725440,105732,0,1048320,1049800,6,6,4,1448,2354,1,16778208,328,1049800,1046904,1049800,0,102808,0,87
o,0xdfccade1,1556708948.893761,172.16.11.67,55533,172.16.10.65,5000,1073725440,105732,0,1048320,1049800,6,6,4,1448,2354,1,16778208,328,1049800,1046904,1049800,0,104256,0,87
i,0x28c209f9,1556708948.898754,172.16.11.67,55533,172.16.10.65,5000,1073725440,105732,0,1048320,1049800,6,6,4,1448,2354,1,16778208,328,1049800,1049800,1049800,0,105704,0,87
o,0x21f02342,1556708948.898757,172.16.11.67,55533,172.16.10.65,5000,1073725440,108628,0,1048320,1049800,6,6,4,1448,2424,1,16778208,334,1049800,1046904,1049800,0,102808,0,88
o,0xd00708c2,1556708948.898761,172.16.11.67,55533,172.16.10.65,5000,1073725440,108628,0,1048320,1049800,6,6,4,1448,2424,1,16778208,334,1049800,1046904,1049800,0,104256,0,88
o,0x12054221,1556708948.898764,172.16.11.67,55533,172.16.10.65,5000,1073725440,108628,0,1048320,1049800,6,6,4,1448,2424,1,16778208,334,1049800,1046904,1049800,0,105704,0,88
o,0xd0ef7382,1556708948.898768,172.16.11.67,55533,172.16.10.65,5000,1073725440,108628,0,1048320,1049800,6,6,4,1448,2424,1,16778208,334,1049800,1046904,1049800,0,107152,0,88
i,0xc15e9db9,1556708948.903754,172.16.11.67,55533,172.16.10.65,5000,1073725440,108628,0,1048320,1049800,6,6,4,1448,2424,1,16778208,334,1049800,1049800,1049800,0,108600,0,88
o,0x05783402,1556708948.903757,172.16.11.67,55533,172.16.10.65,5000,1073725440,111524,0,1048320,1049800,6,6,4,1448,2489,1,16778208,338,1049800,1046904,1049800,0,105704,0,93
o,0x46509761,1556708948.903761,172.16.11.67,55533,172.16.10.65,5000,1073725440,111524,0,1048320,1049800,6,6,4,1448,2489,1,16778208,338,1049800,1046904,1049800,0,107152,0,93
o,0xc901f501,1556708948.903764,172.16.11.67,55533,172.16.10.65,5000,1073725440,111524,0,1048320,1049800,6,6,4,1448,2489,1,16778208,338,1049800,1046904,1049800,0,108600,0,93
o,0xdf246581,1556708948.903768,172.16.11.67,55533,172.16.10.65,5000,1073725440,111524,0,1048320,1049800,6,6,4,1448,2489,1,16778208,338,1049800,1046904,1049800,0,110048,0,93
i,0xe963d8f9,1556708948.907750,172.16.11.67,55533,172.16.10.65,5000,1073725440,111524,0,1048320,1049800,6,6,4,1448,2489,1,16778208,338,1049800,1049800,1049800,0,111496,0,93
o,0xfa265681,1556708948.907753,172.16.11.67,55533,172.16.10.65,5000,1073725440,114420,0,1048320,1049800,6,6,4,1448,2562,1,16778208,343,1049800,1046904,1049800,0,108600,0,92
o,0x8b0b8fe2,1556708948.907757,172.16.11.67,55533,172.16.10.65,5000,1073725440,114420,0,1048320,1049800,6,6,4,1448,2562,1,16778208,343,1049800,1046904,1049800,0,110048,0,92
o,0xa0082a62,1556708948.907761,172.16.11.67,55533,172.16.10.65,5000,1073725440,114420,0,1048320,1049800,6,6,4,1448,2562,1,16778208,343,1049800,1046904,1049800,0,111496,0,92
o,0x79fad8c1,1556708948.907764,172.16.11.67,55533,172.16.10.65,5000,1073725440,114420,0,1048320,1049800,6,6,4,1448,2562,1,16778208,343,1049800,1046904,1049800,0,112944,0,92
i,0x3dce9a39,1556708948.912749,172.16.11.67,55533,172.16.10.65,5000,1073725440,114420,0,1048320,1049800,6,6,4,1448,2562,1,16778208,343,1049800,1049800,1049800,0,114392,0,92
o,0xbd442422,1556708948.912751,172.16.11.67,55533,172.16.10.65,5000,1073725440,117316,0,1048320,1049800,6,6,4,1448,2626,1,16778208,346,1049800,1046904,1049800,0,111496,0,97
o,0xb76caba2,1556708948.912755,172.16.11.67,55533,172.16.10.65,5000,1073725440,117316,0,1048320,1049800,6,6,4,1448,2626,1,16778208,346,1049800,1046904,1049800,0,112944,0,97
o,0xaf6c0401,1556708948.912759,172.16.11.67,55533,172.16.10.65,5000,1073725440,117316,0,1048320,1049800,6,6,4,1448,2626,1,16778208,346,1049800,1046904,1049800,0,114392,0,97
o,0x892a4862,1556708948.912762,172.16.11.67,55533,172.16.10.65,5000,1073725440,117316,0,1048320,1049800,6,6,4,1448,2626,1,16778208,346,1049800,1046904,1049800,0,115840,0,97
i,0x6388e4f9,1556708948.917748,172.16.11.67,55533,172.16.10.65,5000,1073725440,117316,0,1048320,1049800,6,6,4,1448,2626,1,16778208,346,1049800,1049800,1049800,0,117288,0,97
o,0x242d4302,1556708948.917750,172.16.11.67,55533,172.16.10.65,5000,1073725440,120212,0,1048320,1049800,6,6,4,1448,2702,1,16778208,351,1049800,1046904,1049800,0,114392,0,97
o,0x3a4fb382,1556708948.917754,172.16.11.67,55533,172.16.10.65,5000,1073725440,120212,0,1048320,1049800,6,6,4,1448,2702,1,16778208,351,1049800,1046904,1049800,0,115840,0,97
o,0xf939e4e3,1556708948.917758,172.16.11.67,55533,172.16.10.65,5000,1073725440,120212,0,1048320,1049800,6,6,4,1448,2702,1,16778208,351,1049800,1046904,1049800,0,117288,0,97
o,0xf1393d42,1556708948.917761,172.16.11.67,55533,172.16.10.65,5000,1073725440,120212,0,1048320,1049800,6,6,4,1448,2702,1,16778208,351,1049800,1046904,1049800,0,118736,0,97
i,0xb7f3a639,1556708948.922755,172.16.11.67,55533,172.16.10.65,5000,1073725440,120212,0,1048320,1049800,6,6,4,1448,2702,1,16778208,351,1049800,1049800,1049800,0,120184,0,97
o,0x6e9b08c2,1556708948.922757,172.16.11.67,55533,172.16.10.65,5000,1073725440,123108,0,1048320,1049800,6,6,4,1448,2769,1,16778208,353,1049800,1046904,1049800,0,117288,0,102
o,0xe1739823,1556708948.922761,172.16.11.67,55533,172.16.10.65,5000,1073725440,123108,0,1048320,1049800,6,6,4,1448,2769,1,16778208,353,1049800,1046904,1049800,0,118736,0,102
o,0x2371d182,1556708948.922764,172.16.11.67,55533,172.16.10.65,5000,1073725440,123108,0,1048320,1049800,6,6,4,1448,2769,1,16778208,353,1049800,1046904,1049800,0,120184,0,102
o,0x1d9a5902,1556708948.922768,172.16.11.67,55533,172.16.10.65,5000,1073725440,123108,0,1048320,1049800,6,6,4,1448,2769,1,16778208,353,1049800,1046904,1049800,0,121632,0,102
i,0x3cc38c39,1556708948.927753,172.16.11.67,55533,172.16.10.65,5000,1073725440,123108,0,1048320,1049800,6,6,4,1448,2769,1,16778208,353,1049800,1049800,1049800,0,123080,0,102
o,0x16e4c363,1556708948.927755,172.16.11.67,55533,172.16.10.65,5000,1073725440,126004,0,1048320,1049800,6,6,4,1448,2847,1,16778208,358,1049800,1046904,1049800,0,120184,0,102
o,0x57bd26c2,1556708948.927759,172.16.11.67,55533,172.16.10.65,5000,1073725440,126004,0,1048320,1049800,6,6,4,1448,2847,1,16778208,358,1049800,1046904,1049800,0,121632,0,102
o,0x05d40c42,1556708948.927762,172.16.11.67,55533,172.16.10.65,5000,1073725440,126004,0,1048320,1049800,6,6,4,1448,2847,1,16778208,358,1049800,1046904,1049800,0,123080,0,102
o,0xe0b826a3,1556708948.927766,172.16.11.67,55533,172.16.10.65,5000,1073725440,126004,0,1048320,1049800,6,6,4,1448,2847,1,16778208,358,1049800,1046904,1049800,0,124528,0,102
i,0xd54e0779,1556708948.931748,172.16.11.67,55533,172.16.10.65,5000,1073725440,126004,0,1048320,1049800,6,6,4,1448,2847,1,16778208,358,1049800,1049800,1049800,0,125976,0,102
o,0x270d6b02,1556708948.931751,172.16.11.67,55533,172.16.10.65,5000,1073725440,128900,0,1048320,1049800,6,6,4,1448,2912,1,16778208,359,1049800,1046904,1049800,0,123080,0,106
o,0xf330fa82,1556708948.931755,172.16.11.67,55533,172.16.10.65,5000,1073725440,128900,0,1048320,1049800,6,6,4,1448,2912,1,16778208,359,1049800,1046904,1049800,0,124528,0,106
o,0xccef3ee3,1556708948.931758,172.16.11.67,55533,172.16.10.65,5000,1073725440,128900,0,1048320,1049800,6,6,4,1448,2912,1,16778208,359,1049800,1046904,1049800,0,125976,0,106
o,0xa6e1ed42,1556708948.931762,172.16.11.67,55533,172.16.10.65,5000,1073725440,128900,0,1048320,1049800,6,6,4,1448,2912,1,16778208,359,1049800,1046904,1049800,0,127424,0,106
i,0x5a1ded79,1556708948.936749,172.16.11.67,55533,172.16.10.65,5000,1073725440,128900,0,1048320,1049800,6,6,4,1448,2912,1,16778208,359,1049800,1049800,1049800,0,128872,0,106
o,0x25698ec2,1556708948.936751,172.16.11.67,55533,172.16.10.65,5000,1073725440,131796,0,1048320,1049800,6,6,4,1448,2988,1,16778208,364,1049800,1046904,1049800,0,125976,0,106
o,0xe453c023,1556708948.936755,172.16.11.67,55533,172.16.10.65,5000,1073725440,131796,0,1048320,1049800,6,6,4,1448,2988,1,16778208,364,1049800,1046904,1049800,0,127424,0,106
o,0xdc531882,1556708948.936759,172.16.11.67,55533,172.16.10.65,5000,1073725440,131796,0,1048320,1049800,6,6,4,1448,2988,1,16778208,364,1049800,1046904,1049800,0,128872,0,106
o,0xf14fb302,1556708948.936762,172.16.11.67,55533,172.16.10.65,5000,1073725440,131796,0,1048320,1049800,6,6,4,1448,2988,1,16778208,364,1049800,1046904,1049800,0,130320,0,106
i,0x406721f8,1556708948.941751,172.16.11.67,55533,172.16.10.65,5000,1073725440,131796,0,1048320,1049800,6,6,4,1448,2988,1,16778208,364,1049800,1049800,1049800,0,131768,0,106
o,0xcc8d7363,1556708948.941754,172.16.11.67,55533,172.16.10.65,5000,1073725440,134692,0,1048320,1049800,6,6,4,1448,3055,1,16778208,365,1049800,1046904,1049800,0,128872,0,111
o,0x0e8bacc2,1556708948.941758,172.16.11.67,55533,172.16.10.65,5000,1073725440,134692,0,1048320,1049800,6,6,4,1448,3055,1,16778208,365,1049800,1046904,1049800,0,130320,0,111
o,0x08b43442,1556708948.941761,172.16.11.67,55533,172.16.10.65,5000,1073725440,134692,0,1048320,1049800,6,6,4,1448,3055,1,16778208,365,1049800,1046904,1049800,0,131768,0,111
o,0x99996da3,1556708948.941765,172.16.11.67,55533,172.16.10.65,5000,1073725440,134692,0,1048320,1049800,6,6,4,1448,3055,1,16778208,365,1049800,1046904,1049800,0,133216,0,111
i,0x66216cb8,1556708948.946753,172.16.11.67,55533,172.16.10.65,5000,1073725440,134692,0,1048320,1049800,6,6,4,1448,3055,1,16778208,365,1049800,1049800,1049800,0,134664,0,111
o,0x42d70202,1556708948.946756,172.16.11.67,55533,172.16.10.65,5000,1073725440,137588,0,1048320,1049800,6,6,4,1448,3134,1,16778208,370,1049800,1046904,1049800,0,131768,0,112
o,0xf0ede782,1556708948.946759,172.16.11.67,55533,172.16.10.65,5000,1073725440,137588,0,1048320,1049800,6,6,4,1448,3134,1,16778208,370,1049800,1046904,1049800,0,133216,0,112
o,0xcbd201e3,1556708948.946763,172.16.11.67,55533,172.16.10.65,5000,1073725440,137588,0,1048320,1049800,6,6,4,1448,3134,1,16778208,370,1049800,1046904,1049800,0,134664,0,112
o,0xf1d65242,1556708948.946767,172.16.11.67,55533,172.16.10.65,5000,1073725440,137588,0,1048320,1049800,6,6,4,1448,3134,1,16778208,370,1049800,1046904,1049800,0,136112,0,112
i,0x5dd39bb8,1556708948.951754,172.16.11.67,55533,172.16.10.65,5000,1073725440,137588,0,1048320,1049800,6,6,4,1448,3134,1,16778208,370,1049800,1049800,1049800,0,137560,0,112
o,0x265f12c2,1556708948.951756,172.16.11.67,55533,172.16.10.65,5000,1073725440,140484,0,1048320,1049800,6,6,4,1448,3207,1,16778208,372,1049800,1046904,1049800,0,134664,0,117
o,0x56240944,1556708948.951760,172.16.11.67,55533,172.16.10.65,5000,1073725440,140484,0,1048320,1049800,6,6,4,1448,3207,1,16778208,372,1049800,1046904,1049800,0,136112,0,117
o,0x9d187482,1556708948.951763,172.16.11.67,55533,172.16.10.65,5000,1073725440,140484,0,1048320,1049800,6,6,4,1448,3207,1,16778208,372,1049800,1046904,1049800,0,137560,0,117
o,0x9740fc02,1556708948.951767,172.16.11.67,55533,172.16.10.65,5000,1073725440,140484,0,1048320,1049800,6,6,4,1448,3207,1,16778208,372,1049800,1046904,1049800,0,139008,0,117
i,0x85d8d6f8,1556708948.955749,172.16.11.67,55533,172.16.10.65,5000,1073725440,140484,0,1048320,1049800,6,6,4,1448,3207,1,16778208,372,1049800,1049800,1049800,0,140456,0,117
o,0x7452f242,1556708948.955751,172.16.11.67,55533,172.16.10.65,5000,1073725440,143380,0,1048320,1049800,6,6,4,1448,3287,1,16778208,377,1049800,1046904,1049800,0,137560,0,116
o,0x894f8cc2,1556708948.955755,172.16.11.67,55533,172.16.10.65,5000,1073725440,143380,0,1048320,1049800,6,6,4,1448,3287,1,16778208,377,1049800,1046904,1049800,0,139008,0,116
o,0x37667242,1556708948.955758,172.16.11.67,55533,172.16.10.65,5000,1073725440,143380,0,1048320,1049800,6,6,4,1448,3287,1,16778208,377,1049800,1046904,1049800,0,140456,0,116
o,0x4dff23c1,1556708948.955762,172.16.11.67,55533,172.16.10.65,5000,1073725440,143380,0,1048320,1049800,6,6,4,1448,3287,1,16778208,377,1049800,1046904,1049800,0,141904,0,116
i,0x157c3357,1556708948.960748,172.16.11.67,55533,172.16.10.65,5000,1073725440,143380,0,1048320,1049800,6,6,4,1448,3287,1,16778208,377,1049800,1049800,1049800,0,143352,0,116
o,0xb08cdc41,1556708948.960750,172.16.11.67,55533,172.16.10.65,5000,1073725440,146276,0,1048320,1049800,6,6,4,1448,3357,1,16778208,378,1049800,1046904,1049800,0,140456,0,121
o,0x7cb06bc1,1556708948.960754,172.16.11.67,55533,172.16.10.65,5000,1073725440,146276,0,1048320,1049800,6,6,4,1448,3357,1,16778208,378,1049800,1046904,1049800,0,141904,0,121
o,0x824a7901,1556708948.960758,172.16.11.67,55533,172.16.10.65,5000,1073725440,146276,0,1048320,1049800,6,6,4,1448,3357,1,16778208,378,1049800,1046904,1049800,0,143352,0,121
o,0x30615e81,1556708948.960761,172.16.11.67,55533,172.16.10.65,5000,1073725440,146276,0,1048320,1049800,6,6,4,1448,3357,1,16778208,378,1049800,1046904,1049800,0,144800,0,121
i,0xfffde2f8,1556708948.965749,172.16.11.67,55533,172.16.10.65,5000,1073725440,146276,0,1048320,1049800,6,6,4,1448,3357,1,16778208,378,1049800,1047880,1049800,0,146248,0,121
o,0xaee90001,1556708948.965752,172.16.11.67,55533,172.16.10.65,5000,1073725440,149172,0,1048320,1049800,6,6,4,1448,3438,1,16778208,382,1049800,1044984,1049800,0,143352,0,121
o,0x99aefa41,1556708948.965756,172.16.11.67,55533,172.16.10.65,5000,1073725440,149172,0,1048320,1049800,6,6,4,1448,3438,1,16778208,382,1049800,1044984,1049800,0,144800,0,121
o,0x65d289c1,1556708948.965759,172.16.11.67,55533,172.16.10.65,5000,1073725440,149172,0,1048320,1049800,6,6,4,1448,3438,1,16778208,382,1049800,1044984,1049800,0,146248,0,121
o,0x7acf2441,1556708948.965762,172.16.11.67,55533,172.16.10.65,5000,1073725440,149172,0,1048320,1049800,6,6,4,1448,3438,1,16778208,382,1049800,1044984,1049800,0,147696,0,121
i,0x5468a438,1556708948.970754,172.16.11.67,55533,172.16.10.65,5000,1073725440,149172,0,1048320,1049800,6,6,4,1448,3438,1,16778208,382,1049800,1049800,1049800,0,149144,0,121
o,0x81e8ad81,1556708948.970756,172.16.11.67,55533,172.16.10.65,5000,1073725440,152068,0,1048320,1049800,6,6,4,1448,3509,1,16778208,384,1049800,1046904,1049800,0,146248,0,126
o,0xf0b63942,1556708948.970760,172.16.11.67,55533,172.16.10.65,5000,1073725440,152068,0,1048320,1049800,6,6,4,1448,3509,1,16778208,384,1049800,1046904,1049800,0,147696,0,126
o,0xeadec0c2,1556708948.970764,172.16.11.67,55533,172.16.10.65,5000,1073725440,152068,0,1048320,1049800,6,6,4,1448,3509,1,16778208,384,1049800,1046904,1049800,0,149144,0,126
o,0xa79fc302,1556708948.970767,172.16.11.67,55533,172.16.10.65,5000,1073725440,152068,0,1048320,1049800,6,6,4,1448,3509,1,16778208,384,1049800,1046904,1049800,0,150592,0,126
i,0x14712557,1556708948.975754,172.16.11.67,55533,172.16.10.65,5000,1073725440,152068,0,1048320,1049800,6,6,4,1448,3509,1,16778208,384,1049800,1049800,1049800,0,152040,0,126
o,0x25018e82,1556708948.975757,172.16.11.67,55533,172.16.10.65,5000,1073725440,154964,0,1048320,1049800,6,6,4,1448,3591,1,16778208,388,1049800,1046904,1049800,0,149144,0,126
o,0xd3187402,1556708948.975760,172.16.11.67,55533,172.16.10.65,5000,1073725440,154964,0,1048320,1049800,6,6,4,1448,3591,1,16778208,388,1049800,1046904,1049800,0,150592,0,126
o,0xd9d85742,1556708948.975764,172.16.11.67,55533,172.16.10.65,5000,1073725440,154964,0,1048320,1049800,6,6,4,1448,3591,1,16778208,388,1049800,1046904,1049800,0,152040,0,126
