#enable_time_secs=1556708860	enable_time_usecs=104540	siftrver=1.2.4	hz=1000	tcp_rtt_scale=32	sysname=FreeBSD	sysver=1001000	ipmode=4
o,0x3c6d655c,1556708860.104568,10.1.1.67,22,10.1.1.11,44068,1073725440,20330,0,66560,66608,6,6,4,1448,182,1,16778212,234,33304,208,66608,0,156,0,1
o,0x6506607b,1556708860.104577,10.1.1.67,22,10.1.1.11,44068,1073725440,20330,0,66560,66608,6,6,4,1448,182,1,16778212,234,33304,260,66608,0,208,0,1
o,0xea1cb373,1556708860.104772,10.1.1.67,22,10.1.1.11,44068,1073725440,20330,0,66560,66608,6,6,4,1448,182,1,16778212,234,33304,296,66608,0,260,0,1
i,0x8e6cfd0a,1556708860.104795,10.1.1.67,22,10.1.1.11,44068,1073725440,20330,0,66560,66608,6,6,4,1448,182,1,16778212,234,33304,296,66608,0,296,0,1
i,0x61121b4a,1556708860.104798,10.1.1.67,22,10.1.1.11,44068,1073725440,20486,0,66496,66608,6,6,4,1448,188,1,996,230,33304,140,66608,0,140,0,2
o,0x5408fd8f,1556708860.104921,10.1.1.67,22,10.1.1.11,44068,1073725440,20590,0,66432,66608,6,6,4,1448,165,1,16778212,230,33304,140,66608,0,36,0,1
i,0x58ad888a,1556708860.105167,10.1.1.67,22,10.1.1.11,44068,1073725440,20590,0,66432,66608,6,6,4,1448,165,1,16778212,230,33304,140,66608,0,140,0,1
i,0xc2eedb55,1556708860.105644,10.1.1.67,22,10.1.1.11,44068,1073725440,20730,0,66496,66608,6,6,4,1448,145,1,996,230,33304,0,66608,0,0,0,1
i,0xecaed0b3,1556708860.119285,10.1.1.67,22,10.1.1.11,44068,1073725440,20730,0,66560,66608,6,6,4,1448,145,1,996,230,33304,0,66608,0,0,0,1
o,0x576ac48a,1556708860.119289,10.1.1.67,22,10.1.1.11,44068,1073725440,20730,0,66560,66608,6,6,5,1448,145,1,997,230,33304,0,66608,36,0,0,1
o,0x64fdbd0a,1556708860.119419,10.1.1.67,22,10.1.1.11,44068,1073725440,20730,0,66560,66608,6,6,8,1448,145,1,996,230,33304,0,0,0,0,0,1
i,0x06bcda69,1556708860.119668,10.1.1.67,22,10.1.1.11,44068,1073725440,20730,0,66560,66608,6,6,8,1448,145,1,1012,230,33304,0,0,0,1,0,1
i,0xe3174e28,1556708860.183483,10.1.1.67,22,10.1.1.11,26809,1073725440,14481,0,66560,66608,6,6,4,1448,158,1,16778208,231,33304,0,66608,0,0,0,0
o,0xaee8f70b,1556708860.187748,10.1.1.67,22,10.1.1.11,26809,1073725440,14481,0,66560,66608,6,6,4,1448,158,1,16778208,231,33304,49,66608,25,0,0,0
o,0x9fd2ab89,1556708860.188242,10.1.1.67,22,10.1.1.11,26809,1073725440,14481,0,66560,66608,6,6,4,1448,158,1,16778208,231,33304,1697,66608,0,49,0,0
i,0x16f93fe5,1556708860.188263,10.1.1.67,22,10.1.1.11,26809,1073725440,14481,0,66560,66608,6,6,4,1448,158,1,16778208,231,33304,1697,66608,0,1497,0,0
i,0x9ebb4228,1556708860.287636,10.1.1.67,22,10.1.1.11,26809,1073725440,14530,0,66560,66608,6,6,4,1448,139,1,992,230,33304,1648,66608,0,1448,0,1
o,0x473eaac3,1556708860.287639,10.1.1.67,22,10.1.1.11,26809,1073725440,15978,0,66560,66608,6,6,4,1448,522,1,16778208,330,33304,200,66608,0,0,0,101
i,0x81bc0afc,1556708860.300156,10.1.1.67,22,10.1.1.11,26809,1073725440,15978,0,66560,66608,6,6,4,1448,522,1,16778208,330,33304,200,66608,0,200,0,101
o,0xa71bf9ea,1556708860.302100,10.1.1.67,22,10.1.1.11,26809,1073725440,16178,0,66560,66608,6,6,4,1448,505,1,16778208,306,33304,848,66608,0,0,0,13
i,0xbdf7c3b9,1556708860.318134,10.1.1.67,22,10.1.1.11,26809,1073725440,16178,0,66560,66608,6,6,4,1448,505,1,16778208,306,33304,848,66608,0,848,0,13
o,0x7e1a5b49,1556708860.423802,10.1.1.67,22,10.1.1.11,26809,1073725440,17026,0,66560,66608,6,6,4,1448,506,1,993,283,33304,0,66608,0,0,0,17
i,0x85ecefbc,1556708860.424044,10.1.1.67,22,10.1.1.11,26809,1073725440,17026,0,66560,66608,6,6,4,1448,506,1,992,283,33304,0,66608,0,0,0,17
o,0x4608e09c,1556708860.424064,10.1.1.67,22,10.1.1.11,26809,1073725440,17026,0,66560,66608,6,6,4,1448,506,1,16778208,283,33304,52,66608,0,0,0,17
i,0xb0ac0da6,1556708860.459259,10.1.1.67,22,10.1.1.11,26809,1073725440,17026,0,66560,66608,6,6,4,1448,506,1,16778208,283,33304,52,66608,0,52,0,17
o,0xc7149421,1556708860.462558,10.1.1.67,22,10.1.1.11,26809,1073725440,17078,0,66560,66608,6,6,4,1448,583,1,16778208,288,33304,68,66608,0,0,0,36
i,0x1541c0bb,1556708860.477543,10.1.1.67,22,10.1.1.11,26809,1073725440,17078,0,66560,66608,6,6,4,1448,583,1,16778208,288,33304,68,66608,0,68,0,36
o,0x7f47bb5b,1556708860.477563,10.1.1.67,22,10.1.1.11,26809,1073725440,17146,0,66560,66608,6,6,4,1448,567,1,16778208,274,33304,52,66608,0,0,0,15
i,0x5a92bb49,1556708860.478030,10.1.1.67,22,10.1.1.11,26809,1073725440,17146,0,66560,66608,6,6,4,1448,567,1,16778208,274,33304,52,66608,0,52,0,15
o,0x0305f29f,1556708860.478077,10.1.1.67,22,10.1.1.11,26809,1073725440,17198,0,66560,66608,6,6,4,1448,497,1,16778208,275,33304,68,66608,0,0,0,1
i,0x6d1936bb,1556708860.507513,10.1.1.67,22,10.1.1.11,26809,1073725440,17198,0,66560,66608,6,6,4,1448,497,1,16778208,275,33304,68,66608,0,68,0,1
o,0x7995d939,1556708860.507525,10.1.1.67,22,10.1.1.11,26809,1073725440,17266,0,66560,66608,6,6,4,1448,551,1,16778208,275,33304,52,66608,0,0,0,30
i,0x12607db4,1556708860.508007,10.1.1.67,22,10.1.1.11,26809,1073725440,17266,0,66560,66608,6,6,4,1448,551,1,16778208,275,33304,52,66608,0,52,0,30
o,0x8a6101d0,1556708860.508448,10.1.1.67,22,10.1.1.11,26809,1073725440,17318,0,66560,66608,6,6,4,1448,487,1,16778208,275,33304,100,66608,0,0,0,2
i,0x846af558,1556708860.508907,10.1.1.67,22,10.1.1.11,26809,1073725440,17318,0,66560,66608,6,6,4,1448,487,1,16778208,275,33304,100,66608,0,100,0,2
o,0xa20b0559,1556708860.512292,10.1.1.67,22,10.1.1.11,26809,1073725440,17418,0,66560,66608,6,6,4,1448,431,1,16778208,272,33304,52,66608,0,0,0,2
i,0x526a3eef,1556708860.512734,10.1.1.67,22,10.1.1.11,26809,1073725440,17418,0,66560,66608,6,6,4,1448,431,1,16778208,272,33304,52,66608,0,52,0,2
o,0xdbcff3b3,1556708860.512778,10.1.1.67,22,10.1.1.11,26809,1073725440,17470,0,66560,66608,6,6,4,1448,382,1,16778208,268,33304,36,66608,0,0,0,2
i,0xf95c4965,1556708860.528171,10.1.1.67,22,10.1.1.11,26809,1073725440,17470,0,66560,66608,6,6,4,1448,382,1,16778208,268,33304,36,66608,0,36,0,2
o,0x9e4b38d9,1556708860.528222,10.1.1.67,22,10.1.1.11,26809,1073725440,17506,0,66560,66608,6,6,4,1448,395,1,16778208,258,33304,52,66608,0,0,0,16
i,0xd7c16a2d,1556708860.547663,10.1.1.67,22,10.1.1.11,26809,1073725440,17506,0,66560,66608,6,6,4,1448,395,1,16778208,258,33304,52,66608,0,52,0,16
o,0xbdc18155,1556708860.547760,10.1.1.67,22,10.1.1.11,26809,1073725440,17558,0,66560,66608,6,6,4,1448,426,1,16778208,255,33304,36,66608,0,0,0,21
i,0x61c46aff,1556708860.548640,10.1.1.67,22,10.1.1.11,26809,1073725440,17558,0,66560,66608,6,6,4,1448,426,1,16778208,255,33304,36,66608,0,36,0,21
o,0x791a2de1,1556708860.548851,10.1.1.67,22,10.1.1.11,26809,1073725440,17594,0,66560,66608,6,6,4,1448,377,1,16778212,255,33304,88,66608,0,0,0,2
o,0x6e55f0da,1556708860.554396,10.1.1.67,22,10.1.1.11,26809,1073725440,17594,0,66560,66608,6,6,4,1448,377,1,16778212,255,33304,140,66608,0,88,0,2
i,0x58ced168,1556708860.554654,10.1.1.67,22,10.1.1.11,26809,1073725440,17594,0,66560,66608,6,6,4,1448,377,1,16778212,255,33304,140,66608,0,140,0,2
o,0x5a2162db,1556708860.556287,10.1.1.67,22,10.1.1.11,26809,1073725440,17734,0,66496,66608,6,6,4,1448,354,1,16778212,249,33304,132,66608,0,0,0,2
o,0xe24c106c,1556708860.556297,10.1.1.67,22,10.1.1.11,26809,1073725440,17734,0,66496,66608,6,6,4,1448,354,1,16778212,249,33304,216,66608,0,132,0,2
i,0x424f0f68,1556708860.556565,10.1.1.67,22,10.1.1.11,26809,1073725440,17734,0,66496,66608,6,6,4,1448,354,1,16778212,249,33304,216,66608,0,216,0,2
o,0xc40efddb,1556708860.655711,10.1.1.67,22,10.1.1.11,26809,1073725440,17950,0,66368,66608,6,6,4,1448,314,1,16778212,249,33304,52,66608,0,0,0,2
o,0x443916bc,1556708860.656109,10.1.1.67,22,10.1.1.11,26809,1073725440,17950,0,66368,66608,6,6,4,1448,314,1,16778212,249,33304,192,66608,0,52,0,2
i,0x9e394b89,1556708860.656383,10.1.1.67,22,10.1.1.11,26809,1073725440,17950,0,66368,66608,6,6,4,1448,314,1,16778212,249,33304,192,66608,0,192,0,2
i,0xff58d5b2,1556708860.656741,10.1.1.67,22,10.1.1.11,26809,1073725440,18142,0,66432,66608,6,6,4,1448,275,1,996,247,33304,0,66608,0,0,0,1
o,0xc7881ea8,1556708860.762803,10.1.1.67,22,10.1.1.11,26809,1073725440,18142,0,66560,66608,6,6,4,1448,275,1,997,247,33304,0,66608,0,0,0,1
i,0x7b71150e,1556708860.763095,10.1.1.67,22,10.1.1.11,26809,1073725440,18142,0,66560,66608,6,6,4,1448,275,1,996,247,33304,0,66608,0,0,0,1
o,0x320f90fc,1556708860.763140,10.1.1.67,22,10.1.1.11,26809,1073725440,18142,0,66560,66608,6,6,4,1448,275,1,16778212,247,33304,52,66608,0,0,0,1
i,0xc0a814ca,1556708860.787564,10.1.1.67,22,10.1.1.11,26809,1073725440,18142,0,66560,66608,6,6,4,1448,275,1,16778212,247,33304,52,66608,0,52,0,1
o,0xb33f10a1,1556708860.787774,10.1.1.67,22,10.1.1.11,26809,1073725440,18194,0,66560,66608,6,6,4,1448,341,1,16778212,256,33304,88,66608,0,0,0,1
o,0x07b72acf,1556708860.793431,10.1.1.67,22,10.1.1.11,26809,1073725440,18194,0,66560,66608,6,6,4,1448,341,1,16778212,256,33304,124,66608,0,88,0,1
o,0x31714cec,1556708860.793495,10.1.1.67,22,10.1.1.11,26809,1073725440,18194,0,66560,66608,6,6,4,1448,341,1,16778212,256,33304,228,66608,0,124,0,1
i,0x41909ca8,1556708860.793709,10.1.1.67,22,10.1.1.11,26809,1073725440,18194,0,66560,66608,6,6,4,1448,341,1,16778212,256,33304,228,66608,0,228,0,1
i,0xe10fd1f1,1556708860.794077,10.1.1.67,22,10.1.1.11,26809,1073725440,18318,0,66560,66608,6,6,4,1448,323,1,996,249,33304,104,66608,0,104,0,2
i,0x31718951,1556708860.810050,10.1.1.67,22,10.1.1.11,26809,1073725440,18422,0,66560,66608,6,6,4,1448,287,1,996,247,33304,0,66608,0,0,0,2
o,0x82bbfce8,1556708860.810055,10.1.1.67,22,10.1.1.11,26809,1073725440,18422,0,66560,66608,6,6,5,1448,287,1,997,247,33304,0,66608,36,0,0,2
o,0x904ef568,1556708860.810179,10.1.1.67,22,10.1.1.11,26809,1073725440,18422,0,66560,66608,6,6,8,1448,287,1,996,247,33304,0,0,0,0,0,2
i,0xf1ad9728,1556708860.810427,10.1.1.67,22,10.1.1.11,26809,1073725440,18422,0,66560,66608,6,6,8,1448,287,1,1012,247,33304,0,0,0,1,0,2
i,0xa0fb539e,1556708861.817584,10.1.1.67,22,10.1.1.11,59350,4464,5792,0,66560,66608,6,6,4,1448,185,1,996,238,33304,0,66608,0,0,0,1
o,0x47fbd75b,1556708861.817619,10.1.1.67,22,10.1.1.11,59350,4464,5792,0,66560,66608,6,6,4,1448,185,1,16778212,238,33304,52,66608,0,0,0,1
i,0x7109f4c9,1556708861.847631,10.1.1.67,22,10.1.1.11,59350,4464,5792,0,66560,66608,6,6,4,1448,185,1,16778212,238,33304,52,66608,0,52,0,1
o,0x963f3693,1556708861.847718,10.1.1.67,22,10.1.1.11,59350,4464,5792,0,66560,66608,6,6,4,1448,282,1,16778212,257,33304,36,66608,0,0,0,31
i,0x58e724ba,1556708861.848556,10.1.1.67,22,10.1.1.11,59350,4464,5792,0,66560,66608,6,6,4,1448,282,1,16778212,257,33304,36,66608,0,36,0,31
o,0xe2a38a60,1556708861.848775,10.1.1.67,22,10.1.1.11,59350,4464,5792,0,66560,66608,6,6,4,1448,251,1,16778212,252,33304,88,66608,0,0,0,2
o,0x4102455a,1556708861.854285,10.1.1.67,22,10.1.1.11,59350,4464,5792,0,66560,66608,6,6,4,1448,251,1,16778212,252,33304,140,66608,0,88,0,2
i,0x485f2a2a,1556708861.854553,10.1.1.67,22,10.1.1.11,59350,4464,5792,0,66560,66608,6,6,4,1448,251,1,16778212,252,33304,140,66608,0,140,0,2
o,0xc19c433c,1556708861.961872,10.1.1.67,22,10.1.1.11,59350,4464,5792,0,66496,66608,6,6,4,1448,244,1,16778212,242,33304,52,66608,0,0,0,2
o,0x93e51cfb,1556708861.962220,10.1.1.67,22,10.1.1.11,59350,4464,5792,0,66496,66608,6,6,4,1448,244,1,16778212,242,33304,192,66608,0,52,0,2
i,0xa98abe68,1556708861.962471,10.1.1.67,22,10.1.1.11,59350,4464,5792,0,66496,66608,6,6,4,1448,244,1,16778212,242,33304,192,66608,0,192,0,2
i,0xe701ab0e,1556708861.962849,10.1.1.67,22,10.1.1.11,59350,4464,5792,0,66432,66608,6,6,4,1448,214,1,996,240,33304,0,66608,0,0,0,1
o,0xf6ddfea8,1556708862.068803,10.1.1.67,22,10.1.1.11,59350,4464,5792,0,66560,66608,6,6,4,1448,214,1,997,240,33304,0,66608,0,0,0,1
i,0x88e6810c,1556708862.069081,10.1.1.67,22,10.1.1.11,59350,4464,5792,0,66560,66608,6,6,4,1448,214,1,996,240,33304,0,66608,0,0,0,1
o,0x269deabe,1556708862.069116,10.1.1.67,22,10.1.1.11,59350,4464,5792,0,66560,66608,6,6,4,1448,214,1,16778212,240,33304,52,66608,0,0,0,1
i,0xeff95029,1556708862.076964,10.1.1.67,22,10.1.1.11,59350,4464,5792,0,66560,66608,6,6,4,1448,214,1,16778212,240,33304,52,66608,0,52,0,1
o,0xf2b3a109,1556708862.077172,10.1.1.67,22,10.1.1.11,59350,4464,5792,0,66560,66608,6,6,4,1448,220,1,16778212,233,33304,88,66608,0,0,0,1
o,0x21f9cd36,1556708862.082805,10.1.1.67,22,10.1.1.11,59350,4464,5792,0,66560,66608,6,6,4,1448,220,1,16778212,233,33304,124,66608,0,88,0,1
o,0x3bfc072f,1556708862.082867,10.1.1.67,22,10.1.1.11,59350,4464,5792,0,66560,66608,6,6,4,1448,220,1,16778212,233,33304,228,66608,0,124,0,1
i,0x42055e09,1556708862.083135,10.1.1.67,22,10.1.1.11,59350,4464,5792,0,66560,66608,6,6,4,1448,220,1,16778212,233,33304,228,66608,0,228,0,1
i,0x1a1badf5,1556708862.083637,10.1.1.67,22,10.1.1.11,59350,4464,5792,0,66560,66608,6,6,4,1448,217,1,996,230,33304,104,66608,0,104,0,1
o,0x860d0149,1556708862.189803,10.1.1.67,22,10.1.1.11,59350,4464,5792,0,66560,66608,6,6,4,1448,194,1,997,230,33304,0,66608,0,0,0,1
i,0x0dd8348b,1556708862.190117,10.1.1.67,22,10.1.1.11,59350,4464,5792,0,66560,66608,6,6,4,1448,194,1,996,230,33304,0,66608,0,0,0,1
o,0xb095e9d8,1556708862.190160,10.1.1.67,22,10.1.1.11,59350,4464,5792,0,66560,66608,6,6,4,1448,194,1,16778212,230,33304,52,66608,0,0,0,1
i,0xed1a3e69,1556708862.197621,10.1.1.67,22,10.1.1.11,59350,4464,5792,0,66560,66608,6,6,4,1448,194,1,16778212,230,33304,52,66608,0,52,0,1
o,0xabd71fd3,1556708862.197700,10.1.1.67,22,10.1.1.11,59350,4464,5792,0,66560,66608,6,6,4,1448,202,1,16778212,230,33304,36,66608,0,0,0,9
i,0xc259b6ca,1556708862.198304,10.1.1.67,22,10.1.1.11,59350,4464,5792,0,66560,66608,6,6,4,1448,202,1,16778212,230,33304,36,66608,0,36,0,9
o,0xe4ce3a06,1556708862.198496,10.1.1.67,22,10.1.1.11,59350,4464,5792,0,66560,66608,6,6,4,1448,177,1,16778212,230,33304,88,66608,0,0,0,1
o,0x9d38fa19,1556708862.203916,10.1.1.67,22,10.1.1.11,59350,4464,5792,0,66560,66608,6,6,4,1448,177,1,16778212,230,33304,140,66608,0,88,0,1
i,0xfe9b0b28,1556708862.204178,10.1.1.67,22,10.1.1.11,59350,4464,5792,0,66560,66608,6,6,4,1448,177,1,16778212,230,33304,140,66608,0,140,0,1
o,0x9f671cd7,1556708862.304708,10.1.1.67,22,10.1.1.11,59350,4464,5792,0,66496,66608,6,6,4,1448,179,1,16778212,230,33304,52,66608,0,0,0,1
o,0xf1003c91,1556708862.305042,10.1.1.67,22,10.1.1.11,59350,4464,5792,0,66496,66608,6,6,4,1448,179,1,16778212,230,33304,192,66608,0,52,0,1
i,0x2fe1a149,1556708862.305306,10.1.1.67,22,10.1.1.11,59350,4464,5792,0,66496,66608,6,6,4,1448,179,1,16778212,230,33304,192,66608,0,192,0,1
i,0x5802a7b1,1556708862.305708,10.1.1.67,22,10.1.1.11,59350,4464,5792,0,66432,66608,6,6,4,1448,157,1,996,230,33304,0,66608,0,0,0,1
o,0x2fdea009,1556708862.406575,10.1.1.67,22,10.1.1.11,59350,4464,5792,0,66560,66608,6,6,4,1448,157,1,997,230,33304,0,66608,0,0,0,1
i,0x5d58a70d,1556708862.406822,10.1.1.67,22,10.1.1.11,59350,4464,5792,0,66560,66608,6,6,4,1448,157,1,996,230,33304,0,66608,0,0,0,1
o,0x1d04b278,1556708862.406856,10.1.1.67,22,10.1.1.11,59350,4464,5792,0,66560,66608,6,6,4,1448,157,1,16778212,230,33304,52,66608,0,0,0,1
i,0xf5c9dfe9,1556708862.417559,10.1.1.67,22,10.1.1.11,59350,4464,5792,0,66560,66608,6,6,4,1448,157,1,16778212,230,33304,52,66608,0,52,0,1
o,0x8e8262eb,1556708862.417764,10.1.1.67,22,10.1.1.11,59350,4464,5792,0,66560,66608,6,6,4,1448,178,1,16778212,230,33304,88,66608,0,0,0,1
o,0xb1295273,1556708862.423384,10.1.1.67,22,10.1.1.11,59350,4464,5792,0,66560,66608,6,6,4,1448,178,1,16778212,230,33304,124,66608,0,88,0,1
o,0x0c7906f0,1556708862.423444,10.1.1.67,22,10.1.1.11,59350,4464,5792,0,66560,66608,6,6,4,1448,178,1,16778212,230,33304,228,66608,0,124,0,1
i,0x9d0b3009,1556708862.423648,10.1.1.67,22,10.1.1.11,59350,4464,5792,0,66560,66608,6,6,4,1448,178,1,16778212,230,33304,228,66608,0,228,0,1
i,0x8a3edc91,1556708862.424033,10.1.1.67,22,10.1.1.11,59350,4464,5792,0,66560,66608,6,6,4,1448,180,1,996,230,33304,104,66608,0,104,0,2
o,0x1b446b68,1556708862.529804,10.1.1.67,22,10.1.1.11,59350,4464,5792,0,66560,66608,6,6,4,1448,162,1,997,230,33304,0,66608,0,0,0,2
i,0xccb00e13,1556708862.530056,10.1.1.67,22,10.1.1.11,59350,4464,5792,0,66560,66608,6,6,4,1448,162,1,996,230,33304,0,66608,0,0,0,2
o,0x4025adc9,1556708862.633569,10.1.1.67,22,10.1.1.11,59350,4464,5792,0,66560,66608,6,6,4,1448,162,1,997,230,33304,0,66608,0,0,0,2
#o,0x2ed3c5d5,1556708866.857083,172.16.11.67,57286,172.16.10.65,5000,1073725440,1073725440,0,0,0,0,0,2,536,0,1,672,3000,1048576,0,1048576,0,0,0,0
#i,0xbcc757d2,1556708866.898657,172.16.11.67,57286,172.16.10.65,5000,1073725440,1073725440,0,0,0,0,0,2,536,0,1,672,3000,1048576,0,1048576,0,1,0,0
o,0x93c15fdd,1556708866.898665,172.16.11.67,57286,172.16.10.65,5000,1073725440,14480,0,65535,1049800,6,6,4,1448,1376,1,16778209,329,1049800,0,1049800,0,0,0,0
o,0xe5ed297d,1556708866.898680,172.16.11.67,57286,172.16.10.65,5000,1073725440,14480,0,65535,1049800,6,6,4,1448,1376,1,16778208,329,1049800,28,1049800,0,0,0,0
o,0x9faf7f06,1556708866.898709,172.16.11.67,57286,172.16.10.65,5000,1073725440,14480,0,65535,1049800,6,6,4,1448,1376,1,16778208,329,1049800,131100,1049800,0,28,0,0
o,0x4a45aa64,1556708866.898713,172.16.11.67,57286,172.16.10.65,5000,1073725440,14480,0,65535,1049800,6,6,4,1448,1376,1,16778208,329,1049800,131100,1049800,0,1476,0,0
o,0x5f4244e4,1556708866.898717,172.16.11.67,57286,172.16.10.65,5000,1073725440,14480,0,65535,1049800,6,6,4,1448,1376,1,16778208,329,1049800,131100,1049800,0,2924,0,0
o,0x0d592a64,1556708866.898720,172.16.11.67,57286,172.16.10.65,5000,1073725440,14480,0,65535,1049800,6,6,4,1448,1376,1,16778208,329,1049800,131100,1049800,0,4372,0,0
o,0x14190da4,1556708866.898723,172.16.11.67,57286,172.16.10.65,5000,1073725440,14480,0,65535,1049800,6,6,4,1448,1376,1,16778208,329,1049800,131100,1049800,0,5820,0,0
o,0x0e419524,1556708866.898727,172.16.11.67,57286,172.16.10.65,5000,1073725440,14480,0,65535,1049800,6,6,4,1448,1376,1,16778208,329,1049800,131100,1049800,0,7268,0,0
o,0xda6524a4,1556708866.898730,172.16.11.67,57286,172.16.10.65,5000,1073725440,14480,0,65535,1049800,6,6,4,1448,1376,1,16778208,329,1049800,131100,1049800,0,8716,0,0
o,0xdfff31e4,1556708866.898734,172.16.11.67,57286,172.16.10.65,5000,1073725440,14480,0,65535,1049800,6,6,4,1448,1376,1,16778208,329,1049800,131100,1049800,0,10164,0,0
o,0x8e161764,1556708866.898737,172.16.11.67,57286,172.16.10.65,5000,1073725440,14480,0,65535,1049800,6,6,4,1448,1376,1,16778208,329,1049800,131100,1049800,0,11612,0,0
i,0xdcf166fc,1556708866.940659,172.16.11.67,57286,172.16.10.65,5000,1073725440,14480,0,65535,1049800,6,6,4,1448,1376,1,16778208,329,1049800,1048604,1049800,0,13060,0,0
i,0x07bda45b,1556708866.942654,172.16.11.67,57286,172.16.10.65,5000,1073725440,14480,0,1049792,1049800,6,6,4,1448,1376,1,16778208,329,1049800,1048604,1049800,0,13060,0,0
o,0x07b303e4,1556708866.942658,172.16.11.67,57286,172.16.10.65,5000,1073725440,15956,0,1048320,1049800,6,6,4,1448,1380,1,16778208,308,1049800,1047128,1049800,0,11584,0,45
o,0xf278fe24,1556708866.942662,172.16.11.67,57286,172.16.10.65,5000,1073725440,15956,0,1048320,1049800,6,6,4,1448,1380,1,16778208,308,1049800,1047128,1049800,0,13032,0,45
o,0xbe9c8da4,1556708866.942666,172.16.11.67,57286,172.16.10.65,5000,1073725440,15956,0,1048320,1049800,6,6,4,1448,1380,1,16778208,308,1049800,1047128,1049800,0,14480,0,45
i,0x2d77ef1b,1556708866.947655,172.16.11.67,57286,172.16.10.65,5000,1073725440,15956,0,1048320,1049800,6,6,4,1448,1380,1,16778208,308,1049800,1049800,1049800,0,15928,0,45
o,0x3bfe5924,1556708866.947658,172.16.11.67,57286,172.16.10.65,5000,1073725440,18852,0,1048320,1049800,6,6,4,1448,1404,1,16778208,299,1049800,1046904,1049800,0,13032,0,50
o,0xdab2b164,1556708866.947661,172.16.11.67,57286,172.16.10.65,5000,1073725440,18852,0,1048320,1049800,6,6,4,1448,1404,1,16778208,299,1049800,1046904,1049800,0,14480,0,50
o,0xf0d521e4,1556708866.947665,172.16.11.67,57286,172.16.10.65,5000,1073725440,18852,0,1048320,1049800,6,6,4,1448,1404,1,16778208,299,1049800,1046904,1049800,0,15928,0,50
o,0xeafda964,1556708866.947669,172.16.11.67,57286,172.16.10.65,5000,1073725440,18852,0,1048320,1049800,6,6,4,1448,1404,1,16778208,299,1049800,1046904,1049800,0,17376,0,50
i,0xb247d51b,1556708866.952655,172.16.11.67,57286,172.16.10.65,5000,1073725440,18852,0,1048320,1049800,6,6,4,1448,1404,1,16778208,299,1049800,1049800,1049800,0,18824,0,50
o,0x1023dca4,1556708866.952658,172.16.11.67,57286,172.16.10.65,5000,1073725440,21748,0,1048320,1049800,6,6,4,1448,1445,1,16778208,296,1049800,1046904,1049800,0,15928,0,55
o,0x25207724,1556708866.952662,172.16.11.67,57286,172.16.10.65,5000,1073725440,21748,0,1048320,1049800,6,6,4,1448,1445,1,16778208,296,1049800,1046904,1049800,0,17376,0,55
o,0xd3375ca4,1556708866.952665,172.16.11.67,57286,172.16.10.65,5000,1073725440,21748,0,1048320,1049800,6,6,4,1448,1445,1,16778208,296,1049800,1046904,1049800,0,18824,0,55
o,0xd9f73fe4,1556708866.952670,172.16.11.67,57286,172.16.10.65,5000,1073725440,21748,0,1048320,1049800,6,6,4,1448,1445,1,16778208,296,1049800,1046904,1049800,0,20272,0,55
i,0x3717bb1b,1556708866.957654,172.16.11.67,57286,172.16.10.65,5000,1073725440,21748,0,1048320,1049800,6,6,4,1448,1445,1,16778208,296,1049800,1049800,1049800,0,21720,0,55
o,0x3c84f864,1556708866.957657,172.16.11.67,57286,172.16.10.65,5000,1073725440,24644,0,1048320,1049800,6,6,4,1448,1501,1,16778208,299,1049800,1046904,1049800,0,18824,0,60
o,0x08a887e4,1556708866.957661,172.16.11.67,57286,172.16.10.65,5000,1073725440,24644,0,1048320,1049800,6,6,4,1448,1501,1,16778208,299,1049800,1046904,1049800,0,20272,0,60
o,0x0e429524,1556708866.957665,172.16.11.67,57286,172.16.10.65,5000,1073725440,24644,0,1048320,1049800,6,6,4,1448,1501,1,16778208,299,1049800,1046904,1049800,0,21720,0,60
o,0xbc597aa4,1556708866.957669,172.16.11.67,57286,172.16.10.65,5000,1073725440,24644,0,1048320,1049800,6,6,4,1448,1501,1,16778208,299,1049800,1046904,1049800,0,23168,0,60
i,0x00075b1b,1556708866.961654,172.16.11.67,57286,172.16.10.65,5000,1073725440,24644,0,1048320,1049800,6,6,4,1448,1501,1,16778208,299,1049800,1049800,1049800,0,24616,0,60
o,0xf2ccdf24,1556708866.961657,172.16.11.67,57286,172.16.10.65,5000,1073725440,27540,0,1048320,1049800,6,6,4,1448,1566,1,16778208,304,1049800,1046904,1049800,0,21720,0,64
o,0xdd92d964,1556708866.961661,172.16.11.67,57286,172.16.10.65,5000,1073725440,27540,0,1048320,1049800,6,6,4,1448,1566,1,16778208,304,1049800,1046904,1049800,0,23168,0,64
o,0xa9b668e4,1556708866.961664,172.16.11.67,57286,172.16.10.65,5000,1073725440,27540,0,1048320,1049800,6,6,4,1448,1566,1,16778208,304,1049800,1046904,1049800,0,24616,0,64
o,0xbeb30364,1556708866.961668,172.16.11.67,57286,172.16.10.65,5000,1073725440,27540,0,1048320,1049800,6,6,4,1448,1566,1,16778208,304,1049800,1046904,1049800,0,26064,0,64
i,0x6dfb109b,1556708866.988655,172.16.11.67,57286,172.16.10.65,5000,1073725440,27540,0,1048320,1049800,6,6,4,1448,1566,1,16778208,304,1049800,1049800,1049800,0,27512,0,64
o,0x174d9ba3,1556708866.988658,172.16.11.67,57286,172.16.10.65,5000,1073725440,30436,0,1048320,1049800,6,6,4,1448,1555,1,16778208,293,1049800,1046904,1049800,0,24616,0,47
o,0xf231b604,1556708866.988662,172.16.11.67,57286,172.16.10.65,5000,1073725440,30436,0,1048320,1049800,6,6,4,1448,1555,1,16778208,293,1049800,1046904,1049800,0,26064,0,47
o,0xec5a3d84,1556708866.988666,172.16.11.67,57286,172.16.10.65,5000,1073725440,30436,0,1048320,1049800,6,6,4,1448,1555,1,16778208,293,1049800,1046904,1049800,0,27512,0,47
o,0xe45995e3,1556708866.988669,172.16.11.67,57286,172.16.10.65,5000,1073725440,30436,0,1048320,1049800,6,6,4,1448,1555,1,16778208,293,1049800,1046904,1049800,0,28960,0,47
i,0x84a969da,1556708866.993655,172.16.11.67,57286,172.16.10.65,5000,1073725440,30436,0,1048320,1049800,6,6,4,1448,1555,1,16778208,293,1049800,1049800,1049800,0,30408,0,47
o,0x267d0b44,1556708866.993657,172.16.11.67,57286,172.16.10.65,5000,1073725440,33332,0,1048320,1049800,6,6,4,1448,1565,1,16778208,285,1049800,1046904,1049800,0,27512,0,47
o,0x006fb9a3,1556708866.993661,172.16.11.67,57286,172.16.10.65,5000,1073725440,33332,0,1048320,1049800,6,6,4,1448,1565,1,16778208,285,1049800,1046904,1049800,0,28960,0,47
o,0x16922a23,1556708866.993665,172.16.11.67,57286,172.16.10.65,5000,1073725440,33332,0,1048320,1049800,6,6,4,1448,1565,1,16778208,285,1049800,1046904,1049800,0,30408,0,47
o,0xd57c5b84,1556708866.993668,172.16.11.67,57286,172.16.10.65,5000,1073725440,33332,0,1048320,1049800,6,6,4,1448,1565,1,16778208,285,1049800,1046904,1049800,0,31856,0,47
i,0x79fe8fda,1556708866.998659,172.16.11.67,57286,172.16.10.65,5000,1073725440,33332,0,1048320,1049800,6,6,4,1448,1565,1,16778208,285,1049800,1049800,1049800,0,33304,0,47
o,0x35e0e4e3,1556708866.998662,172.16.11.67,57286,172.16.10.65,5000,1073725440,36228,0,1048320,1049800,6,6,4,1448,1574,1,16778208,278,1049800,1046904,1049800,0,30408,0,52
o,0xa3889aa4,1556708866.998666,172.16.11.67,57286,172.16.10.65,5000,1073725440,36228,0,1048320,1049800,6,6,4,1448,1574,1,16778208,278,1049800,1046904,1049800,0,31856,0,52
o,0x16612a05,1556708866.998669,172.16.11.67,57286,172.16.10.65,5000,1073725440,36228,0,1048320,1049800,6,6,4,1448,1574,1,16778208,278,1049800,1046904,1049800,0,33304,0,52
o,0x585f6364,1556708866.998673,172.16.11.67,57286,172.16.10.65,5000,1073725440,36228,0,1048320,1049800,6,6,4,1448,1574,1,16778208,278,1049800,1046904,1049800,0,34752,0,52
i,0xfece75da,1556708867.003659,172.16.11.67,57286,172.16.10.65,5000,1073725440,36228,0,1048320,1049800,6,6,4,1448,1574,1,16778208,278,1049800,1049800,1049800,0,36200,0,52
o,0xbaed1be4,1556708867.003661,172.16.11.67,57286,172.16.10.65,5000,1073725440,39124,0,1048320,1049800,6,6,4,1448,1602,1,16778208,279,1049800,1046904,1049800,0,33304,0,52
o,0x4bd25545,1556708867.003665,172.16.11.67,57286,172.16.10.65,5000,1073725440,39124,0,1048320,1049800,6,6,4,1448,1602,1,16778208,279,1049800,1046904,1049800,0,34752,0,52
o,0x8caab8a4,1556708867.003669,172.16.11.67,57286,172.16.10.65,5000,1073725440,39124,0,1048320,1049800,6,6,4,1448,1602,1,16778208,279,1049800,1046904,1049800,0,36200,0,52
o,0x3ac19e24,1556708867.003672,172.16.11.67,57286,172.16.10.65,5000,1073725440,39124,0,1048320,1049800,6,6,4,1448,1602,1,16778208,279,1049800,1046904,1049800,0,37648,0,52
i,0xf66e8c5a,1556708867.007655,172.16.11.67,57286,172.16.10.65,5000,1073725440,39124,0,1048320,1049800,6,6,4,1448,1602,1,16778208,279,1049800,1049800,1049800,0,39096,0,52
o,0x35f6ac85,1556708867.007657,172.16.11.67,57286,172.16.10.65,5000,1073725440,42020,0,1048320,1049800,6,6,4,1448,1622,1,16778208,277,1049800,1046904,1049800,0,36200,0,56
o,0x5bfafce4,1556708867.007661,172.16.11.67,57286,172.16.10.65,5000,1073725440,42020,0,1048320,1049800,6,6,4,1448,1622,1,16778208,277,1049800,1046904,1049800,0,37648,0,56
o,0x281e8c64,1556708867.007665,172.16.11.67,57286,172.16.10.65,5000,1073725440,42020,0,1048320,1049800,6,6,4,1448,1622,1,16778208,277,1049800,1046904,1049800,0,39096,0,56
o,0x01dcd0c5,1556708867.007669,172.16.11.67,57286,172.16.10.65,5000,1073725440,42020,0,1048320,1049800,6,6,4,1448,1622,1,16778208,277,1049800,1046904,1049800,0,40544,0,56
i,0x1c28d71a,1556708867.012654,172.16.11.67,57286,172.16.10.65,5000,1073725440,42020,0,1048320,1049800,6,6,4,1448,1622,1,16778208,277,1049800,1049800,1049800,0,41992,0,56
o,0x4434b024,1556708867.012657,172.16.11.67,57286,172.16.10.65,5000,1073725440,44916,0,1048320,1049800,6,6,4,1448,1660,1,16778208,281,1049800,1046904,1049800,0,39096,0,56
o,0x5a5720a4,1556708867.012661,172.16.11.67,57286,172.16.10.65,5000,1073725440,44916,0,1048320,1049800,6,6,4,1448,1660,1,16778208,281,1049800,1046904,1049800,0,40544,0,56
o,0x19415205,1556708867.012664,172.16.11.67,57286,172.16.10.65,5000,1073725440,44916,0,1048320,1049800,6,6,4,1448,1660,1,16778208,281,1049800,1046904,1049800,0,41992,0,56
o,0x1140aa64,1556708867.012668,172.16.11.67,57286,172.16.10.65,5000,1073725440,44916,0,1048320,1049800,6,6,4,1448,1660,1,16778208,281,1049800,1046904,1049800,0,43440,0,56
i,0x7093985a,1556708867.017656,172.16.11.67,57286,172.16.10.65,5000,1073725440,44916,0,1048320,1049800,6,6,4,1448,1660,1,16778208,281,1049800,1049800,1049800,0,44888,0,56
o,0x8ea275e4,1556708867.017658,172.16.11.67,57286,172.16.10.65,5000,1073725440,47812,0,1048320,1049800,6,6,4,1448,1693,1,16778208,283,1049800,1046904,1049800,0,41992,0,61
o,0x017b0545,1556708867.017662,172.16.11.67,57286,172.16.10.65,5000,1073725440,47812,0,1048320,1049800,6,6,4,1448,1693,1,16778208,283,1049800,1046904,1049800,0,43440,0,61
o,0x43793ea4,1556708867.017666,172.16.11.67,57286,172.16.10.65,5000,1073725440,47812,0,1048320,1049800,6,6,4,1448,1693,1,16778208,283,1049800,1046904,1049800,0,44888,0,61
o,0x3da1c624,1556708867.017669,172.16.11.67,57286,172.16.10.65,5000,1073725440,47812,0,1048320,1049800,6,6,4,1448,1693,1,16778208,283,1049800,1046904,1049800,0,46336,0,61
i,0xf5637e5a,1556708867.022659,172.16.11.67,57286,172.16.10.65,5000,1073725440,47812,0,1048320,1049800,6,6,4,1448,1693,1,16778208,283,1049800,1049800,1049800,0,47784,0,61
o,0x36ec3085,1556708867.022661,172.16.11.67,57286,172.16.10.65,5000,1073725440,50708,0,1048320,1049800,6,6,4,1448,1742,1,16778208,289,1049800,1046904,1049800,0,44888,0,62
o,0x77c493e4,1556708867.022665,172.16.11.67,57286,172.16.10.65,5000,1073725440,50708,0,1048320,1049800,6,6,4,1448,1742,1,16778208,289,1049800,1046904,1049800,0,46336,0,62
o,0x25db7964,1556708867.022668,172.16.11.67,57286,172.16.10.65,5000,1073725440,50708,0,1048320,1049800,6,6,4,1448,1742,1,16778208,289,1049800,1046904,1049800,0,47784,0,62
o,0x00bf93c5,1556708867.022672,172.16.11.67,57286,172.16.10.65,5000,1073725440,50708,0,1048320,1049800,6,6,4,1448,1742,1,16778208,289,1049800,1046904,1049800,0,49232,0,62
i,0x8e00121a,1556708867.027661,172.16.11.67,57286,172.16.10.65,5000,1073725440,50708,0,1048320,1049800,6,6,4,1448,1742,1,16778208,289,1049800,1049800,1049800,0,50680,0,62
o,0x8f291524,1556708867.027664,172.16.11.67,57286,172.16.10.65,5000,1073725440,53604,0,1048320,1049800,6,6,4,1448,1789,1,16778208,294,1049800,1046904,1049800,0,47784,0,67
o,0x5b4ca4a4,1556708867.027668,172.16.11.67,57286,172.16.10.65,5000,1073725440,53604,0,1048320,1049800,6,6,4,1448,1789,1,16778208,294,1049800,1046904,1049800,0,49232,0,67
o,0x350ae905,1556708867.027671,172.16.11.67,57286,172.16.10.65,5000,1073725440,53604,0,1048320,1049800,6,6,4,1448,1789,1,16778208,294,1049800,1046904,1049800,0,50680,0,67
o,0x0efd9764,1556708867.027675,172.16.11.67,57286,172.16.10.65,5000,1073725440,53604,0,1048320,1049800,6,6,4,1448,1789,1,16778208,294,1049800,1046904,1049800,0,52128,0,67
i,0xb6054d5a,1556708867.031656,172.16.11.67,57286,172.16.10.65,5000,1073725440,53604,0,1048320,1049800,6,6,4,1448,1789,1,16778208,294,1049800,1049800,1049800,0,53576,0,67
o,0x4570fbe4,1556708867.031659,172.16.11.67,57286,172.16.10.65,5000,1073725440,56500,0,1048320,1049800,6,6,4,1448,1846,1,16778208,300,1049800,1046904,1049800,0,50680,0,44
o,0x3036f624,1556708867.031663,172.16.11.67,57286,172.16.10.65,5000,1073725440,56500,0,1048320,1049800,6,6,4,1448,1846,1,16778208,300,1049800,1046904,1049800,0,52128,0,44
o,0xfc5a85a4,1556708867.031666,172.16.11.67,57286,172.16.10.65,5000,1073725440,56500,0,1048320,1049800,6,6,4,1448,1846,1,16778208,300,1049800,1046904,1049800,0,53576,0,44
o,0x11572024,1556708867.031670,172.16.11.67,57286,172.16.10.65,5000,1073725440,56500,0,1048320,1049800,6,6,4,1448,1846,1,16778208,300,1049800,1046904,1049800,0,55024,0,44
i,0x3d853a5a,1556708867.036653,172.16.11.67,57286,172.16.10.65,5000,1073725440,56500,0,1048320,1049800,6,6,4,1448,1846,1,16778208,300,1049800,1049800,1049800,0,56472,0,44
o,0x1870a964,1556708867.036656,172.16.11.67,57286,172.16.10.65,5000,1073725440,59396,0,1048320,1049800,6,6,4,1448,1808,1,16778208,298,1049800,1046904,1049800,0,53576,0,49
o,0x2e9319e4,1556708867.036660,172.16.11.67,57286,172.16.10.65,5000,1073725440,59396,0,1048320,1049800,6,6,4,1448,1808,1,16778208,298,1049800,1046904,1049800,0,55024,0,49
o,0x28bba164,1556708867.036663,172.16.11.67,57286,172.16.10.65,5000,1073725440,59396,0,1048320,1049800,6,6,4,1448,1808,1,16778208,298,1049800,1046904,1049800,0,56472,0,49
o,0xe57ca3a4,1556708867.036666,172.16.11.67,57286,172.16.10.65,5000,1073725440,59396,0,1048320,1049800,6,6,4,1448,1808,1,16778208,298,1049800,1046904,1049800,0,57920,0,49
i,0xc255205a,1556708867.041657,172.16.11.67,57286,172.16.10.65,5000,1073725440,59396,0,1048320,1049800,6,6,4,1448,1808,1,16778208,298,1049800,1049800,1049800,0,59368,0,49
o,0x62de6f24,1556708867.041660,172.16.11.67,57286,172.16.10.65,5000,1073725440,62292,0,1048320,1049800,6,6,4,1448,1794,1,16778208,291,1049800,1046904,1049800,0,56472,0,49
o,0x20ce22e3,1556708867.041663,172.16.11.67,57286,172.16.10.65,5000,1073725440,62292,0,1048320,1049800,6,6,4,1448,1794,1,16778208,291,1049800,1046904,1049800,0,57920,0,49
o,0x278e0623,1556708867.041667,172.16.11.67,57286,172.16.10.65,5000,1073725440,62292,0,1048320,1049800,6,6,4,1448,1794,1,16778208,291,1049800,1046904,1049800,0,59368,0,49
o,0x21b68da3,1556708867.041670,172.16.11.67,57286,172.16.10.65,5000,1073725440,62292,0,1048320,1049800,6,6,4,1448,1794,1,16778208,291,1049800,1046904,1049800,0,60816,0,49
i,0x6cae52dc,1556708867.046658,172.16.11.67,57286,172.16.10.65,5000,1073725440,62292,0,1048320,1049800,6,6,4,1448,1794,1,16778208,291,1049800,1049800,1049800,0,62264,0,49
o,0x4174d244,1556708867.046661,172.16.11.67,57286,172.16.10.65,5000,1073725440,65188,0,1048320,1049800,6,6,4,1448,1782,1,16778208,284,1049800,1046904,1049800,0,59368,0,54
o,0x470edf84,1556708867.046665,172.16.11.67,57286,172.16.10.65,5000,1073725440,65188,0,1048320,1049800,6,6,4,1448,1782,1,16778208,284,1049800,1046904,1049800,0,60816,0,54
o,0xf525c504,1556708867.046668,172.16.11.67,57286,172.16.10.65,5000,1073725440,65188,0,1048320,1049800,6,6,4,1448,1782,1,16778208,284,1049800,1046904,1049800,0,62264,0,54
o,0x0b483584,1556708867.046671,172.16.11.67,57286,172.16.10.65,5000,1073725440,65188,0,1048320,1049800,6,6,4,1448,1782,1,16778208,284,1049800,1046904,1049800,0,63712,0,54
i,0x48a1d1bc,1556708867.051658,172.16.11.67,57286,172.16.10.65,5000,1073725440,65188,0,1048320,1049800,6,6,4,1448,1782,1,16778208,284,1049800,1049800,1049800,0,65160,0,54
o,0x5e7360c4,1556708867.051661,172.16.11.67,57286,172.16.10.65,5000,1073725440,68084,0,1048320,1049800,6,6,4,1448,1792,1,16778208,280,1049800,1046904,1049800,0,62264,0,54
o,0x2a96f044,1556708867.051665,172.16.11.67,57286,172.16.10.65,5000,1073725440,68084,0,1048320,1049800,6,6,4,1448,1792,1,16778208,280,1049800,1046904,1049800,0,63712,0,54
o,0x3f938ac4,1556708867.051668,172.16.11.67,57286,172.16.10.65,5000,1073725440,68084,0,1048320,1049800,6,6,4,1448,1792,1,16778208,280,1049800,1046904,1049800,0,65160,0,54
o,0x36f2fe45,1556708867.051672,172.16.11.67,57286,172.16.10.65,5000,1073725440,68084,0,1048320,1049800,6,6,4,1448,1792,1,16778208,280,1049800,1046904,1049800,0,66608,0,54
i,0x4041e83c,1556708867.055656,172.16.11.67,57286,172.16.10.65,5000,1073725440,68084,0,1048320,1049800,6,6,4,1448,1792,1,16778208,280,1049800,1049800,1049800,0,68056,0,54
o,0x6d6662c5,1556708867.055659,172.16.11.67,57286,172.16.10.65,5000,1073725440,70980,0,1048320,1049800,6,6,4,1448,1796,1,16778208,275,1049800,1046904,1049800,0,65160,0,58
o,0x678eea45,1556708867.055662,172.16.11.67,57286,172.16.10.65,5000,1073725440,70980,0,1048320,1049800,6,6,4,1448,1796,1,16778208,275,1049800,1046904,1049800,0,66608,0,58
o,0x244fec85,1556708867.055666,172.16.11.67,57286,172.16.10.65,5000,1073725440,70980,0,1048320,1049800,6,6,4,1448,1796,1,16778208,275,1049800,1046904,1049800,0,68056,0,58
o,0x394c8705,1556708867.055669,172.16.11.67,57286,172.16.10.65,5000,1073725440,70980,0,1048320,1049800,6,6,4,1448,1796,1,16778208,275,1049800,1046904,1049800,0,69504,0,58
i,0x2ac397dd,1556708867.060654,172.16.11.67,57286,172.16.10.65,5000,1073725440,70980,0,1048320,1049800,6,6,4,1448,1796,1,16778208,275,1049800,1049800,1049800,0,70952,0,58
o,0x4fc89d85,1556708867.060657,172.16.11.67,57286,172.16.10.65,5000,1073725440,73876,0,1048320,1049800,6,6,4,1448,1820,1,16778208,277,1049800,1046904,1049800,0,68056,0,58
o,0x568880c5,1556708867.060661,172.16.11.67,57286,172.16.10.65,5000,1073725440,73876,0,1048320,1049800,6,6,4,1448,1820,1,16778208,277,1049800,1046904,1049800,0,69504,0,58
o,0xb5e8bb27,1556708867.060664,172.16.11.67,57286,172.16.10.65,5000,1073725440,73876,0,1048320,1049800,6,6,4,1448,1820,1,16778208,277,1049800,1046904,1049800,0,70952,0,58
o,0xdeb730c5,1556708867.060668,172.16.11.67,57286,172.16.10.65,5000,1073725440,73876,0,1048320,1049800,6,6,4,1448,1820,1,16778208,277,1049800,1046904,1049800,0,72400,0,58
i,0xba66f43c,1556708867.065656,172.16.11.67,57286,172.16.10.65,5000,1073725440,73876,0,1048320,1049800,6,6,4,1448,1820,1,16778208,277,1049800,1049800,1049800,0,73848,0,58
o,0xe5d0ba05,1556708867.065658,172.16.11.67,57286,172.16.10.65,5000,1073725440,76772,0,1048320,1049800,6,6,4,1448,1841,1,16778208,278,1049800,1046904,1049800,0,70952,0,63
o,0xfbf32a85,1556708867.065662,172.16.11.67,57286,172.16.10.65,5000,1073725440,76772,0,1048320,1049800,6,6,4,1448,1841,1,16778208,278,1049800,1046904,1049800,0,72400,0,63
o,0xf61bb205,1556708867.065666,172.16.11.67,57286,172.16.10.65,5000,1073725440,76772,0,1048320,1049800,6,6,4,1448,1841,1,16778208,278,1049800,1046904,1049800,0,73848,0,63
o,0xb2dcb445,1556708867.065669,172.16.11.67,57286,172.16.10.65,5000,1073725440,76772,0,1048320,1049800,6,6,4,1448,1841,1,16778208,278,1049800,1046904,1049800,0,75296,0,63
i,0x3f36da3c,1556708867.070658,172.16.11.67,57286,172.16.10.65,5000,1073725440,76772,0,1048320,1049800,6,6,4,1448,1841,1,16778208,278,1049800,1049800,1049800,0,76744,0,63
o,0x303e7fc5,1556708867.070661,172.16.11.67,57286,172.16.10.65,5000,1073725440,79668,0,1048320,1049800,6,6,4,1448,1879,1,16778208,283,1049800,1046904,1049800,0,73848,0,64
o,0x0a312e24,1556708867.070665,172.16.11.67,57286,172.16.10.65,5000,1073725440,79668,0,1048320,1049800,6,6,4,1448,1879,1,16778208,283,1049800,1046904,1049800,0,75296,0,64
o,0xe5154885,1556708867.070668,172.16.11.67,57286,172.16.10.65,5000,1073725440,79668,0,1048320,1049800,6,6,4,1448,1879,1,16778208,283,1049800,1046904,1049800,0,76744,0,64
o,0xdf3dd005,1556708867.070672,172.16.11.67,57286,172.16.10.65,5000,1073725440,79668,0,1048320,1049800,6,6,4,1448,1879,1,16778208,283,1049800,1046904,1049800,0,78192,0,64
i,0x9c9ad2dd,1556708867.075657,172.16.11.67,57286,172.16.10.65,5000,1073725440,79668,0,1048320,1049800,6,6,4,1448,1879,1,16778208,283,1049800,1049800,1049800,0,79640,0,64
o,0x3fa25964,1556708867.075660,172.16.11.67,57286,172.16.10.65,5000,1073725440,82564,0,1048320,1049800,6,6,4,1448,1917,1,16778208,288,1049800,1046904,1049800,0,76744,0,69
o,0x19609dc5,1556708867.075664,172.16.11.67,57286,172.16.10.65,5000,1073725440,82564,0,1048320,1049800,6,6,4,1448,1917,1,16778208,288,1049800,1046904,1049800,0,78192,0,69
o,0xc7778345,1556708867.075668,172.16.11.67,57286,172.16.10.65,5000,1073725440,82564,0,1048320,1049800,6,6,4,1448,1917,1,16778208,288,1049800,1046904,1049800,0,79640,0,69
o,0x0975bca4,1556708867.075671,172.16.11.67,57286,172.16.10.65,5000,1073725440,82564,0,1048320,1049800,6,6,4,1448,1917,1,16778208,288,1049800,1046904,1049800,0,81088,0,69
i,0xffd8a93c,1556708867.079656,172.16.11.67,57286,172.16.10.65,5000,1073725440,82564,0,1048320,1049800,6,6,4,1448,1917,1,16778208,288,1049800,1049800,1049800,0,82536,0,69
o,0xe8b0e205,1556708867.079659,172.16.11.67,57286,172.16.10.65,5000,1073725440,85460,0,1048320,1049800,6,6,4,1448,1966,1,16778208,295,1049800,1046904,1049800,0,79640,0,68
o,0xb4d47185,1556708867.079663,172.16.11.67,57286,172.16.10.65,5000,1073725440,85460,0,1048320,1049800,6,6,4,1448,1966,1,16778208,295,1049800,1046904,1049800,0,81088,0,68
o,0xf5acd4e4,1556708867.079666,172.16.11.67,57286,172.16.10.65,5000,1073725440,85460,0,1048320,1049800,6,6,4,1448,1966,1,16778208,295,1049800,1046904,1049800,0,82536,0,68
o,0x68856445,1556708867.079670,172.16.11.67,57286,172.16.10.65,5000,1073725440,85460,0,1048320,1049800,6,6,4,1448,1966,1,16778208,295,1049800,1046904,1049800,0,83984,0,68
i,0x54436a7c,1556708867.084653,172.16.11.67,57286,172.16.10.65,5000,1073725440,85460,0,1048320,1049800,6,6,4,1448,1966,1,16778208,295,1049800,1049800,1049800,0,85432,0,68
o,0xe70d05c5,1556708867.084656,172.16.11.67,57286,172.16.10.65,5000,1073725440,88356,0,1048320,1049800,6,6,4,1448,2009,1,16778208,299,1049800,1046904,1049800,0,82536,0,73
o,0x0d115624,1556708867.084660,172.16.11.67,57286,172.16.10.65,5000,1073725440,88356,0,1048320,1049800,6,6,4,1448,2009,1,16778208,299,1049800,1046904,1049800,0,83984,0,73
o,0x9df68f85,1556708867.084663,172.16.11.67,57286,172.16.10.65,5000,1073725440,88356,0,1048320,1049800,6,6,4,1448,2009,1,16778208,299,1049800,1046904,1049800,0,85432,0,73
o,0xb2f32a05,1556708867.084667,172.16.11.67,57286,172.16.10.65,5000,1073725440,88356,0,1048320,1049800,6,6,4,1448,2009,1,16778208,299,1049800,1046904,1049800,0,86880,0,73
i,0x3ec51a1d,1556708867.089655,172.16.11.67,57286,172.16.10.65,5000,1073725440,88356,0,1048320,1049800,6,6,4,1448,2009,1,16778208,299,1049800,1049800,1049800,0,88328,0,73
o,0xf54b0964,1556708867.089658,172.16.11.67,57286,172.16.10.65,5000,1073725440,91252,0,1048320,1049800,6,6,4,1448,2066,1,16778208,306,1049800,1046904,1049800,0,85432,0,73
o,0xd02f23c5,1556708867.089661,172.16.11.67,57286,172.16.10.65,5000,1073725440,91252,0,1048320,1049800,6,6,4,1448,2066,1,16778208,306,1049800,1046904,1049800,0,86880,0,73
o,0xca57ab45,1556708867.089665,172.16.11.67,57286,172.16.10.65,5000,1073725440,91252,0,1048320,1049800,6,6,4,1448,2066,1,16778208,306,1049800,1046904,1049800,0,88328,0,73
o,0xc25703a4,1556708867.089669,172.16.11.67,57286,172.16.10.65,5000,1073725440,91252,0,1048320,1049800,6,6,4,1448,2066,1,16778208,306,1049800,1046904,1049800,0,89776,0,73
i,0xce68767c,1556708867.094659,172.16.11.67,57286,172.16.10.65,5000,1073725440,91252,0,1048320,1049800,6,6,4,1448,2066,1,16778208,306,1049800,1049800,1049800,0,91224,0,73
o,0x047a7905,1556708867.094661,172.16.11.67,57286,172.16.10.65,5000,1073725440,94148,0,1048320,1049800,6,6,4,1448,2116,1,16778208,309,1049800,1046904,1049800,0,88328,0,78
o,0xb2915e85,1556708867.094665,172.16.11.67,57286,172.16.10.65,5000,1073725440,94148,0,1048320,1049800,6,6,4,1448,2116,1,16778208,309,1049800,1046904,1049800,0,89776,0,78
o,0x04686623,1556708867.094669,172.16.11.67,57286,172.16.10.65,5000,1073725440,94148,0,1048320,1049800,6,6,4,1448,2116,1,16778208,309,1049800,1046904,1049800,0,91224,0,78
o,0xc3529784,1556708867.094672,172.16.11.67,57286,172.16.10.65,5000,1073725440,94148,0,1048320,1049800,6,6,4,1448,2116,1,16778208,309,1049800,1046904,1049800,0,92672,0,78
i,0x53385c7c,1556708867.099658,172.16.11.67,57286,172.16.10.65,5000,1073725440,94148,0,1048320,1049800,6,6,4,1448,2116,1,16778208,309,1049800,1049800,1049800,0,94120,0,78
o,0xf7db5804,1556708867.099661,172.16.11.67,57286,172.16.10.65,5000,1073725440,97044,0,1048320,1049800,6,6,4,1448,2180,1,16778208,317,1049800,1046904,1049800,0,91224,0,78
o,0x38b3bb63,1556708867.099664,172.16.11.67,57286,172.16.10.65,5000,1073725440,97044,0,1048320,1049800,6,6,4,1448,2180,1,16778208,317,1049800,1046904,1049800,0,92672,0,78
o,0xab8c4ac4,1556708867.099668,172.16.11.67,57286,172.16.10.65,5000,1073725440,97044,0,1048320,1049800,6,6,4,1448,2180,1,16778208,317,1049800,1046904,1049800,0,94120,0,78
o,0xc1aebb44,1556708867.099672,172.16.11.67,57286,172.16.10.65,5000,1073725440,97044,0,1048320,1049800,6,6,4,1448,2180,1,16778208,317,1049800,1046904,1049800,0,95568,0,78
i,0x4268afdc,1556708867.103656,172.16.11.67,57286,172.16.10.65,5000,1073725440,97044,0,1048320,1049800,6,6,4,1448,2180,1,16778208,317,1049800,1049800,1049800,0,97016,0,78
o,0x0803ffa3,1556708867.103658,172.16.11.67,57286,172.16.10.65,5000,1073725440,99940,0,1048320,1049800,6,6,4,1448,2232,1,16778208,319,1049800,1046904,1049800,0,94120,0,82
o,0x98e93904,1556708867.103662,172.16.11.67,57286,172.16.10.65,5000,1073725440,99940,0,1048320,1049800,6,6,4,1448,2232,1,16778208,319,1049800,1046904,1049800,0,95568,0,82
o,0xade5d384,1556708867.103666,172.16.11.67,57286,172.16.10.65,5000,1073725440,99940,0,1048320,1049800,6,6,4,1448,2232,1,16778208,319,1049800,1046904,1049800,0,97016,0,82
o,0x87d881e3,1556708867.103669,172.16.11.67,57286,172.16.10.65,5000,1073725440,99940,0,1048320,1049800,6,6,4,1448,2232,1,16778208,319,1049800,1046904,1049800,0,98464,0,82
i,0x027130fb,1556708867.108654,172.16.11.67,57286,172.16.10.65,5000,1073725440,99940,0,1048320,1049800,6,6,4,1448,2232,1,16778208,319,1049800,1049800,1049800,0,99912,0,82
o,0x23cce885,1556708867.108657,172.16.11.67,57286,172.16.10.65,5000,1073725440,102836,0,1048320,1049800,6,6,4,1448,2297,1,16778208,325,1049800,1046904,1049800,0,97016,0,82
o,0x49d138e4,1556708867.108660,172.16.11.67,57286,172.16.10.65,5000,1073725440,102836,0,1048320,1049800,6,6,4,1448,2297,1,16778208,325,1049800,1046904,1049800,0,98464,0,82
o,0x15f4c864,1556708867.108664,172.16.11.67,57286,172.16.10.65,5000,1073725440,102836,0,1048320,1049800,6,6,4,1448,2297,1,16778208,325,1049800,1046904,1049800,0,99912,0,82
o,0xefb30cc5,1556708867.108668,172.16.11.67,57286,172.16.10.65,5000,1073725440,102836,0,1048320,1049800,6,6,4,1448,2297,1,16778208,325,1049800,1046904,1049800,0,101360,0,82
i,0x56dbf23b,1556708867.113657,172.16.11.67,57286,172.16.10.65,5000,1073725440,102836,0,1048320,1049800,6,6,4,1448,2297,1,16778208,325,1049800,1049800,1049800,0,102808,0,82
o,0x320aec24,1556708867.113660,172.16.11.67,57286,172.16.10.65,5000,1073725440,105732,0,1048320,1049800,6,6,4,1448,2354,1,16778208,328,1049800,1046904,1049800,0,99912,0,87
o,0x482d5ca4,1556708867.113663,172.16.11.67,57286,172.16.10.65,5000,1073725440,105732,0,1048320,1049800,6,6,4,1448,2354,1,16778208,328,1049800,1046904,1049800,0,101360,0,87
o,0x07178e05,1556708867.113667,172.16.11.67,57286,172.16.10.65,5000,1073725440,105732,0,1048320,1049800,6,6,4,1448,2354,1,16778208,328,1049800,1046904,1049800,0,102808,0,87
o,0xff16e664,1556708867.113671,172.16.11.67,57286,172.16.10.65,5000,1073725440,105732,0,1048320,1049800,6,6,4,1448,2354,1,16778208,328,1049800,1046904,1049800,0,104256,0,87
i,0xdbabd83b,1556708867.118659,172.16.11.67,57286,172.16.10.65,5000,1073725440,105732,0,1048320,1049800,6,6,4,1448,2354,1,16778208,328,1049800,1049800,1049800,0,105704,0,87
o,0x7c78b1e4,1556708867.118662,172.16.11.67,57286,172.16.10.65,5000,1073725440,108628,0,1048320,1049800,6,6,4,1448,2424,1,16778208,334,1049800,1046904,1049800,0,102808,0,88
o,0xef514145,1556708867.118666,172.16.11.67,57286,172.16.10.65,5000,1073725440,108628,0,1048320,1049800,6,6,4,1448,2424,1,16778208,334,1049800,1046904,1049800,0,104256,0,88
o,0x314f7aa4,1556708867.118669,172.16.11.67,57286,172.16.10.65,5000,1073725440,108628,0,1048320,1049800,6,6,4,1448,2424,1,16778208,334,1049800,1046904,1049800,0,105704,0,88
o,0x2b780224,1556708867.118673,172.16.11.67,57286,172.16.10.65,5000,1073725440,108628,0,1048320,1049800,6,6,4,1448,2424,1,16778208,334,1049800,1046904,1049800,0,107152,0,88
i,0x74486bfb,1556708867.123657,172.16.11.67,57286,172.16.10.65,5000,1073725440,108628,0,1048320,1049800,6,6,4,1448,2424,1,16778208,334,1049800,1049800,1049800,0,108600,0,88
o,0x24c26c85,1556708867.123660,172.16.11.67,57286,172.16.10.65,5000,1073725440,111524,0,1048320,1049800,6,6,4,1448,2489,1,16778208,338,1049800,1046904,1049800,0,105704,0,93
o,0x659acfe4,1556708867.123663,172.16.11.67,57286,172.16.10.65,5000,1073725440,111524,0,1048320,1049800,6,6,4,1448,2489,1,16778208,338,1049800,1046904,1049800,0,107152,0,93
o,0x13b1b564,1556708867.123667,172.16.11.67,57286,172.16.10.65,5000,1073725440,111524,0,1048320,1049800,6,6,4,1448,2489,1,16778208,338,1049800,1046904,1049800,0,108600,0,93
o,0xee95cfc5,1556708867.123670,172.16.11.67,57286,172.16.10.65,5000,1073725440,111524,0,1048320,1049800,6,6,4,1448,2489,1,16778208,338,1049800,1046904,1049800,0,110048,0,93
i,0x9c4da73b,1556708867.127656,172.16.11.67,57286,172.16.10.65,5000,1073725440,111524,0,1048320,1049800,6,6,4,1448,2489,1,16778208,338,1049800,1049800,1049800,0,111496,0,93
o,0x34eb1424,1556708867.127658,172.16.11.67,57286,172.16.10.65,5000,1073725440,114420,0,1048320,1049800,6,6,4,1448,2562,1,16778208,343,1049800,1046904,1049800,0,108600,0,92
o,0x010ea3a4,1556708867.127662,172.16.11.67,57286,172.16.10.65,5000,1073725440,114420,0,1048320,1049800,6,6,4,1448,2562,1,16778208,343,1049800,1046904,1049800,0,110048,0,92
o,0xdacce805,1556708867.127666,172.16.11.67,57286,172.16.10.65,5000,1073725440,114420,0,1048320,1049800,6,6,4,1448,2562,1,16778208,343,1049800,1046904,1049800,0,111496,0,92
o,0xb4bf9664,1556708867.127669,172.16.11.67,57286,172.16.10.65,5000,1073725440,114420,0,1048320,1049800,6,6,4,1448,2562,1,16778208,343,1049800,1046904,1049800,0,112944,0,92
i,0xf0b8687b,1556708867.132653,172.16.11.67,57286,172.16.10.65,5000,1073725440,114420,0,1048320,1049800,6,6,4,1448,2562,1,16778208,343,1049800,1049800,1049800,0,114392,0,92
o,0x334737e4,1556708867.132656,172.16.11.67,57286,172.16.10.65,5000,1073725440,117316,0,1048320,1049800,6,6,4,1448,2626,1,16778208,346,1049800,1046904,1049800,0,111496,0,97
o,0xf2316945,1556708867.132660,172.16.11.67,57286,172.16.10.65,5000,1073725440,117316,0,1048320,1049800,6,6,4,1448,2626,1,16778208,346,1049800,1046904,1049800,0,112944,0,97
o,0xea30c1a4,1556708867.132663,172.16.11.67,57286,172.16.10.65,5000,1073725440,117316,0,1048320,1049800,6,6,4,1448,2626,1,16778208,346,1049800,1046904,1049800,0,114392,0,97
o,0xff2d5c24,1556708867.132667,172.16.11.67,57286,172.16.10.65,5000,1073725440,117316,0,1048320,1049800,6,6,4,1448,2626,1,16778208,346,1049800,1046904,1049800,0,115840,0,97
i,0x1672b33b,1556708867.137654,172.16.11.67,57286,172.16.10.65,5000,1073725440,117316,0,1048320,1049800,6,6,4,1448,2626,1,16778208,346,1049800,1049800,1049800,0,117288,0,97
o,0xda6b1c85,1556708867.137657,172.16.11.67,57286,172.16.10.65,5000,1073725440,120212,0,1048320,1049800,6,6,4,1448,2702,1,16778208,351,1049800,1046904,1049800,0,114392,0,97
o,0x1c6955e4,1556708867.137661,172.16.11.67,57286,172.16.10.65,5000,1073725440,120212,0,1048320,1049800,6,6,4,1448,2702,1,16778208,351,1049800,1046904,1049800,0,115840,0,97
o,0xdb538745,1556708867.137664,172.16.11.67,57286,172.16.10.65,5000,1073725440,120212,0,1048320,1049800,6,6,4,1448,2702,1,16778208,351,1049800,1046904,1049800,0,117288,0,97
o,0xa77716c5,1556708867.137668,172.16.11.67,57286,172.16.10.65,5000,1073725440,120212,0,1048320,1049800,6,6,4,1448,2702,1,16778208,351,1049800,1046904,1049800,0,118736,0,97
i,0x6add747b,1556708867.142657,172.16.11.67,57286,172.16.10.65,5000,1073725440,120212,0,1048320,1049800,6,6,4,1448,2702,1,16778208,351,1049800,1049800,1049800,0,120184,0,97
o,0x50b4ab24,1556708867.142660,172.16.11.67,57286,172.16.10.65,5000,1073725440,123108,0,1048320,1049800,6,6,4,1448,2769,1,16778208,353,1049800,1046904,1049800,0,117288,0,102
o,0xfecb90a4,1556708867.142663,172.16.11.67,57286,172.16.10.65,5000,1073725440,123108,0,1048320,1049800,6,6,4,1448,2769,1,16778208,353,1049800,1046904,1049800,0,118736,0,102
o,0xd9afab05,1556708867.142667,172.16.11.67,57286,172.16.10.65,5000,1073725440,123108,0,1048320,1049800,6,6,4,1448,2769,1,16778208,353,1049800,1046904,1049800,0,120184,0,102
o,0xffb3fb64,1556708867.142670,172.16.11.67,57286,172.16.10.65,5000,1073725440,123108,0,1048320,1049800,6,6,4,1448,2769,1,16778208,353,1049800,1046904,1049800,0,121632,0,102
i,0xefad5a7b,1556708867.147659,172.16.11.67,57286,172.16.10.65,5000,1073725440,123108,0,1048320,1049800,6,6,4,1448,2769,1,16778208,353,1049800,1049800,1049800,0,123080,0,102
o,0x343cbbe4,1556708867.147661,172.16.11.67,57286,172.16.10.65,5000,1073725440,126004,0,1048320,1049800,6,6,4,1448,2847,1,16778208,358,1049800,1046904,1049800,0,120184,0,102
o,0x39d6c924,1556708867.147665,172.16.11.67,57286,172.16.10.65,5000,1073725440,126004,0,1048320,1049800,6,6,4,1448,2847,1,16778208,358,1049800,1046904,1049800,0,121632,0,102
o,0xe7edaea4,1556708867.147669,172.16.11.67,57286,172.16.10.65,5000,1073725440,126004,0,1048320,1049800,6,6,4,1448,2847,1,16778208,358,1049800,1046904,1049800,0,123080,0,102
o,0x0de8ed63,1556708867.147672,172.16.11.67,57286,172.16.10.65,5000,1073725440,126004,0,1048320,1049800,6,6,4,1448,2847,1,16778208,358,1049800,1046904,1049800,0,124528,0,102
i,0x8837d5bb,1556708867.151656,172.16.11.67,57286,172.16.10.65,5000,1073725440,126004,0,1048320,1049800,6,6,4,1448,2847,1,16778208,358,1049800,1049800,1049800,0,125976,0,102
o,0x18ffdba3,1556708867.151658,172.16.11.67,57286,172.16.10.65,5000,1073725440,128900,0,1048320,1049800,6,6,4,1448,2912,1,16778208,359,1049800,1046904,1049800,0,123080,0,106
o,0xe5236b23,1556708867.151662,172.16.11.67,57286,172.16.10.65,5000,1073725440,128900,0,1048320,1049800,6,6,4,1448,2912,1,16778208,359,1049800,1046904,1049800,0,124528,0,106
o,0xfa2005a3,1556708867.151665,172.16.11.67,57286,172.16.10.65,5000,1073725440,128900,0,1048320,1049800,6,6,4,1448,2912,1,16778208,359,1049800,1046904,1049800,0,125976,0,106
o,0x98d45de3,1556708867.151669,172.16.11.67,57286,172.16.10.65,5000,1073725440,128900,0,1048320,1049800,6,6,4,1448,2912,1,16778208,359,1049800,1046904,1049800,0,127424,0,106
i,0x0d07bbbb,1556708867.156655,172.16.11.67,57286,172.16.10.65,5000,1073725440,128900,0,1048320,1049800,6,6,4,1448,2912,1,16778208,359,1049800,1049800,1049800,0,128872,0,106
o,0x175bff63,1556708867.156658,172.16.11.67,57286,172.16.10.65,5000,1073725440,131796,0,1048320,1049800,6,6,4,1448,2988,1,16778208,364,1049800,1046904,1049800,0,125976,0,106
o,0xd64630c4,1556708867.156661,172.16.11.67,57286,172.16.10.65,5000,1073725440,131796,0,1048320,1049800,6,6,4,1448,2988,1,16778208,364,1049800,1046904,1049800,0,127424,0,106
o,0xce458923,1556708867.156665,172.16.11.67,57286,172.16.10.65,5000,1073725440,131796,0,1048320,1049800,6,6,4,1448,2988,1,16778208,364,1049800,1046904,1049800,0,128872,0,106
o,0xe34223a3,1556708867.156669,172.16.11.67,57286,172.16.10.65,5000,1073725440,131796,0,1048320,1049800,6,6,4,1448,2988,1,16778208,364,1049800,1046904,1049800,0,130320,0,106
i,0x7d5d7abc,1556708867.161655,172.16.11.67,57286,172.16.10.65,5000,1073725440,131796,0,1048320,1049800,6,6,4,1448,2988,1,16778208,364,1049800,1049800,1049800,0,131768,0,106
o,0xf9be3a23,1556708867.161658,172.16.11.67,57286,172.16.10.65,5000,1073725440,134692,0,1048320,1049800,6,6,4,1448,3055,1,16778208,365,1049800,1046904,1049800,0,128872,0,111
o,0x592938a4,1556708867.161662,172.16.11.67,57286,172.16.10.65,5000,1073725440,134692,0,1048320,1049800,6,6,4,1448,3055,1,16778208,365,1049800,1046904,1049800,0,130320,0,111
o,0x5351c024,1556708867.161666,172.16.11.67,57286,172.16.10.65,5000,1073725440,134692,0,1048320,1049800,6,6,4,1448,3055,1,16778208,365,1049800,1046904,1049800,0,131768,0,111
o,0xe436f985,1556708867.161669,172.16.11.67,57286,172.16.10.65,5000,1073725440,134692,0,1048320,1049800,6,6,4,1448,3055,1,16778208,365,1049800,1046904,1049800,0,133216,0,111
i,0xa317c57c,1556708867.166659,172.16.11.67,57286,172.16.10.65,5000,1073725440,134692,0,1048320,1049800,6,6,4,1448,3055,1,16778208,365,1049800,1049800,1049800,0,134664,0,111
o,0x8d748de4,1556708867.166662,172.16.11.67,57286,172.16.10.65,5000,1073725440,137588,0,1048320,1049800,6,6,4,1448,3134,1,16778208,370,1049800,1046904,1049800,0,131768,0,112
o,0x3b8b7364,1556708867.166665,172.16.11.67,57286,172.16.10.65,5000,1073725440,137588,0,1048320,1049800,6,6,4,1448,3134,1,16778208,370,1049800,1046904,1049800,0,133216,0,112
o,0x51ade3e4,1556708867.166669,172.16.11.67,57286,172.16.10.65,5000,1073725440,137588,0,1048320,1049800,6,6,4,1448,3134,1,16778208,370,1049800,1046904,1049800,0,134664,0,112
o,0x3c73de24,1556708867.166673,172.16.11.67,57286,172.16.10.65,5000,1073725440,137588,0,1048320,1049800,6,6,4,1448,3134,1,16778208,370,1049800,1046904,1049800,0,136112,0,112
i,0x9ac9f47c,1556708867.171657,172.16.11.67,57286,172.16.10.65,5000,1073725440,137588,0,1048320,1049800,6,6,4,1448,3134,1,16778208,370,1049800,1049800,1049800,0,137560,0,112
o,0x70fc9ea4,1556708867.171659,172.16.11.67,57286,172.16.10.65,5000,1073725440,140484,0,1048320,1049800,6,6,4,1448,3207,1,16778208,372,1049800,1046904,1049800,0,134664,0,117
o,0xcc271d06,1556708867.171663,172.16.11.67,57286,172.16.10.65,5000,1073725440,140484,0,1048320,1049800,6,6,4,1448,3207,1,16778208,372,1049800,1046904,1049800,0,136112,0,117
o,0xe7b60064,1556708867.171667,172.16.11.67,57286,172.16.10.65,5000,1073725440,140484,0,1048320,1049800,6,6,4,1448,3207,1,16778208,372,1049800,1046904,1049800,0,137560,0,117
o,0xe1de87e4,1556708867.171670,172.16.11.67,57286,172.16.10.65,5000,1073725440,140484,0,1048320,1049800,6,6,4,1448,3207,1,16778208,372,1049800,1046904,1049800,0,139008,0,117
i,0xc2cf2fbc,1556708867.175654,172.16.11.67,57286,172.16.10.65,5000,1073725440,140484,0,1048320,1049800,6,6,4,1448,3207,1,16778208,372,1049800,1049800,1049800,0,140456,0,117
o,0x9314b545,1556708867.175657,172.16.11.67,57286,172.16.10.65,5000,1073725440,143380,0,1048320,1049800,6,6,4,1448,3287,1,16778208,377,1049800,1046904,1049800,0,137560,0,116
o,0xd3ed18a4,1556708867.175661,172.16.11.67,57286,172.16.10.65,5000,1073725440,143380,0,1048320,1049800,6,6,4,1448,3287,1,16778208,377,1049800,1046904,1049800,0,139008,0,116
o,0x8203fe24,1556708867.175664,172.16.11.67,57286,172.16.10.65,5000,1073725440,143380,0,1048320,1049800,6,6,4,1448,3287,1,16778208,377,1049800,1046904,1049800,0,140456,0,116
o,0x5ce81885,1556708867.175668,172.16.11.67,57286,172.16.10.65,5000,1073725440,143380,0,1048320,1049800,6,6,4,1448,3287,1,16778208,377,1049800,1046904,1049800,0,141904,0,116
i,0xb82455bc,1556708867.180655,172.16.11.67,57286,172.16.10.65,5000,1073725440,143380,0,1048320,1049800,6,6,4,1448,3287,1,16778208,377,1049800,1049800,1049800,0,143352,0,116
o,0xeb5199e4,1556708867.180657,172.16.11.67,57286,172.16.10.65,5000,1073725440,146276,0,1048320,1049800,6,6,4,1448,3357,1,16778208,378,1049800,1046904,1049800,0,140456,0,121
o,0xb7752964,1556708867.180661,172.16.11.67,57286,172.16.10.65,5000,1073725440,146276,0,1048320,1049800,6,6,4,1448,3357,1,16778208,378,1049800,1046904,1049800,0,141904,0,121
o,0x91336dc5,1556708867.180665,172.16.11.67,57286,172.16.10.65,5000,1073725440,146276,0,1048320,1049800,6,6,4,1448,3357,1,16778208,378,1049800,1046904,1049800,0,143352,0,121
o,0x6b261c24,1556708867.180668,172.16.11.67,57286,172.16.10.65,5000,1073725440,146276,0,1048320,1049800,6,6,4,1448,3357,1,16778208,378,1049800,1046904,1049800,0,144800,0,121
i,0x3cf43bbc,1556708867.185654,172.16.11.67,57286,172.16.10.65,5000,1073725440,146276,0,1048320,1049800,6,6,4,1448,3357,1,16778208,378,1049800,1047880,1049800,0,146248,0,121
o,0xe9adbda4,1556708867.185656,172.16.11.67,57286,172.16.10.65,5000,1073725440,149172,0,1048320,1049800,6,6,4,1448,3438,1,16778208,382,1049800,1044984,1049800,0,143352,0,121
o,0xd473b7e4,1556708867.185660,172.16.11.67,57286,172.16.10.65,5000,1073725440,149172,0,1048320,1049800,6,6,4,1448,3438,1,16778208,382,1049800,1044984,1049800,0,144800,0,121
o,0xa0974764,1556708867.185664,172.16.11.67,57286,172.16.10.65,5000,1073725440,149172,0,1048320,1049800,6,6,4,1448,3438,1,16778208,382,1049800,1044984,1049800,0,146248,0,121
o,0xb593e1e4,1556708867.185667,172.16.11.67,57286,172.16.10.65,5000,1073725440,149172,0,1048320,1049800,6,6,4,1448,3438,1,16778208,382,1049800,1044984,1049800,0,147696,0,121
i,0xcc97981b,1556708867.190658,172.16.11.67,57286,172.16.10.65,5000,1073725440,149172,0,1048320,1049800,6,6,4,1448,3438,1,16778208,382,1049800,1049800,1049800,0,149144,0,121
o,0xf7ebc143,1556708867.190660,172.16.11.67,57286,172.16.10.65,5000,1073725440,152068,0,1048320,1049800,6,6,4,1448,3509,1,16778208,384,1049800,1046904,1049800,0,146248,0,126
o,0xd2cfdba4,1556708867.190664,172.16.11.67,57286,172.16.10.65,5000,1073725440,152068,0,1048320,1049800,6,6,4,1448,3509,1,16778208,384,1049800,1046904,1049800,0,147696,0,126
o,0xccf86324,1556708867.190668,172.16.11.67,57286,172.16.10.65,5000,1073725440,152068,0,1048320,1049800,6,6,4,1448,3509,1,16778208,384,1049800,1046904,1049800,0,149144,0,126
o,0x89b96564,1556708867.190671,172.16.11.67,57286,172.16.10.65,5000,1073725440,152068,0,1048320,1049800,6,6,4,1448,3509,1,16778208,384,1049800,1046904,1049800,0,150592,0,126
i,0x51677e1b,1556708867.195658,172.16.11.67,57286,172.16.10.65,5000,1073725440,152068,0,1048320,1049800,6,6,4,1448,3509,1,16778208,384,1049800,1049800,1049800,0,152040,0,126
o,0x071b30e4,1556708867.195661,172.16.11.67,57286,172.16.10.65,5000,1073725440,154964,0,1048320,1049800,6,6,4,1448,3591,1,16778208,388,1049800,1046904,1049800,0,149144,0,126
o,0xb5321664,1556708867.195665,172.16.11.67,57286,172.16.10.65,5000,1073725440,154964,0,1048320,1049800,6,6,4,1448,3591,1,16778208,388,1049800,1046904,1049800,0,150592,0,126
o,0xbbf1f9a4,1556708867.195669,172.16.11.67,57286,172.16.10.65,5000,1073725440,154964,0,1048320,1049800,6,6,4,1448,3591,1,16778208,388,1049800,1046904,1049800,0,152040,0,126
