enable_time_secs=1556708430	enable_time_usecs=613393	siftrver=1.2.4	hz=1000	tcp_rtt_scale=32	sysname=FreeBSD	sysver=1001000	ipmode=4
o,0xd46d8eda,1556708430.613412,10.1.1.67,22,10.1.1.11,35474,1073725440,20330,0,66560,66608,6,6,4,1448,170,1,16778212,232,33304,208,66608,0,156,0,1
o,0xa884a8fd,1556708430.613419,10.1.1.67,22,10.1.1.11,35474,1073725440,20330,0,66560,66608,6,6,4,1448,170,1,16778212,232,33304,260,66608,0,208,0,1
o,0x7e6a8eef,1556708430.613633,10.1.1.67,22,10.1.1.11,35474,1073725440,20330,0,66560,66608,6,6,4,1448,170,1,16778212,232,33304,296,66608,0,260,0,1
i,0xde983c2a,1556708430.613655,10.1.1.67,22,10.1.1.11,35474,1073725440,20330,0,66560,66608,6,6,4,1448,170,1,16778212,232,33304,296,66608,0,296,0,1
i,0xeed2fe89,1556708430.613660,10.1.1.67,22,10.1.1.11,35474,1073725440,20486,0,66496,66608,6,6,4,1448,177,1,996,230,33304,140,66608,0,140,0,2
o,0x3add7949,1556708430.613788,10.1.1.67,22,10.1.1.11,35474,1073725440,20590,0,66432,66608,6,6,4,1448,159,1,16778212,230,33304,140,66608,0,36,0,2
i,0xa8d8c7aa,1556708430.614035,10.1.1.67,22,10.1.1.11,35474,1073725440,20590,0,66432,66608,6,6,4,1448,159,1,16778212,230,33304,140,66608,0,140,0,2
i,0x470602d2,1556708430.614355,10.1.1.67,22,10.1.1.11,35474,1073725440,20730,0,66496,66608,6,6,4,1448,140,1,996,230,33304,0,66608,0,0,0,1
i,0xa209f4f2,1556708430.627949,10.1.1.67,22,10.1.1.11,35474,1073725440,20730,0,66560,66608,6,6,4,1448,140,1,996,230,33304,0,66608,0,0,0,1
o,0x3e5d758b,1556708430.627953,10.1.1.67,22,10.1.1.11,35474,1073725440,20730,0,66560,66608,6,6,5,1448,140,1,997,230,33304,0,66608,36,0,0,1
o,0x4bf06e0b,1556708430.628083,10.1.1.67,22,10.1.1.11,35474,1073725440,20730,0,66560,66608,6,6,8,1448,140,1,996,230,33304,0,0,0,0,0,1
i,0x6db7cacb,1556708430.628206,10.1.1.67,22,10.1.1.11,35474,1073725440,20730,0,66560,66608,6,6,8,1448,140,1,1012,230,33304,0,0,0,1,0,1
i,0x7e7a5e09,1556708430.693494,10.1.1.67,22,10.1.1.11,16707,1073725440,14481,0,66560,66608,6,6,4,1448,167,1,16778208,232,33304,0,66608,0,0,0,0
o,0x68039c0a,1556708430.697723,10.1.1.67,22,10.1.1.11,16707,1073725440,14481,0,66560,66608,6,6,4,1448,167,1,16778208,232,33304,49,66608,25,0,0,0
o,0x4cec0c47,1556708430.698206,10.1.1.67,22,10.1.1.11,16707,1073725440,14481,0,66560,66608,6,6,4,1448,167,1,16778208,232,33304,1697,66608,0,49,0,0
i,0xf4d572c5,1556708430.698227,10.1.1.67,22,10.1.1.11,16707,1073725440,14481,0,66560,66608,6,6,4,1448,167,1,16778208,232,33304,1697,66608,0,1497,0,0
i,0x10267b29,1556708430.797290,10.1.1.67,22,10.1.1.11,16707,1073725440,14530,0,66560,66608,6,6,4,1448,147,1,992,230,33304,1648,66608,0,1448,0,1
o,0xac793ce5,1556708430.797294,10.1.1.67,22,10.1.1.11,16707,1073725440,15978,0,66560,66608,6,6,4,1448,525,1,16778208,329,33304,200,66608,0,0,0,100
i,0x6d7a88d1,1556708430.809671,10.1.1.67,22,10.1.1.11,16707,1073725440,15978,0,66560,66608,6,6,4,1448,525,1,16778208,329,33304,200,66608,0,200,0,100
o,0x9b329464,1556708430.811613,10.1.1.67,22,10.1.1.11,16707,1073725440,16178,0,66560,66608,6,6,4,1448,512,1,16778208,304,33304,848,66608,0,0,0,14
i,0x89194479,1556708430.827782,10.1.1.67,22,10.1.1.11,16707,1073725440,16178,0,66560,66608,6,6,4,1448,512,1,16778208,304,33304,848,66608,0,848,0,14
o,0x980c4dc9,1556708430.933832,10.1.1.67,22,10.1.1.11,16707,1073725440,17026,0,66560,66608,6,6,4,1448,512,1,993,282,33304,0,66608,0,0,0,17
i,0xcd5f7bbc,1556708430.934079,10.1.1.67,22,10.1.1.11,16707,1073725440,17026,0,66560,66608,6,6,4,1448,512,1,992,282,33304,0,66608,0,0,0,17
o,0xfd1a7abf,1556708430.934099,10.1.1.67,22,10.1.1.11,16707,1073725440,17026,0,66560,66608,6,6,4,1448,512,1,16778208,282,33304,52,66608,0,0,0,17
i,0xbd62f749,1556708430.968914,10.1.1.67,22,10.1.1.11,16707,1073725440,17026,0,66560,66608,6,6,4,1448,512,1,16778208,282,33304,52,66608,0,52,0,17
o,0x22e8a8c3,1556708430.972179,10.1.1.67,22,10.1.1.11,16707,1073725440,17078,0,66560,66608,6,6,4,1448,588,1,16778208,287,33304,68,66608,0,0,0,36
i,0x68cfad3c,1556708430.986445,10.1.1.67,22,10.1.1.11,16707,1073725440,17078,0,66560,66608,6,6,4,1448,588,1,16778208,287,33304,68,66608,0,68,0,36
o,0xbb2ae27c,1556708430.986457,10.1.1.67,22,10.1.1.11,16707,1073725440,17146,0,66560,66608,6,6,4,1448,571,1,16778208,273,33304,52,66608,0,0,0,15
i,0xd4ef17cb,1556708430.986903,10.1.1.67,22,10.1.1.11,16707,1073725440,17146,0,66560,66608,6,6,4,1448,571,1,16778208,273,33304,52,66608,0,52,0,15
o,0xcfafb0a4,1556708430.986943,10.1.1.67,22,10.1.1.11,16707,1073725440,17198,0,66560,66608,6,6,4,1448,504,1,16778208,274,33304,68,66608,0,0,0,2
i,0x4aa0947c,1556708431.006592,10.1.1.67,22,10.1.1.11,16707,1073725440,17198,0,66560,66608,6,6,4,1448,504,1,16778208,274,33304,68,66608,0,68,0,2
o,0x120ec31c,1556708431.006603,10.1.1.67,22,10.1.1.11,16707,1073725440,17266,0,66560,66608,6,6,4,1448,521,1,16778208,264,33304,52,66608,0,0,0,21
i,0xc70c4bef,1556708431.007070,10.1.1.67,22,10.1.1.11,16707,1073725440,17266,0,66560,66608,6,6,4,1448,521,1,16778208,264,33304,52,66608,0,52,0,21
o,0x8badccd5,1556708431.007519,10.1.1.67,22,10.1.1.11,16707,1073725440,17318,0,66560,66608,6,6,4,1448,456,1,16778208,267,33304,100,66608,0,0,0,1
i,0x2a0ff17a,1556708431.007981,10.1.1.67,22,10.1.1.11,16707,1073725440,17318,0,66560,66608,6,6,4,1448,456,1,16778208,267,33304,100,66608,0,100,0,1
o,0xa3b3563b,1556708431.011365,10.1.1.67,22,10.1.1.11,16707,1073725440,17418,0,66560,66608,6,6,4,1448,403,1,16778208,265,33304,52,66608,0,0,0,2
i,0x0bdf1c32,1556708431.011797,10.1.1.67,22,10.1.1.11,16707,1073725440,17418,0,66560,66608,6,6,4,1448,403,1,16778208,265,33304,52,66608,0,52,0,2
o,0x32064094,1556708431.011840,10.1.1.67,22,10.1.1.11,16707,1073725440,17470,0,66560,66608,6,6,4,1448,357,1,16778208,262,33304,36,66608,0,0,0,2
i,0x64256ba5,1556708431.026670,10.1.1.67,22,10.1.1.11,16707,1073725440,17470,0,66560,66608,6,6,4,1448,357,1,16778208,262,33304,36,66608,0,36,0,2
o,0xdcfff198,1556708431.026716,10.1.1.67,22,10.1.1.11,16707,1073725440,17506,0,66560,66608,6,6,4,1448,373,1,16778208,254,33304,52,66608,0,0,0,16
i,0x89d0e648,1556708431.046518,10.1.1.67,22,10.1.1.11,16707,1073725440,17506,0,66560,66608,6,6,4,1448,373,1,16778208,254,33304,52,66608,0,52,0,16
o,0x1397ad50,1556708431.046615,10.1.1.67,22,10.1.1.11,16707,1073725440,17558,0,66560,66608,6,6,4,1448,403,1,16778208,252,33304,36,66608,0,0,0,20
i,0xffb154c0,1556708431.047211,10.1.1.67,22,10.1.1.11,16707,1073725440,17558,0,66560,66608,6,6,4,1448,403,1,16778208,252,33304,36,66608,0,36,0,20
o,0xcb4ba5c6,1556708431.047418,10.1.1.67,22,10.1.1.11,16707,1073725440,17594,0,66560,66608,6,6,4,1448,353,1,16778212,253,33304,88,66608,0,0,0,1
o,0x6a16a85c,1556708431.052979,10.1.1.67,22,10.1.1.11,16707,1073725440,17594,0,66560,66608,6,6,4,1448,353,1,16778212,253,33304,140,66608,0,88,0,1
i,0x5cbcb089,1556708431.053245,10.1.1.67,22,10.1.1.11,16707,1073725440,17594,0,66560,66608,6,6,4,1448,353,1,16778212,253,33304,140,66608,0,140,0,1
o,0xe70a7566,1556708431.054869,10.1.1.67,22,10.1.1.11,16707,1073725440,17734,0,66496,66608,6,6,4,1448,333,1,16778212,247,33304,132,66608,0,0,0,1
o,0x5e204e0b,1556708431.054879,10.1.1.67,22,10.1.1.11,16707,1073725440,17734,0,66496,66608,6,6,4,1448,333,1,16778212,247,33304,216,66608,0,132,0,1
i,0xa2f580c9,1556708431.055124,10.1.1.67,22,10.1.1.11,16707,1073725440,17734,0,66496,66608,6,6,4,1448,333,1,16778212,247,33304,216,66608,0,216,0,1
o,0x52ad20bb,1556708431.159909,10.1.1.67,22,10.1.1.11,16707,1073725440,17950,0,66368,66608,6,6,4,1448,292,1,16778212,247,33304,52,66608,0,0,0,1
o,0x2b97e575,1556708431.160306,10.1.1.67,22,10.1.1.11,16707,1073725440,17950,0,66368,66608,6,6,4,1448,292,1,16778212,247,33304,192,66608,0,52,0,1
i,0x99da866a,1556708431.160564,10.1.1.67,22,10.1.1.11,16707,1073725440,17950,0,66368,66608,6,6,4,1448,292,1,16778212,247,33304,192,66608,0,192,0,1
i,0x5fdf3493,1556708431.160959,10.1.1.67,22,10.1.1.11,16707,1073725440,18142,0,66432,66608,6,6,4,1448,256,1,996,245,33304,0,66608,0,0,0,1
o,0x798174aa,1556708431.266836,10.1.1.67,22,10.1.1.11,16707,1073725440,18142,0,66560,66608,6,6,4,1448,256,1,997,245,33304,0,66608,0,0,0,1
i,0x923bf66e,1556708431.267095,10.1.1.67,22,10.1.1.11,16707,1073725440,18142,0,66560,66608,6,6,4,1448,256,1,996,245,33304,0,66608,0,0,0,1
o,0x34213500,1556708431.267139,10.1.1.67,22,10.1.1.11,16707,1073725440,18142,0,66560,66608,6,6,4,1448,256,1,16778212,245,33304,52,66608,0,0,0,1
i,0x4b543ab0,1556708431.286530,10.1.1.67,22,10.1.1.11,16707,1073725440,18142,0,66560,66608,6,6,4,1448,256,1,16778212,245,33304,52,66608,0,52,0,1
o,0x2af85ddd,1556708431.286740,10.1.1.67,22,10.1.1.11,16707,1073725440,18194,0,66560,66608,6,6,4,1448,300,1,16778212,248,33304,88,66608,0,0,0,1
o,0x0b7f96f2,1556708431.292411,10.1.1.67,22,10.1.1.11,16707,1073725440,18194,0,66560,66608,6,6,4,1448,300,1,16778212,248,33304,124,66608,0,88,0,1
o,0x6fde53a9,1556708431.292476,10.1.1.67,22,10.1.1.11,16707,1073725440,18194,0,66560,66608,6,6,4,1448,300,1,16778212,248,33304,228,66608,0,124,0,1
i,0xb906c02a,1556708431.292666,10.1.1.67,22,10.1.1.11,16707,1073725440,18194,0,66560,66608,6,6,4,1448,300,1,16778212,248,33304,228,66608,0,228,0,1
i,0xb3e8a471,1556708431.293054,10.1.1.67,22,10.1.1.11,16707,1073725440,18318,0,66560,66608,6,6,4,1448,287,1,996,241,33304,104,66608,0,104,0,2
i,0x5d131b75,1556708431.309080,10.1.1.67,22,10.1.1.11,16707,1073725440,18422,0,66560,66608,6,6,4,1448,256,1,996,240,33304,0,66608,0,0,0,2
o,0xc58a4789,1556708431.309083,10.1.1.67,22,10.1.1.11,16707,1073725440,18422,0,66560,66608,6,6,5,1448,256,1,997,240,33304,0,66608,36,0,0,2
o,0xd31d4009,1556708431.309208,10.1.1.67,22,10.1.1.11,16707,1073725440,18422,0,66560,66608,6,6,8,1448,256,1,996,240,33304,0,0,0,0,0,2
i,0x52540889,1556708431.309456,10.1.1.67,22,10.1.1.11,16707,1073725440,18422,0,66560,66608,6,6,8,1448,256,1,1012,240,33304,0,0,0,1,0,2
i,0x6286f585,1556708432.297220,10.1.1.67,22,10.1.1.11,20407,1073725440,66590,0,66560,66608,6,6,4,1448,150,1,996,230,74264,0,66608,0,0,0,1
o,0xa6f529f8,1556708432.297258,10.1.1.67,22,10.1.1.11,20407,1073725440,66590,0,66560,66608,6,6,4,1448,150,1,16778212,230,74264,52,66608,0,0,0,1
i,0xaffcfb66,1556708432.316448,10.1.1.67,22,10.1.1.11,20407,1073725440,66590,0,66560,66608,6,6,4,1448,150,1,16778212,230,74264,52,66608,0,52,0,1
o,0x2f30f80c,1556708432.316537,10.1.1.67,22,10.1.1.11,20407,1073725440,66590,0,66560,66608,6,6,4,1448,208,1,16778212,238,74264,36,66608,0,0,0,20
i,0xc910aebf,1556708432.317125,10.1.1.67,22,10.1.1.11,20407,1073725440,66590,0,66560,66608,6,6,4,1448,208,1,16778212,238,74264,36,66608,0,36,0,20
o,0x7740bf85,1556708432.317349,10.1.1.67,22,10.1.1.11,20407,1073725440,66590,0,66560,66608,6,6,4,1448,186,1,16778212,235,74264,88,66608,0,0,0,2
o,0x0ccf8fb9,1556708432.322891,10.1.1.67,22,10.1.1.11,20407,1073725440,66590,0,66560,66608,6,6,4,1448,186,1,16778212,235,74264,140,66608,0,88,0,2
i,0xb2a367a8,1556708432.323219,10.1.1.67,22,10.1.1.11,20407,1073725440,66590,0,66560,66608,6,6,4,1448,186,1,16778212,235,74264,140,66608,0,140,0,2
o,0x1d4de67a,1556708432.423733,10.1.1.67,22,10.1.1.11,20407,1073725440,66590,0,66496,66608,6,6,4,1448,187,1,16778212,230,74264,52,66608,0,0,0,1
o,0x65447674,1556708432.424083,10.1.1.67,22,10.1.1.11,20407,1073725440,66590,0,66496,66608,6,6,4,1448,187,1,16778212,230,74264,192,66608,0,52,0,1
i,0xf3ad5707,1556708432.424344,10.1.1.67,22,10.1.1.11,20407,1073725440,66590,0,66496,66608,6,6,4,1448,187,1,16778212,230,74264,192,66608,0,192,0,1
i,0x79d96811,1556708432.424694,10.1.1.67,22,10.1.1.11,20407,1073725440,66590,0,66432,66608,6,6,4,1448,164,1,996,230,74264,0,66608,0,0,0,1
o,0xfe84a068,1556708432.530833,10.1.1.67,22,10.1.1.11,20407,1073725440,66590,0,66560,66608,6,6,4,1448,164,1,997,230,74264,0,66608,0,0,0,1
i,0x2dae0a2a,1556708432.531088,10.1.1.67,22,10.1.1.11,20407,1073725440,66590,0,66560,66608,6,6,4,1448,164,1,996,230,74264,0,66608,0,0,0,1
o,0xd4cc027c,1556708432.531123,10.1.1.67,22,10.1.1.11,20407,1073725440,66590,0,66560,66608,6,6,4,1448,164,1,16778212,230,74264,52,66608,0,0,0,1
i,0xba20d98e,1556708432.556447,10.1.1.67,22,10.1.1.11,20407,1073725440,66590,0,66560,66608,6,6,4,1448,164,1,16778212,230,74264,52,66608,0,52,0,1
o,0x46d34b62,1556708432.556655,10.1.1.67,22,10.1.1.11,20407,1073725440,66590,0,66560,66608,6,6,4,1448,244,1,16778212,244,74264,88,66608,0,0,0,1
o,0x6498c68f,1556708432.562325,10.1.1.67,22,10.1.1.11,20407,1073725440,66590,0,66560,66608,6,6,4,1448,244,1,16778212,244,74264,124,66608,0,88,0,1
o,0xc27e43cd,1556708432.562386,10.1.1.67,22,10.1.1.11,20407,1073725440,66590,0,66560,66608,6,6,4,1448,244,1,16778212,244,74264,228,66608,0,124,0,1
i,0xa4db2207,1556708432.562589,10.1.1.67,22,10.1.1.11,20407,1073725440,66590,0,66560,66608,6,6,4,1448,244,1,16778212,244,74264,228,66608,0,228,0,1
i,0xbf9c70b1,1556708432.562999,10.1.1.67,22,10.1.1.11,20407,1073725440,66590,0,66560,66608,6,6,4,1448,238,1,996,236,74264,104,66608,0,104,0,2
o,0x81d5d8e8,1556708432.666098,10.1.1.67,22,10.1.1.11,20407,1073725440,66590,0,66560,66608,6,6,4,1448,213,1,997,235,74264,0,66608,0,0,0,2
i,0xbaccaeea,1556708432.666395,10.1.1.67,22,10.1.1.11,20407,1073725440,66590,0,66560,66608,6,6,4,1448,213,1,996,235,74264,0,66608,0,0,0,2
o,0xeaf63219,1556708432.666435,10.1.1.67,22,10.1.1.11,20407,1073725440,66590,0,66560,66608,6,6,4,1448,213,1,16778212,235,74264,52,66608,0,0,0,2
i,0xa988cc0a,1556708432.686642,10.1.1.67,22,10.1.1.11,20407,1073725440,66590,0,66560,66608,6,6,4,1448,213,1,16778212,235,74264,52,66608,0,52,0,2
o,0x975cbbb3,1556708432.686726,10.1.1.67,22,10.1.1.11,20407,1073725440,66590,0,66560,66608,6,6,4,1448,271,1,16778212,244,74264,36,66608,0,0,0,22
i,0x070cf1ce,1556708432.687322,10.1.1.67,22,10.1.1.11,20407,1073725440,66590,0,66560,66608,6,6,4,1448,271,1,16778212,244,74264,36,66608,0,36,0,22
o,0x501e900b,1556708432.687520,10.1.1.67,22,10.1.1.11,20407,1073725440,66590,0,66560,66608,6,6,4,1448,238,1,16778212,242,74264,88,66608,0,0,0,1
o,0x5d87657c,1556708432.692977,10.1.1.67,22,10.1.1.11,20407,1073725440,66590,0,66560,66608,6,6,4,1448,238,1,16778212,242,74264,140,66608,0,88,0,1
i,0xb096c249,1556708432.693242,10.1.1.67,22,10.1.1.11,20407,1073725440,66590,0,66560,66608,6,6,4,1448,238,1,16778212,242,74264,140,66608,0,140,0,1
o,0xa895ac3e,1556708432.793743,10.1.1.67,22,10.1.1.11,20407,1073725440,66590,0,66496,66608,6,6,4,1448,233,1,16778212,235,74264,52,66608,0,0,0,1
o,0xe4619b7d,1556708432.794081,10.1.1.67,22,10.1.1.11,20407,1073725440,66590,0,66496,66608,6,6,4,1448,233,1,16778212,235,74264,192,66608,0,52,0,1
i,0xe8b991e8,1556708432.794341,10.1.1.67,22,10.1.1.11,20407,1073725440,66590,0,66496,66608,6,6,4,1448,233,1,16778212,235,74264,192,66608,0,192,0,1
i,0xb72913d1,1556708432.794672,10.1.1.67,22,10.1.1.11,20407,1073725440,66590,0,66432,66608,6,6,4,1448,204,1,996,234,74264,0,66608,0,0,0,1
o,0x4ec026a8,1556708432.900833,10.1.1.67,22,10.1.1.11,20407,1073725440,66590,0,66560,66608,6,6,4,1448,204,1,997,234,74264,0,66608,0,0,0,1
i,0x8ba5a8ea,1556708432.901095,10.1.1.67,22,10.1.1.11,20407,1073725440,66590,0,66560,66608,6,6,4,1448,204,1,996,234,74264,0,66608,0,0,0,1
o,0x6e4ef958,1556708432.901134,10.1.1.67,22,10.1.1.11,20407,1073725440,66590,0,66560,66608,6,6,4,1448,204,1,16778212,234,74264,52,66608,0,0,0,1
i,0x0fae90ea,1556708432.927493,10.1.1.67,22,10.1.1.11,20407,1073725440,66590,0,66560,66608,6,6,4,1448,204,1,16778212,234,74264,52,66608,0,52,0,1
o,0x392c2ec0,1556708432.927704,10.1.1.67,22,10.1.1.11,20407,1073725440,66590,0,66560,66608,6,6,4,1448,283,1,16778212,249,74264,88,66608,0,0,0,1
o,0xddfbb111,1556708432.933373,10.1.1.67,22,10.1.1.11,20407,1073725440,66590,0,66560,66608,6,6,4,1448,283,1,16778212,249,74264,124,66608,0,88,0,1
o,0x713cc14b,1556708432.933434,10.1.1.67,22,10.1.1.11,20407,1073725440,66590,0,66560,66608,6,6,4,1448,283,1,16778212,249,74264,228,66608,0,124,0,1
i,0x30dc76e8,1556708432.933643,10.1.1.67,22,10.1.1.11,20407,1073725440,66590,0,66560,66608,6,6,4,1448,283,1,16778212,249,74264,228,66608,0,228,0,1
i,0xb9be20f3,1556708432.934018,10.1.1.67,22,10.1.1.11,20407,1073725440,66590,0,66560,66608,6,6,4,1448,272,1,996,242,74264,104,66608,0,104,0,2
o,0x3578b2a8,1556708433.039832,10.1.1.67,22,10.1.1.11,20407,1073725440,66590,0,66560,66608,6,6,4,1448,242,1,997,240,74264,0,66608,0,0,0,2
i,0xd1233ad1,1556708433.040085,10.1.1.67,22,10.1.1.11,20407,1073725440,66590,0,66560,66608,6,6,4,1448,242,1,996,240,74264,0,66608,0,0,0,2
o,0xc6fa10a8,1556708433.145832,10.1.1.67,22,10.1.1.11,20407,1073725440,66590,0,66560,66608,6,6,4,1448,242,1,997,240,74264,0,66608,0,0,0,2
o,0x160a7db5,1556708437.366055,172.16.11.67,13943,172.16.10.65,5000,1073725440,1073725440,0,0,0,0,0,2,536,0,1,672,3000,1048576,0,1048576,0,0,0,0
i,0xefefae52,1556708437.467186,172.16.11.67,13943,172.16.10.65,5000,1073725440,1073725440,0,0,0,0,0,2,536,0,1,672,3000,1048576,0,1048576,0,1,0,0
o,0x5e4e1f5d,1556708437.467192,172.16.11.67,13943,172.16.10.65,5000,1073725440,14480,0,65535,1049800,6,6,4,1448,3264,1,16778209,506,1049800,0,1049800,0,0,0,0
o,0x5d2428fd,1556708437.467211,172.16.11.67,13943,172.16.10.65,5000,1073725440,14480,0,65535,1049800,6,6,4,1448,3264,1,16778208,506,1049800,28,1049800,0,0,0,0
o,0x27cb6867,1556708437.467242,172.16.11.67,13943,172.16.10.65,5000,1073725440,14480,0,65535,1049800,6,6,4,1448,3264,1,16778208,506,1049800,131100,1049800,0,28,0,0
o,0x0d9fe9e4,1556708437.467247,172.16.11.67,13943,172.16.10.65,5000,1073725440,14480,0,65535,1049800,6,6,4,1448,3264,1,16778208,506,1049800,131100,1049800,0,1476,0,0
o,0x229c8464,1556708437.467251,172.16.11.67,13943,172.16.10.65,5000,1073725440,14480,0,65535,1049800,6,6,4,1448,3264,1,16778208,506,1049800,131100,1049800,0,2924,0,0
o,0x957513c5,1556708437.467254,172.16.11.67,13943,172.16.10.65,5000,1073725440,14480,0,65535,1049800,6,6,4,1448,3264,1,16778208,506,1049800,131100,1049800,0,4372,0,0
o,0xd7734d24,1556708437.467258,172.16.11.67,13943,172.16.10.65,5000,1073725440,14480,0,65535,1049800,6,6,4,1448,3264,1,16778208,506,1049800,131100,1049800,0,5820,0,0
o,0xd19bd4a4,1556708437.467261,172.16.11.67,13943,172.16.10.65,5000,1073725440,14480,0,65535,1049800,6,6,4,1448,3264,1,16778208,506,1049800,131100,1049800,0,7268,0,0
o,0x62810e05,1556708437.467265,172.16.11.67,13943,172.16.10.65,5000,1073725440,14480,0,65535,1049800,6,6,4,1448,3264,1,16778208,506,1049800,131100,1049800,0,8716,0,0
o,0xa3597164,1556708437.467268,172.16.11.67,13943,172.16.10.65,5000,1073725440,14480,0,65535,1049800,6,6,4,1448,3264,1,16778208,506,1049800,131100,1049800,0,10164,0,0
o,0x517056e4,1556708437.467272,172.16.11.67,13943,172.16.10.65,5000,1073725440,14480,0,65535,1049800,6,6,4,1448,3264,1,16778208,506,1049800,131100,1049800,0,11612,0,0
i,0x4775725d,1556708437.569184,172.16.11.67,13943,172.16.10.65,5000,1073725440,14480,0,65535,1049800,6,6,4,1448,3264,1,16778208,506,1049800,1048604,1049800,0,13060,0,0
i,0xad7a4adb,1556708437.571182,172.16.11.67,13943,172.16.10.65,5000,1073725440,14480,0,1049792,1049800,6,6,4,1448,3264,1,16778208,506,1049800,1048604,1049800,0,13060,0,0
o,0xafcb8f64,1556708437.571186,172.16.11.67,13943,172.16.10.65,5000,1073725440,15956,0,1048320,1049800,6,6,4,1448,3272,1,16778208,457,1049800,1047128,1049800,0,11584,0,105
o,0xd5cfdfc3,1556708437.571190,172.16.11.67,13943,172.16.10.65,5000,1073725440,15956,0,1048320,1049800,6,6,4,1448,3272,1,16778208,457,1049800,1047128,1049800,0,13032,0,105
o,0x66b51924,1556708437.571194,172.16.11.67,13943,172.16.10.65,5000,1073725440,15956,0,1048320,1049800,6,6,4,1448,3272,1,16778208,457,1049800,1047128,1049800,0,14480,0,105
i,0x97fbfa7c,1556708437.576184,172.16.11.67,13943,172.16.10.65,5000,1073725440,15956,0,1048320,1049800,6,6,4,1448,3272,1,16778208,457,1049800,1049800,1049800,0,15928,0,105
o,0xe416e4a4,1556708437.576187,172.16.11.67,13943,172.16.10.65,5000,1073725440,18852,0,1048320,1049800,6,6,4,1448,3299,1,16778208,426,1049800,1046904,1049800,0,13032,0,110
o,0xbe099303,1556708437.576191,172.16.11.67,13943,172.16.10.65,5000,1073725440,18852,0,1048320,1049800,6,6,4,1448,3299,1,16778208,426,1049800,1046904,1049800,0,14480,0,110
o,0x98edad64,1556708437.576195,172.16.11.67,13943,172.16.10.65,5000,1073725440,18852,0,1048320,1049800,6,6,4,1448,3299,1,16778208,426,1049800,1046904,1049800,0,15928,0,110
o,0x931634e4,1556708437.576198,172.16.11.67,13943,172.16.10.65,5000,1073725440,18852,0,1048320,1049800,6,6,4,1448,3299,1,16778208,426,1049800,1046904,1049800,0,17376,0,110
i,0xe9e2eeda,1556708437.581183,172.16.11.67,13943,172.16.10.65,5000,1073725440,18852,0,1048320,1049800,6,6,4,1448,3299,1,16778208,426,1049800,1049800,1049800,0,18824,0,110
o,0xf37abe43,1556708437.581187,172.16.11.67,13943,172.16.10.65,5000,1073725440,21748,0,1048320,1049800,6,6,4,1448,3343,1,16778208,407,1049800,1046904,1049800,0,15928,0,115
o,0xcd3902a4,1556708437.581190,172.16.11.67,13943,172.16.10.65,5000,1073725440,21748,0,1048320,1049800,6,6,4,1448,3343,1,16778208,407,1049800,1046904,1049800,0,17376,0,115
o,0x8b28b663,1556708437.581194,172.16.11.67,13943,172.16.10.65,5000,1073725440,21748,0,1048320,1049800,6,6,4,1448,3343,1,16778208,407,1049800,1046904,1049800,0,18824,0,115
o,0xcd26efc2,1556708437.581197,172.16.11.67,13943,172.16.10.65,5000,1073725440,21748,0,1048320,1049800,6,6,4,1448,3343,1,16778208,407,1049800,1046904,1049800,0,20272,0,115
i,0x6eb2d4da,1556708437.586183,172.16.11.67,13943,172.16.10.65,5000,1073725440,21748,0,1048320,1049800,6,6,4,1448,3343,1,16778208,407,1049800,1049800,1049800,0,21720,0,115
o,0xf4765223,1556708437.586186,172.16.11.67,13943,172.16.10.65,5000,1073725440,24644,0,1048320,1049800,6,6,4,1448,3402,1,16778208,398,1049800,1046904,1049800,0,18824,0,120
o,0xc099e1a3,1556708437.586189,172.16.11.67,13943,172.16.10.65,5000,1073725440,24644,0,1048320,1049800,6,6,4,1448,3402,1,16778208,398,1049800,1046904,1049800,0,20272,0,120
o,0x01724502,1556708437.586193,172.16.11.67,13943,172.16.10.65,5000,1073725440,24644,0,1048320,1049800,6,6,4,1448,3402,1,16778208,398,1049800,1046904,1049800,0,21720,0,120
o,0x744ad463,1556708437.586196,172.16.11.67,13943,172.16.10.65,5000,1073725440,24644,0,1048320,1049800,6,6,4,1448,3402,1,16778208,398,1049800,1046904,1049800,0,23168,0,120
i,0xfc69d9bb,1556708437.590183,172.16.11.67,13943,172.16.10.65,5000,1073725440,24644,0,1048320,1049800,6,6,4,1448,3402,1,16778208,398,1049800,1049800,1049800,0,24616,0,120
o,0xaabe38e3,1556708437.590185,172.16.11.67,13943,172.16.10.65,5000,1073725440,27540,0,1048320,1049800,6,6,4,1448,3469,1,16778208,394,1049800,1046904,1049800,0,21720,0,124
o,0xd0c28942,1556708437.590189,172.16.11.67,13943,172.16.10.65,5000,1073725440,27540,0,1048320,1049800,6,6,4,1448,3469,1,16778208,394,1049800,1046904,1049800,0,23168,0,124
o,0x61a7c2a3,1556708437.590192,172.16.11.67,13943,172.16.10.65,5000,1073725440,27540,0,1048320,1049800,6,6,4,1448,3469,1,16778208,394,1049800,1046904,1049800,0,24616,0,124
o,0x76a45d23,1556708437.590196,172.16.11.67,13943,172.16.10.65,5000,1073725440,27540,0,1048320,1049800,6,6,4,1448,3469,1,16778208,394,1049800,1046904,1049800,0,26064,0,124
i,0x2058765a,1556708437.677184,172.16.11.67,13943,172.16.10.65,5000,1073725440,27540,0,1048320,1049800,6,6,4,1448,3469,1,16778208,394,1049800,1049800,1049800,0,27512,0,124
o,0xfccf8e64,1556708437.677187,172.16.11.67,13943,172.16.10.65,5000,1073725440,30436,0,1048320,1049800,6,6,4,1448,3460,1,16778208,374,1049800,1046904,1049800,0,24616,0,107
o,0x12f1fee4,1556708437.677191,172.16.11.67,13943,172.16.10.65,5000,1073725440,30436,0,1048320,1049800,6,6,4,1448,3460,1,16778208,374,1049800,1046904,1049800,0,26064,0,107
o,0x0d1a8664,1556708437.677195,172.16.11.67,13943,172.16.10.65,5000,1073725440,30436,0,1048320,1049800,6,6,4,1448,3460,1,16778208,374,1049800,1046904,1049800,0,27512,0,107
o,0xc9db88a4,1556708437.677198,172.16.11.67,13943,172.16.10.65,5000,1073725440,30436,0,1048320,1049800,6,6,4,1448,3460,1,16778208,374,1049800,1046904,1049800,0,28960,0,107
i,0xe060f779,1556708437.682183,172.16.11.67,13943,172.16.10.65,5000,1073725440,30436,0,1048320,1049800,6,6,4,1448,3460,1,16778208,374,1049800,1049800,1049800,0,30408,0,107
o,0x473d5424,1556708437.682186,172.16.11.67,13943,172.16.10.65,5000,1073725440,33332,0,1048320,1049800,6,6,4,1448,3472,1,16778208,361,1049800,1046904,1049800,0,27512,0,107
o,0x21300283,1556708437.682190,172.16.11.67,13943,172.16.10.65,5000,1073725440,33332,0,1048320,1049800,6,6,4,1448,3472,1,16778208,361,1049800,1046904,1049800,0,28960,0,107
o,0xfc141ce4,1556708437.682193,172.16.11.67,13943,172.16.10.65,5000,1073725440,33332,0,1048320,1049800,6,6,4,1448,3472,1,16778208,361,1049800,1046904,1049800,0,30408,0,107
o,0xf63ca464,1556708437.682197,172.16.11.67,13943,172.16.10.65,5000,1073725440,33332,0,1048320,1049800,6,6,4,1448,3472,1,16778208,361,1049800,1046904,1049800,0,31856,0,107
i,0x9a7d825a,1556708437.687183,172.16.11.67,13943,172.16.10.65,5000,1073725440,33332,0,1048320,1049800,6,6,4,1448,3472,1,16778208,361,1049800,1049800,1049800,0,33304,0,107
o,0x56a12dc3,1556708437.687186,172.16.11.67,13943,172.16.10.65,5000,1073725440,36228,0,1048320,1049800,6,6,4,1448,3482,1,16778208,351,1049800,1046904,1049800,0,30408,0,112
o,0x305f7224,1556708437.687190,172.16.11.67,13943,172.16.10.65,5000,1073725440,36228,0,1048320,1049800,6,6,4,1448,3482,1,16778208,351,1049800,1046904,1049800,0,31856,0,112
o,0xde7657a4,1556708437.687193,172.16.11.67,13943,172.16.10.65,5000,1073725440,36228,0,1048320,1049800,6,6,4,1448,3482,1,16778208,351,1049800,1046904,1049800,0,33304,0,112
o,0x20749103,1556708437.687197,172.16.11.67,13943,172.16.10.65,5000,1073725440,36228,0,1048320,1049800,6,6,4,1448,3482,1,16778208,351,1049800,1046904,1049800,0,34752,0,112
i,0x5a860379,1556708437.692184,172.16.11.67,13943,172.16.10.65,5000,1073725440,36228,0,1048320,1049800,6,6,4,1448,3482,1,16778208,351,1049800,1049800,1049800,0,36200,0,112
o,0x47c3f364,1556708437.692186,172.16.11.67,13943,172.16.10.65,5000,1073725440,39124,0,1048320,1049800,6,6,4,1448,3511,1,16778208,348,1049800,1046904,1049800,0,33304,0,112
o,0x13e782e4,1556708437.692190,172.16.11.67,13943,172.16.10.65,5000,1073725440,39124,0,1048320,1049800,6,6,4,1448,3511,1,16778208,348,1049800,1046904,1049800,0,34752,0,112
o,0x54bfe643,1556708437.692194,172.16.11.67,13943,172.16.10.65,5000,1073725440,39124,0,1048320,1049800,6,6,4,1448,3511,1,16778208,348,1049800,1046904,1049800,0,36200,0,112
o,0xc79875a4,1556708437.692197,172.16.11.67,13943,172.16.10.65,5000,1073725440,39124,0,1048320,1049800,6,6,4,1448,3511,1,16778208,348,1049800,1046904,1049800,0,37648,0,112
i,0x522619f9,1556708437.696186,172.16.11.67,13943,172.16.10.65,5000,1073725440,39124,0,1048320,1049800,6,6,4,1448,3511,1,16778208,348,1049800,1049800,1049800,0,39096,0,112
o,0xfe0bda24,1556708437.696188,172.16.11.67,13943,172.16.10.65,5000,1073725440,42020,0,1048320,1049800,6,6,4,1448,3533,1,16778208,345,1049800,1046904,1049800,0,36200,0,116
o,0x24102a83,1556708437.696192,172.16.11.67,13943,172.16.10.65,5000,1073725440,42020,0,1048320,1049800,6,6,4,1448,3533,1,16778208,345,1049800,1046904,1049800,0,37648,0,116
o,0xb4f563e4,1556708437.696196,172.16.11.67,13943,172.16.10.65,5000,1073725440,42020,0,1048320,1049800,6,6,4,1448,3533,1,16778208,345,1049800,1046904,1049800,0,39096,0,116
o,0xc9f1fe64,1556708437.696200,172.16.11.67,13943,172.16.10.65,5000,1073725440,42020,0,1048320,1049800,6,6,4,1448,3533,1,16778208,345,1049800,1046904,1049800,0,40544,0,116
i,0x3ca7c99a,1556708437.701167,172.16.11.67,13943,172.16.10.65,5000,1073725440,42020,0,1048320,1049800,6,6,4,1448,3533,1,16778208,345,1049800,1049800,1049800,0,41992,0,116
o,0x0c49ddc3,1556708437.701170,172.16.11.67,13943,172.16.10.65,5000,1073725440,44916,0,1048320,1049800,6,6,4,1448,3572,1,16778208,347,1049800,1046904,1049800,0,39096,0,116
o,0xe72df824,1556708437.701174,172.16.11.67,13943,172.16.10.65,5000,1073725440,44916,0,1048320,1049800,6,6,4,1448,3572,1,16778208,347,1049800,1046904,1049800,0,40544,0,116
o,0xe1567fa4,1556708437.701177,172.16.11.67,13943,172.16.10.65,5000,1073725440,44916,0,1048320,1049800,6,6,4,1448,3572,1,16778208,347,1049800,1046904,1049800,0,41992,0,116
o,0xd955d803,1556708437.701181,172.16.11.67,13943,172.16.10.65,5000,1073725440,44916,0,1048320,1049800,6,6,4,1448,3572,1,16778208,347,1049800,1046904,1049800,0,43440,0,116
i,0xcc4b25f9,1556708437.706183,172.16.11.67,13943,172.16.10.65,5000,1073725440,44916,0,1048320,1049800,6,6,4,1448,3572,1,16778208,347,1049800,1049800,1049800,0,44888,0,116
o,0x1b794d64,1556708437.706185,172.16.11.67,13943,172.16.10.65,5000,1073725440,47812,0,1048320,1049800,6,6,4,1448,3606,1,16778208,348,1049800,1046904,1049800,0,41992,0,121
o,0xc99032e4,1556708437.706189,172.16.11.67,13943,172.16.10.65,5000,1073725440,47812,0,1048320,1049800,6,6,4,1448,3606,1,16778208,348,1049800,1046904,1049800,0,43440,0,121
o,0x0b8e6c43,1556708437.706193,172.16.11.67,13943,172.16.10.65,5000,1073725440,47812,0,1048320,1049800,6,6,4,1448,3606,1,16778208,348,1049800,1046904,1049800,0,44888,0,121
o,0xca789da4,1556708437.706196,172.16.11.67,13943,172.16.10.65,5000,1073725440,47812,0,1048320,1049800,6,6,4,1448,3606,1,16778208,348,1049800,1046904,1049800,0,46336,0,121
i,0x511b0bf9,1556708437.711184,172.16.11.67,13943,172.16.10.65,5000,1073725440,47812,0,1048320,1049800,6,6,4,1448,3606,1,16778208,348,1049800,1049800,1049800,0,47784,0,121
o,0xff015e24,1556708437.711187,172.16.11.67,13943,172.16.10.65,5000,1073725440,50708,0,1048320,1049800,6,6,4,1448,3656,1,16778208,353,1049800,1046904,1049800,0,44888,0,122
o,0x3fd9c183,1556708437.711191,172.16.11.67,13943,172.16.10.65,5000,1073725440,50708,0,1048320,1049800,6,6,4,1448,3656,1,16778208,353,1049800,1046904,1049800,0,46336,0,122
o,0xb2b250e4,1556708437.711194,172.16.11.67,13943,172.16.10.65,5000,1073725440,50708,0,1048320,1049800,6,6,4,1448,3656,1,16778208,353,1049800,1046904,1049800,0,47784,0,122
o,0xc8d4c164,1556708437.711198,172.16.11.67,13943,172.16.10.65,5000,1073725440,50708,0,1048320,1049800,6,6,4,1448,3656,1,16778208,353,1049800,1046904,1049800,0,49232,0,122
i,0xae7f049a,1556708437.716183,172.16.11.67,13943,172.16.10.65,5000,1073725440,50708,0,1048320,1049800,6,6,4,1448,3656,1,16778208,353,1049800,1049800,1049800,0,50680,0,122
o,0x573e42c3,1556708437.716186,172.16.11.67,13943,172.16.10.65,5000,1073725440,53604,0,1048320,1049800,6,6,4,1448,3703,1,16778208,356,1049800,1046904,1049800,0,47784,0,127
o,0xe8237c24,1556708437.716189,172.16.11.67,13943,172.16.10.65,5000,1073725440,53604,0,1048320,1049800,6,6,4,1448,3703,1,16778208,356,1049800,1046904,1049800,0,49232,0,127
o,0xfd2016a4,1556708437.716193,172.16.11.67,13943,172.16.10.65,5000,1073725440,53604,0,1048320,1049800,6,6,4,1448,3703,1,16778208,356,1049800,1046904,1049800,0,50680,0,127
o,0xe6eb9342,1556708437.716196,172.16.11.67,13943,172.16.10.65,5000,1073725440,53604,0,1048320,1049800,6,6,4,1448,3703,1,16778208,356,1049800,1046904,1049800,0,52128,0,127
i,0x3a2f301b,1556708437.781184,172.16.11.67,13943,172.16.10.65,5000,1073725440,53604,0,1048320,1049800,6,6,4,1448,3703,1,16778208,356,1049800,1049800,1049800,0,53576,0,127
o,0x356704e3,1556708437.781187,172.16.11.67,13943,172.16.10.65,5000,1073725440,56500,0,1048320,1049800,6,6,4,1448,4005,1,16778208,431,1049800,1046904,1049800,0,50680,0,105
o,0x202cff23,1556708437.781190,172.16.11.67,13943,172.16.10.65,5000,1073725440,56500,0,1048320,1049800,6,6,4,1448,4005,1,16778208,431,1049800,1046904,1049800,0,52128,0,105
o,0xec508ea3,1556708437.781194,172.16.11.67,13943,172.16.10.65,5000,1073725440,56500,0,1048320,1049800,6,6,4,1448,4005,1,16778208,431,1049800,1046904,1049800,0,53576,0,105
o,0x014d2923,1556708437.781198,172.16.11.67,13943,172.16.10.65,5000,1073725440,56500,0,1048320,1049800,6,6,4,1448,4005,1,16778208,431,1049800,1046904,1049800,0,55024,0,105
i,0x41b8c8fc,1556708437.786184,172.16.11.67,13943,172.16.10.65,5000,1073725440,56500,0,1048320,1049800,6,6,4,1448,4005,1,16778208,431,1049800,1049800,1049800,0,56472,0,105
o,0x0866b263,1556708437.786186,172.16.11.67,13943,172.16.10.65,5000,1073725440,59396,0,1048320,1049800,6,6,4,1448,3941,1,16778208,419,1049800,1046904,1049800,0,53576,0,110
o,0x1e8922e3,1556708437.786190,172.16.11.67,13943,172.16.10.65,5000,1073725440,59396,0,1048320,1049800,6,6,4,1448,3941,1,16778208,419,1049800,1046904,1049800,0,55024,0,110
o,0x18b1aa63,1556708437.786194,172.16.11.67,13943,172.16.10.65,5000,1073725440,59396,0,1048320,1049800,6,6,4,1448,3941,1,16778208,419,1049800,1046904,1049800,0,56472,0,110
o,0xd572aca3,1556708437.786197,172.16.11.67,13943,172.16.10.65,5000,1073725440,59396,0,1048320,1049800,6,6,4,1448,3941,1,16778208,419,1049800,1046904,1049800,0,57920,0,110
i,0xa4f69f5b,1556708437.790188,172.16.11.67,13943,172.16.10.65,5000,1073725440,59396,0,1048320,1049800,6,6,4,1448,3941,1,16778208,419,1049800,1049800,1049800,0,59368,0,110
o,0x0ac03b23,1556708437.790190,172.16.11.67,13943,172.16.10.65,5000,1073725440,62292,0,1048320,1049800,6,6,4,1448,3901,1,16778208,403,1049800,1046904,1049800,0,56472,0,109
o,0xb8d720a3,1556708437.790194,172.16.11.67,13943,172.16.10.65,5000,1073725440,62292,0,1048320,1049800,6,6,4,1448,3901,1,16778208,403,1049800,1046904,1049800,0,57920,0,109
o,0x18421f24,1556708437.790198,172.16.11.67,13943,172.16.10.65,5000,1073725440,62292,0,1048320,1049800,6,6,4,1448,3901,1,16778208,403,1049800,1046904,1049800,0,59368,0,109
o,0x126aa6a4,1556708437.790201,172.16.11.67,13943,172.16.10.65,5000,1073725440,62292,0,1048320,1049800,6,6,4,1448,3901,1,16778208,403,1049800,1046904,1049800,0,60816,0,109
i,0x5f132a3c,1556708437.795187,172.16.11.67,13943,172.16.10.65,5000,1073725440,62292,0,1048320,1049800,6,6,4,1448,3901,1,16778208,403,1049800,1049800,1049800,0,62264,0,109
o,0x46f36724,1556708437.795190,172.16.11.67,13943,172.16.10.65,5000,1073725440,65188,0,1048320,1049800,6,6,4,1448,3866,1,16778208,391,1049800,1046904,1049800,0,59368,0,114
o,0x4c8d7464,1556708437.795193,172.16.11.67,13943,172.16.10.65,5000,1073725440,65188,0,1048320,1049800,6,6,4,1448,3866,1,16778208,391,1049800,1046904,1049800,0,60816,0,114
o,0xfaa459e4,1556708437.795197,172.16.11.67,13943,172.16.10.65,5000,1073725440,65188,0,1048320,1049800,6,6,4,1448,3866,1,16778208,391,1049800,1046904,1049800,0,62264,0,114
o,0x10c6ca64,1556708437.795201,172.16.11.67,13943,172.16.10.65,5000,1073725440,65188,0,1048320,1049800,6,6,4,1448,3866,1,16778208,391,1049800,1046904,1049800,0,63712,0,114
i,0xe3e3103c,1556708437.800184,172.16.11.67,13943,172.16.10.65,5000,1073725440,65188,0,1048320,1049800,6,6,4,1448,3866,1,16778208,391,1049800,1049800,1049800,0,65160,0,114
o,0x63f1f5a4,1556708437.800186,172.16.11.67,13943,172.16.10.65,5000,1073725440,68084,0,1048320,1049800,6,6,4,1448,3855,1,16778208,375,1049800,1046904,1049800,0,62264,0,114
o,0x30158524,1556708437.800190,172.16.11.67,13943,172.16.10.65,5000,1073725440,68084,0,1048320,1049800,6,6,4,1448,3855,1,16778208,375,1049800,1046904,1049800,0,63712,0,114
o,0x45121fa4,1556708437.800194,172.16.11.67,13943,172.16.10.65,5000,1073725440,68084,0,1048320,1049800,6,6,4,1448,3855,1,16778208,375,1049800,1046904,1049800,0,65160,0,114
o,0xe3c677e4,1556708437.800198,172.16.11.67,13943,172.16.10.65,5000,1073725440,68084,0,1048320,1049800,6,6,4,1448,3855,1,16778208,375,1049800,1046904,1049800,0,66608,0,114
i,0x73866c9b,1556708437.805184,172.16.11.67,13943,172.16.10.65,5000,1073725440,68084,0,1048320,1049800,6,6,4,1448,3855,1,16778208,375,1049800,1049800,1049800,0,68056,0,114
o,0x624e1964,1556708437.805187,172.16.11.67,13943,172.16.10.65,5000,1073725440,70980,0,1048320,1049800,6,6,4,1448,3846,1,16778208,364,1049800,1046904,1049800,0,65160,0,119
o,0x5c76a0e4,1556708437.805191,172.16.11.67,13943,172.16.10.65,5000,1073725440,70980,0,1048320,1049800,6,6,4,1448,3846,1,16778208,364,1049800,1046904,1049800,0,66608,0,119
o,0x1937a324,1556708437.805194,172.16.11.67,13943,172.16.10.65,5000,1073725440,70980,0,1048320,1049800,6,6,4,1448,3846,1,16778208,364,1049800,1046904,1049800,0,68056,0,119
o,0x2e343da4,1556708437.805198,172.16.11.67,13943,172.16.10.65,5000,1073725440,70980,0,1048320,1049800,6,6,4,1448,3846,1,16778208,364,1049800,1046904,1049800,0,69504,0,119
i,0x5e081c3c,1556708437.810184,172.16.11.67,13943,172.16.10.65,5000,1073725440,70980,0,1048320,1049800,6,6,4,1448,3846,1,16778208,364,1049800,1049800,1049800,0,70952,0,119
o,0x44b05424,1556708437.810187,172.16.11.67,13943,172.16.10.65,5000,1073725440,73876,0,1048320,1049800,6,6,4,1448,3858,1,16778208,356,1049800,1046904,1049800,0,68056,0,119
o,0x4b703764,1556708437.810191,172.16.11.67,13943,172.16.10.65,5000,1073725440,73876,0,1048320,1049800,6,6,4,1448,3858,1,16778208,356,1049800,1046904,1049800,0,69504,0,119
o,0xaad071c6,1556708437.810194,172.16.11.67,13943,172.16.10.65,5000,1073725440,73876,0,1048320,1049800,6,6,4,1448,3858,1,16778208,356,1049800,1046904,1049800,0,70952,0,119
o,0xd39ee764,1556708437.810198,172.16.11.67,13943,172.16.10.65,5000,1073725440,73876,0,1048320,1049800,6,6,4,1448,3858,1,16778208,356,1049800,1046904,1049800,0,72400,0,119
i,0x90e0cddb,1556708437.814188,172.16.11.67,13943,172.16.10.65,5000,1073725440,73876,0,1048320,1049800,6,6,4,1448,3858,1,16778208,356,1049800,1049800,1049800,0,73848,0,119
o,0x92a433a4,1556708437.814190,172.16.11.67,13943,172.16.10.65,5000,1073725440,76772,0,1048320,1049800,6,6,4,1448,3864,1,16778208,349,1049800,1046904,1049800,0,70952,0,123
o,0xa8c6a424,1556708437.814194,172.16.11.67,13943,172.16.10.65,5000,1073725440,76772,0,1048320,1049800,6,6,4,1448,3864,1,16778208,349,1049800,1046904,1049800,0,72400,0,123
o,0xa2ef2ba4,1556708437.814198,172.16.11.67,13943,172.16.10.65,5000,1073725440,76772,0,1048320,1049800,6,6,4,1448,3864,1,16778208,349,1049800,1046904,1049800,0,73848,0,123
o,0x5fb02de4,1556708437.814201,172.16.11.67,13943,172.16.10.65,5000,1073725440,76772,0,1048320,1049800,6,6,4,1448,3864,1,16778208,349,1049800,1046904,1049800,0,75296,0,123
i,0x15b0b3db,1556708437.819183,172.16.11.67,13943,172.16.10.65,5000,1073725440,76772,0,1048320,1049800,6,6,4,1448,3864,1,16778208,349,1049800,1049800,1049800,0,76744,0,123
o,0xdd11f964,1556708437.819185,172.16.11.67,13943,172.16.10.65,5000,1073725440,79668,0,1048320,1049800,6,6,4,1448,3889,1,16778208,349,1049800,1046904,1049800,0,73848,0,124
o,0xb704a7c3,1556708437.819189,172.16.11.67,13943,172.16.10.65,5000,1073725440,79668,0,1048320,1049800,6,6,4,1448,3889,1,16778208,349,1049800,1046904,1049800,0,75296,0,124
o,0x91e8c224,1556708437.819193,172.16.11.67,13943,172.16.10.65,5000,1073725440,79668,0,1048320,1049800,6,6,4,1448,3889,1,16778208,349,1049800,1046904,1049800,0,76744,0,124
o,0x8c1149a4,1556708437.819196,172.16.11.67,13943,172.16.10.65,5000,1073725440,79668,0,1048320,1049800,6,6,4,1448,3889,1,16778208,349,1049800,1046904,1049800,0,78192,0,124
i,0x7314ac7c,1556708437.824183,172.16.11.67,13943,172.16.10.65,5000,1073725440,79668,0,1048320,1049800,6,6,4,1448,3889,1,16778208,349,1049800,1049800,1049800,0,79640,0,124
o,0xec75d303,1556708437.824186,172.16.11.67,13943,172.16.10.65,5000,1073725440,82564,0,1048320,1049800,6,6,4,1448,3915,1,16778208,349,1049800,1046904,1049800,0,76744,0,129
o,0xc6341764,1556708437.824189,172.16.11.67,13943,172.16.10.65,5000,1073725440,82564,0,1048320,1049800,6,6,4,1448,3915,1,16778208,349,1049800,1046904,1049800,0,78192,0,129
o,0x744afce4,1556708437.824193,172.16.11.67,13943,172.16.10.65,5000,1073725440,82564,0,1048320,1049800,6,6,4,1448,3915,1,16778208,349,1049800,1046904,1049800,0,79640,0,129
o,0xb6493643,1556708437.824196,172.16.11.67,13943,172.16.10.65,5000,1073725440,82564,0,1048320,1049800,6,6,4,1448,3915,1,16778208,349,1049800,1046904,1049800,0,81088,0,129
i,0xc4fba0da,1556708437.829184,172.16.11.67,13943,172.16.10.65,5000,1073725440,82564,0,1048320,1049800,6,6,4,1448,3915,1,16778208,349,1049800,1049800,1049800,0,82536,0,129
o,0xdd9898a4,1556708437.829187,172.16.11.67,13943,172.16.10.65,5000,1073725440,85460,0,1048320,1049800,6,6,4,1448,3958,1,16778208,355,1049800,1046904,1049800,0,79640,0,129
o,0xa9bc2824,1556708437.829191,172.16.11.67,13943,172.16.10.65,5000,1073725440,85460,0,1048320,1049800,6,6,4,1448,3958,1,16778208,355,1049800,1046904,1049800,0,81088,0,129
o,0xea948b83,1556708437.829194,172.16.11.67,13943,172.16.10.65,5000,1073725440,85460,0,1048320,1049800,6,6,4,1448,3958,1,16778208,355,1049800,1046904,1049800,0,82536,0,129
o,0x5d6d1ae4,1556708437.829197,172.16.11.67,13943,172.16.10.65,5000,1073725440,85460,0,1048320,1049800,6,6,4,1448,3958,1,16778208,355,1049800,1046904,1049800,0,83984,0,129
i,0x1966621a,1556708437.834184,172.16.11.67,13943,172.16.10.65,5000,1073725440,85460,0,1048320,1049800,6,6,4,1448,3958,1,16778208,355,1049800,1049800,1049800,0,85432,0,129
o,0xebcd8aa3,1556708437.834187,172.16.11.67,13943,172.16.10.65,5000,1073725440,88356,0,1048320,1049800,6,6,4,1448,3996,1,16778208,358,1049800,1046904,1049800,0,82536,0,134
o,0x11d1db02,1556708437.834191,172.16.11.67,13943,172.16.10.65,5000,1073725440,88356,0,1048320,1049800,6,6,4,1448,3996,1,16778208,358,1049800,1046904,1049800,0,83984,0,134
o,0xa2b71463,1556708437.834195,172.16.11.67,13943,172.16.10.65,5000,1073725440,88356,0,1048320,1049800,6,6,4,1448,3996,1,16778208,358,1049800,1046904,1049800,0,85432,0,134
o,0xb7b3aee3,1556708437.834198,172.16.11.67,13943,172.16.10.65,5000,1073725440,88356,0,1048320,1049800,6,6,4,1448,3996,1,16778208,358,1049800,1046904,1049800,0,86880,0,134
i,0xa71d66fb,1556708437.838183,172.16.11.67,13943,172.16.10.65,5000,1073725440,88356,0,1048320,1049800,6,6,4,1448,3996,1,16778208,358,1049800,1049800,1049800,0,88328,0,134
o,0xb1f75142,1556708437.838185,172.16.11.67,13943,172.16.10.65,5000,1073725440,91252,0,1048320,1049800,6,6,4,1448,4045,1,16778208,363,1049800,1046904,1049800,0,85432,0,133
o,0x8cdb6ba3,1556708437.838189,172.16.11.67,13943,172.16.10.65,5000,1073725440,91252,0,1048320,1049800,6,6,4,1448,4045,1,16778208,363,1049800,1046904,1049800,0,86880,0,133
o,0x8703f323,1556708437.838193,172.16.11.67,13943,172.16.10.65,5000,1073725440,91252,0,1048320,1049800,6,6,4,1448,4045,1,16778208,363,1049800,1046904,1049800,0,88328,0,133
o,0x7f034b82,1556708437.838196,172.16.11.67,13943,172.16.10.65,5000,1073725440,91252,0,1048320,1049800,6,6,4,1448,4045,1,16778208,363,1049800,1046904,1049800,0,89776,0,133
i,0x36c0c35a,1556708437.843187,172.16.11.67,13943,172.16.10.65,5000,1073725440,91252,0,1048320,1049800,6,6,4,1448,4045,1,16778208,363,1049800,1049800,1049800,0,91224,0,133
o,0xc126c0e3,1556708437.843190,172.16.11.67,13943,172.16.10.65,5000,1073725440,94148,0,1048320,1049800,6,6,4,1448,4088,1,16778208,366,1049800,1046904,1049800,0,88328,0,138
o,0x6f3da663,1556708437.843194,172.16.11.67,13943,172.16.10.65,5000,1073725440,94148,0,1048320,1049800,6,6,4,1448,4088,1,16778208,366,1049800,1046904,1049800,0,89776,0,138
o,0xb13bdfc2,1556708437.843197,172.16.11.67,13943,172.16.10.65,5000,1073725440,94148,0,1048320,1049800,6,6,4,1448,4088,1,16778208,366,1049800,1046904,1049800,0,91224,0,138
o,0xc8d12c64,1556708437.843200,172.16.11.67,13943,172.16.10.65,5000,1073725440,94148,0,1048320,1049800,6,6,4,1448,4088,1,16778208,366,1049800,1046904,1049800,0,92672,0,138
i,0xbb90a95a,1556708437.848187,172.16.11.67,13943,172.16.10.65,5000,1073725440,94148,0,1048320,1049800,6,6,4,1448,4088,1,16778208,366,1049800,1049800,1049800,0,94120,0,138
o,0xfd59ece4,1556708437.848189,172.16.11.67,13943,172.16.10.65,5000,1073725440,97044,0,1048320,1049800,6,6,4,1448,4145,1,16778208,373,1049800,1046904,1049800,0,91224,0,138
o,0x3e325043,1556708437.848193,172.16.11.67,13943,172.16.10.65,5000,1073725440,97044,0,1048320,1049800,6,6,4,1448,4145,1,16778208,373,1049800,1046904,1049800,0,92672,0,138
o,0xb10adfa4,1556708437.848197,172.16.11.67,13943,172.16.10.65,5000,1073725440,97044,0,1048320,1049800,6,6,4,1448,4145,1,16778208,373,1049800,1046904,1049800,0,94120,0,138
o,0xc72d5024,1556708437.848200,172.16.11.67,13943,172.16.10.65,5000,1073725440,97044,0,1048320,1049800,6,6,4,1448,4145,1,16778208,373,1049800,1046904,1049800,0,95568,0,138
i,0x75ad343b,1556708437.853188,172.16.11.67,13943,172.16.10.65,5000,1073725440,97044,0,1048320,1049800,6,6,4,1448,4145,1,16778208,373,1049800,1049800,1049800,0,97016,0,138
o,0x5596d183,1556708437.853191,172.16.11.67,13943,172.16.10.65,5000,1073725440,99940,0,1048320,1049800,6,6,4,1448,4195,1,16778208,376,1049800,1046904,1049800,0,94120,0,143
o,0xe67c0ae4,1556708437.853194,172.16.11.67,13943,172.16.10.65,5000,1073725440,99940,0,1048320,1049800,6,6,4,1448,4195,1,16778208,376,1049800,1046904,1049800,0,95568,0,143
o,0xfb78a564,1556708437.853198,172.16.11.67,13943,172.16.10.65,5000,1073725440,99940,0,1048320,1049800,6,6,4,1448,4195,1,16778208,376,1049800,1046904,1049800,0,97016,0,143
o,0xd56b53c3,1556708437.853201,172.16.11.67,13943,172.16.10.65,5000,1073725440,99940,0,1048320,1049800,6,6,4,1448,4195,1,16778208,376,1049800,1046904,1049800,0,98464,0,143
i,0x35b5b55a,1556708437.858187,172.16.11.67,13943,172.16.10.65,5000,1073725440,99940,0,1048320,1049800,6,6,4,1448,4195,1,16778208,376,1049800,1049800,1049800,0,99912,0,143
o,0x18b49f24,1556708437.858190,172.16.11.67,13943,172.16.10.65,5000,1073725440,102836,0,1048320,1049800,6,6,4,1448,4259,1,16778208,383,1049800,1046904,1049800,0,97016,0,143
o,0x3eb8ef83,1556708437.858194,172.16.11.67,13943,172.16.10.65,5000,1073725440,102836,0,1048320,1049800,6,6,4,1448,4259,1,16778208,383,1049800,1046904,1049800,0,98464,0,143
o,0x0adc7f03,1556708437.858197,172.16.11.67,13943,172.16.10.65,5000,1073725440,102836,0,1048320,1049800,6,6,4,1448,4259,1,16778208,383,1049800,1046904,1049800,0,99912,0,143
o,0xe49ac364,1556708437.858201,172.16.11.67,13943,172.16.10.65,5000,1073725440,102836,0,1048320,1049800,6,6,4,1448,4259,1,16778208,383,1049800,1046904,1049800,0,101360,0,143
i,0x2d55cbda,1556708437.862183,172.16.11.67,13943,172.16.10.65,5000,1073725440,102836,0,1048320,1049800,6,6,4,1448,4259,1,16778208,383,1049800,1049800,1049800,0,102808,0,143
o,0xdede65c3,1556708437.862185,172.16.11.67,13943,172.16.10.65,5000,1073725440,105732,0,1048320,1049800,6,6,4,1448,4311,1,16778208,385,1049800,1046904,1049800,0,99912,0,147
o,0xf500d643,1556708437.862189,172.16.11.67,13943,172.16.10.65,5000,1073725440,105732,0,1048320,1049800,6,6,4,1448,4311,1,16778208,385,1049800,1046904,1049800,0,101360,0,147
o,0xb3eb07a4,1556708437.862192,172.16.11.67,13943,172.16.10.65,5000,1073725440,105732,0,1048320,1049800,6,6,4,1448,4311,1,16778208,385,1049800,1046904,1049800,0,102808,0,147
o,0xabea6003,1556708437.862196,172.16.11.67,13943,172.16.10.65,5000,1073725440,105732,0,1048320,1049800,6,6,4,1448,4311,1,16778208,385,1049800,1046904,1049800,0,104256,0,147
i,0x3865b35a,1556708437.885184,172.16.11.67,13943,172.16.10.65,5000,1073725440,105732,0,1048320,1049800,6,6,4,1448,4311,1,16778208,385,1049800,1049800,1049800,0,105704,0,147
o,0x3ab87583,1556708437.885187,172.16.11.67,13943,172.16.10.65,5000,1073725440,108628,0,1048320,1049800,6,6,4,1448,4449,1,16778208,411,1049800,1046904,1049800,0,102808,0,105
o,0xad9104e4,1556708437.885191,172.16.11.67,13943,172.16.10.65,5000,1073725440,108628,0,1048320,1049800,6,6,4,1448,4449,1,16778208,411,1049800,1046904,1049800,0,104256,0,105
o,0xef8f3e43,1556708437.885194,172.16.11.67,13943,172.16.10.65,5000,1073725440,108628,0,1048320,1049800,6,6,4,1448,4449,1,16778208,411,1049800,1046904,1049800,0,105704,0,105
o,0xe9b7c5c3,1556708437.885198,172.16.11.67,13943,172.16.10.65,5000,1073725440,108628,0,1048320,1049800,6,6,4,1448,4449,1,16778208,411,1049800,1046904,1049800,0,107152,0,105
i,0xe8fd205a,1556708437.890183,172.16.11.67,13943,172.16.10.65,5000,1073725440,108628,0,1048320,1049800,6,6,4,1448,4449,1,16778208,411,1049800,1049800,1049800,0,108600,0,105
o,0xe3023024,1556708437.890186,172.16.11.67,13943,172.16.10.65,5000,1073725440,111524,0,1048320,1049800,6,6,4,1448,4329,1,16778208,419,1049800,1046904,1049800,0,105704,0,110
o,0x23da9383,1556708437.890190,172.16.11.67,13943,172.16.10.65,5000,1073725440,111524,0,1048320,1049800,6,6,4,1448,4329,1,16778208,419,1049800,1046904,1049800,0,107152,0,110
o,0xd1f17903,1556708437.890193,172.16.11.67,13943,172.16.10.65,5000,1073725440,111524,0,1048320,1049800,6,6,4,1448,4329,1,16778208,419,1049800,1046904,1049800,0,108600,0,110
o,0xacd59364,1556708437.890197,172.16.11.67,13943,172.16.10.65,5000,1073725440,111524,0,1048320,1049800,6,6,4,1448,4329,1,16778208,419,1049800,1046904,1049800,0,110048,0,110
i,0x11025b9a,1556708437.894186,172.16.11.67,13943,172.16.10.65,5000,1073725440,111524,0,1048320,1049800,6,6,4,1448,4329,1,16778208,419,1049800,1049800,1049800,0,111496,0,110
o,0xf32ad7c3,1556708437.894189,172.16.11.67,13943,172.16.10.65,5000,1073725440,114420,0,1048320,1049800,6,6,4,1448,4240,1,16778208,418,1049800,1046904,1049800,0,108600,0,109
o,0xbf4e6743,1556708437.894193,172.16.11.67,13943,172.16.10.65,5000,1073725440,114420,0,1048320,1049800,6,6,4,1448,4240,1,16778208,418,1049800,1046904,1049800,0,110048,0,109
o,0x990caba4,1556708437.894196,172.16.11.67,13943,172.16.10.65,5000,1073725440,114420,0,1048320,1049800,6,6,4,1448,4240,1,16778208,418,1049800,1046904,1049800,0,111496,0,109
o,0x72ff5a03,1556708437.894200,172.16.11.67,13943,172.16.10.65,5000,1073725440,114420,0,1048320,1049800,6,6,4,1448,4240,1,16778208,418,1049800,1046904,1049800,0,112944,0,109
i,0xa0a5b7f9,1556708437.899188,172.16.11.67,13943,172.16.10.65,5000,1073725440,114420,0,1048320,1049800,6,6,4,1448,4240,1,16778208,418,1049800,1049800,1049800,0,114392,0,109
o,0xf186fb83,1556708437.899191,172.16.11.67,13943,172.16.10.65,5000,1073725440,117316,0,1048320,1049800,6,6,4,1448,4162,1,16778208,414,1049800,1046904,1049800,0,111496,0,114
o,0xb0712ce4,1556708437.899194,172.16.11.67,13943,172.16.10.65,5000,1073725440,117316,0,1048320,1049800,6,6,4,1448,4162,1,16778208,414,1049800,1046904,1049800,0,112944,0,114
o,0xa8708543,1556708437.899198,172.16.11.67,13943,172.16.10.65,5000,1073725440,117316,0,1048320,1049800,6,6,4,1448,4162,1,16778208,414,1049800,1046904,1049800,0,114392,0,114
o,0xbd6d1fc3,1556708437.899202,172.16.11.67,13943,172.16.10.65,5000,1073725440,117316,0,1048320,1049800,6,6,4,1448,4162,1,16778208,414,1049800,1046904,1049800,0,115840,0,114
i,0x8b27679a,1556708437.904183,172.16.11.67,13943,172.16.10.65,5000,1073725440,117316,0,1048320,1049800,6,6,4,1448,4162,1,16778208,414,1049800,1049800,1049800,0,117288,0,114
o,0x98aae024,1556708437.904186,172.16.11.67,13943,172.16.10.65,5000,1073725440,120212,0,1048320,1049800,6,6,4,1448,4114,1,16778208,403,1049800,1046904,1049800,0,114392,0,115
o,0xea81e7c2,1556708437.904190,172.16.11.67,13943,172.16.10.65,5000,1073725440,120212,0,1048320,1049800,6,6,4,1448,4114,1,16778208,403,1049800,1046904,1049800,0,115840,0,115
o,0xe4aa6f42,1556708437.904193,172.16.11.67,13943,172.16.10.65,5000,1073725440,120212,0,1048320,1049800,6,6,4,1448,4114,1,16778208,403,1049800,1046904,1049800,0,117288,0,115
o,0x758fa8a3,1556708437.904197,172.16.11.67,13943,172.16.10.65,5000,1073725440,120212,0,1048320,1049800,6,6,4,1448,4114,1,16778208,403,1049800,1046904,1049800,0,118736,0,115
i,0x9ec4945b,1556708437.909184,172.16.11.67,13943,172.16.10.65,5000,1073725440,120212,0,1048320,1049800,6,6,4,1448,4114,1,16778208,403,1049800,1049800,1049800,0,120184,0,115
o,0x1ecd3d02,1556708437.909186,172.16.11.67,13943,172.16.10.65,5000,1073725440,123108,0,1048320,1049800,6,6,4,1448,4076,1,16778208,393,1049800,1046904,1049800,0,117288,0,120
o,0xcce42282,1556708437.909190,172.16.11.67,13943,172.16.10.65,5000,1073725440,123108,0,1048320,1049800,6,6,4,1448,4076,1,16778208,393,1049800,1046904,1049800,0,118736,0,120
o,0xa7c83ce3,1556708437.909193,172.16.11.67,13943,172.16.10.65,5000,1073725440,123108,0,1048320,1049800,6,6,4,1448,4076,1,16778208,393,1049800,1046904,1049800,0,120184,0,120
o,0xcdcc8d42,1556708437.909197,172.16.11.67,13943,172.16.10.65,5000,1073725440,123108,0,1048320,1049800,6,6,4,1448,4076,1,16778208,393,1049800,1046904,1049800,0,121632,0,120
i,0x5ecd157a,1556708437.914185,172.16.11.67,13943,172.16.10.65,5000,1073725440,123108,0,1048320,1049800,6,6,4,1448,4076,1,16778208,393,1049800,1049800,1049800,0,123080,0,120
o,0x02554dc2,1556708437.914187,172.16.11.67,13943,172.16.10.65,5000,1073725440,126004,0,1048320,1049800,6,6,4,1448,4063,1,16778208,379,1049800,1046904,1049800,0,120184,0,120
o,0x07ef5b02,1556708437.914191,172.16.11.67,13943,172.16.10.65,5000,1073725440,126004,0,1048320,1049800,6,6,4,1448,4063,1,16778208,379,1049800,1046904,1049800,0,121632,0,120
o,0xb6064082,1556708437.914195,172.16.11.67,13943,172.16.10.65,5000,1073725440,126004,0,1048320,1049800,6,6,4,1448,4063,1,16778208,379,1049800,1046904,1049800,0,123080,0,120
o,0xcc28b102,1556708437.914198,172.16.11.67,13943,172.16.10.65,5000,1073725440,126004,0,1048320,1049800,6,6,4,1448,4063,1,16778208,379,1049800,1046904,1049800,0,124528,0,120
i,0xbc1ef59b,1556708437.918188,172.16.11.67,13943,172.16.10.65,5000,1073725440,126004,0,1048320,1049800,6,6,4,1448,4063,1,16778208,379,1049800,1049800,1049800,0,125976,0,120
o,0x2feaba83,1556708437.918190,172.16.11.67,13943,172.16.10.65,5000,1073725440,128900,0,1048320,1049800,6,6,4,1448,4048,1,16778208,370,1049800,1046904,1049800,0,123080,0,124
o,0xfc0e4a03,1556708437.918194,172.16.11.67,13943,172.16.10.65,5000,1073725440,128900,0,1048320,1049800,6,6,4,1448,4048,1,16778208,370,1049800,1046904,1049800,0,124528,0,124
o,0x110ae483,1556708437.918198,172.16.11.67,13943,172.16.10.65,5000,1073725440,128900,0,1048320,1049800,6,6,4,1448,4048,1,16778208,370,1049800,1046904,1049800,0,125976,0,124
o,0xafbf3cc3,1556708437.918201,172.16.11.67,13943,172.16.10.65,5000,1073725440,128900,0,1048320,1049800,6,6,4,1448,4048,1,16778208,370,1049800,1046904,1049800,0,127424,0,124
i,0x40eedb9b,1556708437.923171,172.16.11.67,13943,172.16.10.65,5000,1073725440,128900,0,1048320,1049800,6,6,4,1448,4048,1,16778208,370,1049800,1049800,1049800,0,128872,0,124
o,0x2e46de43,1556708437.923174,172.16.11.67,13943,172.16.10.65,5000,1073725440,131796,0,1048320,1049800,6,6,4,1448,4054,1,16778208,360,1049800,1046904,1049800,0,125976,0,124
o,0x286f65c3,1556708437.923178,172.16.11.67,13943,172.16.10.65,5000,1073725440,131796,0,1048320,1049800,6,6,4,1448,4054,1,16778208,360,1049800,1046904,1049800,0,127424,0,124
o,0xe5306803,1556708437.923181,172.16.11.67,13943,172.16.10.65,5000,1073725440,131796,0,1048320,1049800,6,6,4,1448,4054,1,16778208,360,1049800,1046904,1049800,0,128872,0,124
o,0xfa2d0283,1556708437.923185,172.16.11.67,13943,172.16.10.65,5000,1073725440,131796,0,1048320,1049800,6,6,4,1448,4054,1,16778208,360,1049800,1046904,1049800,0,130320,0,124
i,0xd09237fa,1556708437.928183,172.16.11.67,13943,172.16.10.65,5000,1073725440,131796,0,1048320,1049800,6,6,4,1448,4054,1,16778208,360,1049800,1049800,1049800,0,131768,0,124
o,0x10a91903,1556708437.928186,172.16.11.67,13943,172.16.10.65,5000,1073725440,134692,0,1048320,1049800,6,6,4,1448,4060,1,16778208,354,1049800,1046904,1049800,0,128872,0,129
o,0x1768fc43,1556708437.928189,172.16.11.67,13943,172.16.10.65,5000,1073725440,134692,0,1048320,1049800,6,6,4,1448,4060,1,16778208,354,1049800,1046904,1049800,0,130320,0,129
o,0x119183c3,1556708437.928193,172.16.11.67,13943,172.16.10.65,5000,1073725440,134692,0,1048320,1049800,6,6,4,1448,4060,1,16778208,354,1049800,1046904,1049800,0,131768,0,129
o,0xddb51343,1556708437.928196,172.16.11.67,13943,172.16.10.65,5000,1073725440,134692,0,1048320,1049800,6,6,4,1448,4060,1,16778208,354,1049800,1046904,1049800,0,133216,0,129
i,0xbb13e79b,1556708437.933185,172.16.11.67,13943,172.16.10.65,5000,1073725440,134692,0,1048320,1049800,6,6,4,1448,4060,1,16778208,354,1049800,1049800,1049800,0,134664,0,129
o,0x2060fe24,1556708437.933187,172.16.11.67,13943,172.16.10.65,5000,1073725440,137588,0,1048320,1049800,6,6,4,1448,4085,1,16778208,354,1049800,1046904,1049800,0,131768,0,129
o,0xce77e3a4,1556708437.933191,172.16.11.67,13943,172.16.10.65,5000,1073725440,137588,0,1048320,1049800,6,6,4,1448,4085,1,16778208,354,1049800,1046904,1049800,0,133216,0,129
o,0xe49a5424,1556708437.933195,172.16.11.67,13943,172.16.10.65,5000,1073725440,137588,0,1048320,1049800,6,6,4,1448,4085,1,16778208,354,1049800,1046904,1049800,0,134664,0,129
o,0xcf604e64,1556708437.933198,172.16.11.67,13943,172.16.10.65,5000,1073725440,137588,0,1048320,1049800,6,6,4,1448,4085,1,16778208,354,1049800,1046904,1049800,0,136112,0,129
i,0x0f7ea8db,1556708437.938184,172.16.11.67,13943,172.16.10.65,5000,1073725440,137588,0,1048320,1049800,6,6,4,1448,4085,1,16778208,354,1049800,1049800,1049800,0,137560,0,129
o,0x03e90ee4,1556708437.938186,172.16.11.67,13943,172.16.10.65,5000,1073725440,140484,0,1048320,1049800,6,6,4,1448,4107,1,16778208,354,1049800,1046904,1049800,0,134664,0,134
o,0x5f138d46,1556708437.938190,172.16.11.67,13943,172.16.10.65,5000,1073725440,140484,0,1048320,1049800,6,6,4,1448,4107,1,16778208,354,1049800,1046904,1049800,0,136112,0,134
o,0x7aa270a4,1556708437.938194,172.16.11.67,13943,172.16.10.65,5000,1073725440,140484,0,1048320,1049800,6,6,4,1448,4107,1,16778208,354,1049800,1046904,1049800,0,137560,0,134
o,0x74caf824,1556708437.938197,172.16.11.67,13943,172.16.10.65,5000,1073725440,140484,0,1048320,1049800,6,6,4,1448,4107,1,16778208,354,1049800,1046904,1049800,0,139008,0,134
i,0x72bc7f3a,1556708437.942188,172.16.11.67,13943,172.16.10.65,5000,1073725440,140484,0,1048320,1049800,6,6,4,1448,4107,1,16778208,354,1049800,1049800,1049800,0,140456,0,134
o,0x613f7ba4,1556708437.942190,172.16.11.67,13943,172.16.10.65,5000,1073725440,143380,0,1048320,1049800,6,6,4,1448,4142,1,16778208,357,1049800,1046904,1049800,0,137560,0,133
o,0x66d988e4,1556708437.942194,172.16.11.67,13943,172.16.10.65,5000,1073725440,143380,0,1048320,1049800,6,6,4,1448,4142,1,16778208,357,1049800,1046904,1049800,0,139008,0,133
o,0x14f06e64,1556708437.942198,172.16.11.67,13943,172.16.10.65,5000,1073725440,143380,0,1048320,1049800,6,6,4,1448,4142,1,16778208,357,1049800,1046904,1049800,0,140456,0,133
o,0x2b12dee4,1556708437.942201,172.16.11.67,13943,172.16.10.65,5000,1073725440,143380,0,1048320,1049800,6,6,4,1448,4142,1,16778208,357,1049800,1046904,1049800,0,141904,0,133
i,0x2cd90a1b,1556708437.947187,172.16.11.67,13943,172.16.10.65,5000,1073725440,143380,0,1048320,1049800,6,6,4,1448,4142,1,16778208,357,1049800,1049800,1049800,0,143352,0,133
o,0x7e3e0a24,1556708437.947190,172.16.11.67,13943,172.16.10.65,5000,1073725440,146276,0,1048320,1049800,6,6,4,1448,4173,1,16778208,359,1049800,1046904,1049800,0,140456,0,138
o,0x4a6199a4,1556708437.947194,172.16.11.67,13943,172.16.10.65,5000,1073725440,146276,0,1048320,1049800,6,6,4,1448,4173,1,16778208,359,1049800,1046904,1049800,0,141904,0,138
o,0x5f5e3424,1556708437.947198,172.16.11.67,13943,172.16.10.65,5000,1073725440,146276,0,1048320,1049800,6,6,4,1448,4173,1,16778208,359,1049800,1046904,1049800,0,143352,0,138
o,0xfe128c64,1556708437.947201,172.16.11.67,13943,172.16.10.65,5000,1073725440,146276,0,1048320,1049800,6,6,4,1448,4173,1,16778208,359,1049800,1046904,1049800,0,144800,0,138
i,0xb1a8f01b,1556708437.952184,172.16.11.67,13943,172.16.10.65,5000,1073725440,146276,0,1048320,1049800,6,6,4,1448,4173,1,16778208,359,1049800,1047880,1049800,0,146248,0,138
o,0x7c9a2de4,1556708437.952186,172.16.11.67,13943,172.16.10.65,5000,1073725440,149172,0,1048320,1049800,6,6,4,1448,4220,1,16778208,365,1049800,1044984,1049800,0,143352,0,139
o,0xa29e7e43,1556708437.952190,172.16.11.67,13943,172.16.10.65,5000,1073725440,149172,0,1048320,1049800,6,6,4,1448,4220,1,16778208,365,1049800,1044984,1049800,0,144800,0,139
o,0x3383b7a4,1556708437.952193,172.16.11.67,13943,172.16.10.65,5000,1073725440,149172,0,1048320,1049800,6,6,4,1448,4220,1,16778208,365,1049800,1044984,1049800,0,146248,0,139
o,0x48805224,1556708437.952197,172.16.11.67,13943,172.16.10.65,5000,1073725440,149172,0,1048320,1049800,6,6,4,1448,4220,1,16778208,365,1049800,1044984,1049800,0,147696,0,139
i,0x76722d79,1556708437.957184,172.16.11.67,13943,172.16.10.65,5000,1073725440,149172,0,1048320,1049800,6,6,4,1448,4220,1,16778208,365,1049800,1049800,1049800,0,149144,0,139
o,0x8ad83183,1556708437.957186,172.16.11.67,13943,172.16.10.65,5000,1073725440,152068,0,1048320,1049800,6,6,4,1448,4265,1,16778208,369,1049800,1046904,1049800,0,146248,0,144
o,0x65bc4be4,1556708437.957190,172.16.11.67,13943,172.16.10.65,5000,1073725440,152068,0,1048320,1049800,6,6,4,1448,4265,1,16778208,369,1049800,1046904,1049800,0,147696,0,144
o,0x5fe4d364,1556708437.957193,172.16.11.67,13943,172.16.10.65,5000,1073725440,152068,0,1048320,1049800,6,6,4,1448,4265,1,16778208,369,1049800,1046904,1049800,0,149144,0,144
o,0x67bcfa02,1556708437.957197,172.16.11.67,13943,172.16.10.65,5000,1073725440,152068,0,1048320,1049800,6,6,4,1448,4265,1,16778208,369,1049800,1046904,1049800,0,150592,0,144
i,0xfb421379,1556708437.962184,172.16.11.67,13943,172.16.10.65,5000,1073725440,152068,0,1048320,1049800,6,6,4,1448,4265,1,16778208,369,1049800,1049800,1049800,0,152040,0,144
