enable_time_secs=1556709023	enable_time_usecs=994571	siftrver=1.2.4	hz=1000	tcp_rtt_scale=32	sysname=FreeBSD	sysver=1001000	ipmode=4
o,0xde276cfa,1556709023.994589,10.1.1.67,22,10.1.1.11,58226,4464,5792,0,66560,66608,6,6,4,1448,243,1,16778212,252,33304,208,66608,0,156,0,1
o,0xa65d1760,1556709023.994596,10.1.1.67,22,10.1.1.11,58226,4464,5792,0,66560,66608,6,6,4,1448,243,1,16778212,252,33304,260,66608,0,208,0,1
o,0x46112592,1556709023.994808,10.1.1.67,22,10.1.1.11,58226,4464,5792,0,66560,66608,6,6,4,1448,243,1,16778212,252,33304,296,66608,0,260,0,1
i,0xc7cbe748,1556709023.994822,10.1.1.67,22,10.1.1.11,58226,4464,5792,0,66560,66608,6,6,4,1448,243,1,16778212,252,33304,296,66608,0,296,0,1
i,0x5f386a69,1556709023.994826,10.1.1.67,22,10.1.1.11,58226,4464,5792,0,66496,66608,6,6,4,1448,241,1,996,242,33304,140,66608,0,140,0,1
o,0x037338c8,1556709023.994964,10.1.1.67,22,10.1.1.11,58226,4464,5792,0,66432,66608,6,6,4,1448,211,1,16778212,240,33304,140,66608,0,36,0,1
i,0x920c72c8,1556709023.995227,10.1.1.67,22,10.1.1.11,58226,4464,5792,0,66432,66608,6,6,4,1448,211,1,16778212,240,33304,140,66608,0,140,0,1
i,0xdca3cdb1,1556709023.995519,10.1.1.67,22,10.1.1.11,58226,4464,5792,0,66496,66608,6,6,4,1448,185,1,996,237,33304,0,66608,0,0,0,1
i,0xb84f750e,1556709024.009819,10.1.1.67,22,10.1.1.11,58226,4464,5792,0,66560,66608,6,6,4,1448,185,1,996,237,33304,0,66608,0,0,0,1
o,0xdd6dd9e9,1556709024.009824,10.1.1.67,22,10.1.1.11,58226,4464,5792,0,66560,66608,6,6,5,1448,185,1,997,237,33304,0,66608,36,0,0,1
o,0xeb00d269,1556709024.009954,10.1.1.67,22,10.1.1.11,58226,4464,5792,0,66560,66608,6,6,8,1448,185,1,996,237,33304,0,0,0,0,0,1
i,0x786b6de9,1556709024.010202,10.1.1.67,22,10.1.1.11,58226,4464,5792,0,66560,66608,6,6,8,1448,185,1,1012,237,33304,0,0,0,1,0,1
i,0xdfc7c8aa,1556709024.096113,10.1.1.67,22,10.1.1.11,18909,4464,14480,0,66560,66608,6,6,4,1448,185,1,16778208,239,33304,0,66608,0,0,0,0
o,0x45d60deb,1556709024.100230,10.1.1.67,22,10.1.1.11,18909,4464,14480,0,66560,66608,6,6,4,1448,185,1,16778208,239,33304,49,66608,25,0,0,0
o,0x455163ea,1556709024.100721,10.1.1.67,22,10.1.1.11,18909,4464,14480,0,66560,66608,6,6,4,1448,185,1,16778208,239,33304,1697,66608,0,49,0,0
i,0x03a69ca6,1556709024.100738,10.1.1.67,22,10.1.1.11,18909,4464,14480,0,66560,66608,6,6,4,1448,185,1,16778208,239,33304,1697,66608,0,1497,0,0
i,0x631f17ea,1556709024.197419,10.1.1.67,22,10.1.1.11,18909,4464,13032,0,66560,66608,6,6,4,1448,166,1,992,235,33304,1648,66608,0,1448,0,2
o,0x494d71e6,1556709024.197422,10.1.1.67,22,10.1.1.11,18909,4464,13032,0,66560,66608,6,6,4,1448,530,1,16778208,330,33304,200,66608,0,0,0,97
i,0x04414d10,1556709024.209782,10.1.1.67,22,10.1.1.11,18909,4464,13032,0,66560,66608,6,6,4,1448,530,1,16778208,330,33304,200,66608,0,200,0,97
o,0xb01b01aa,1556709024.211723,10.1.1.67,22,10.1.1.11,18909,4464,11584,0,66560,66608,6,6,4,1448,516,1,16778208,304,33304,848,66608,0,0,0,14
i,0xf6d1def9,1556709024.228007,10.1.1.67,22,10.1.1.11,18909,4464,11584,0,66560,66608,6,6,4,1448,516,1,16778208,304,33304,848,66608,0,848,0,14
o,0xa816732a,1556709024.333797,10.1.1.67,22,10.1.1.11,18909,4464,10136,0,66560,66608,6,6,4,1448,516,1,993,282,33304,0,66608,0,0,0,17
i,0x77a1a23d,1556709024.334045,10.1.1.67,22,10.1.1.11,18909,4464,10136,0,66560,66608,6,6,4,1448,516,1,992,282,33304,0,66608,0,0,0,17
o,0x8e9a5adc,1556709024.334066,10.1.1.67,22,10.1.1.11,18909,4464,10136,0,66560,66608,6,6,4,1448,516,1,16778208,282,33304,52,66608,0,0,0,17
i,0xa1fa5b1e,1556709024.368834,10.1.1.67,22,10.1.1.11,18909,4464,10136,0,66560,66608,6,6,4,1448,516,1,16778208,282,33304,52,66608,0,52,0,17
o,0x773beec3,1556709024.372075,10.1.1.67,22,10.1.1.11,18909,4464,8688,0,66560,66608,6,6,4,1448,592,1,16778208,287,33304,68,66608,0,0,0,36
i,0x467c715e,1556709024.387621,10.1.1.67,22,10.1.1.11,18909,4464,8688,0,66560,66608,6,6,4,1448,592,1,16778208,287,33304,68,66608,0,68,0,36
o,0x52d955a0,1556709024.387633,10.1.1.67,22,10.1.1.11,18909,4464,7240,0,66560,66608,6,6,4,1448,582,1,16778208,272,33304,52,66608,0,0,0,17
i,0x58e74fc9,1556709024.388150,10.1.1.67,22,10.1.1.11,18909,4464,7240,0,66560,66608,6,6,4,1448,582,1,16778208,272,33304,52,66608,0,52,0,17
o,0x16557142,1556709024.388189,10.1.1.67,22,10.1.1.11,18909,4464,5792,0,66560,66608,6,6,4,1448,510,1,16778208,274,33304,68,66608,0,0,0,1
i,0x1d01ecda,1556709024.407591,10.1.1.67,22,10.1.1.11,18909,4464,5792,0,66560,66608,6,6,4,1448,510,1,16778208,274,33304,68,66608,0,68,0,1
o,0x2dd9735a,1556709024.407602,10.1.1.67,22,10.1.1.11,18909,4464,5792,0,66560,66608,6,6,4,1448,527,1,16778208,264,33304,52,66608,0,0,0,21
i,0xb5078c51,1556709024.408080,10.1.1.67,22,10.1.1.11,18909,4464,5792,0,66560,66608,6,6,4,1448,527,1,16778208,264,33304,52,66608,0,52,0,21
o,0x74c16e6d,1556709024.408520,10.1.1.67,22,10.1.1.11,18909,4464,5792,0,66560,66608,6,6,4,1448,462,1,16778208,267,33304,100,66608,0,0,0,1
i,0x1c3af21b,1556709024.409015,10.1.1.67,22,10.1.1.11,18909,4464,5792,0,66560,66608,6,6,4,1448,462,1,16778208,267,33304,100,66608,0,100,0,1
o,0x1b40a7b8,1556709024.412399,10.1.1.67,22,10.1.1.11,18909,4464,5792,0,66560,66608,6,6,4,1448,409,1,16778208,265,33304,52,66608,0,0,0,2
i,0xb83aa1b2,1556709024.412824,10.1.1.67,22,10.1.1.11,18909,4464,5792,0,66560,66608,6,6,4,1448,409,1,16778208,265,33304,52,66608,0,52,0,2
o,0xf3655415,1556709024.412867,10.1.1.67,22,10.1.1.11,18909,4464,5792,0,66560,66608,6,6,4,1448,362,1,16778208,262,33304,36,66608,0,0,0,2
i,0x74e86a87,1556709024.427930,10.1.1.67,22,10.1.1.11,18909,4464,5792,0,66560,66608,6,6,4,1448,362,1,16778208,262,33304,36,66608,0,36,0,2
o,0x0a358cfa,1556709024.427976,10.1.1.67,22,10.1.1.11,18909,4464,5792,0,66560,66608,6,6,4,1448,377,1,16778208,254,33304,52,66608,0,0,0,16
i,0x499ec98a,1556709024.457620,10.1.1.67,22,10.1.1.11,18909,4464,5792,0,66560,66608,6,6,4,1448,377,1,16778208,254,33304,52,66608,0,52,0,16
o,0xb3437011,1556709024.457715,10.1.1.67,22,10.1.1.11,18909,4464,5792,0,66560,66608,6,6,4,1448,450,1,16778208,264,33304,36,66608,0,0,0,31
i,0xd0a3461d,1556709024.458334,10.1.1.67,22,10.1.1.11,18909,4464,5792,0,66560,66608,6,6,4,1448,450,1,16778208,264,33304,36,66608,0,36,0,31
o,0x3303cba3,1556709024.458549,10.1.1.67,22,10.1.1.11,18909,4464,5792,0,66560,66608,6,6,4,1448,394,1,16778212,264,33304,88,66608,0,0,0,1
o,0xbf8c13da,1556709024.464092,10.1.1.67,22,10.1.1.11,18909,4464,5792,0,66560,66608,6,6,4,1448,394,1,16778212,264,33304,140,66608,0,88,0,1
i,0x63d39b2a,1556709024.464352,10.1.1.67,22,10.1.1.11,18909,4464,5792,0,66560,66608,6,6,4,1448,394,1,16778212,264,33304,140,66608,0,140,0,1
o,0xcaaa781f,1556709024.465961,10.1.1.67,22,10.1.1.11,18909,4464,5792,0,66496,66608,6,6,4,1448,365,1,16778212,257,33304,132,66608,0,0,0,1
o,0x4d891749,1556709024.465972,10.1.1.67,22,10.1.1.11,18909,4464,5792,0,66496,66608,6,6,4,1448,365,1,16778212,257,33304,216,66608,0,132,0,1
i,0xdf324c69,1556709024.466229,10.1.1.67,22,10.1.1.11,18909,4464,5792,0,66496,66608,6,6,4,1448,365,1,16778212,257,33304,216,66608,0,216,0,1
o,0x5f310eff,1556709024.564704,10.1.1.67,22,10.1.1.11,18909,4464,5792,0,66368,66608,6,6,4,1448,320,1,16778212,256,33304,52,66608,0,0,0,1
o,0x86a418fa,1556709024.565091,10.1.1.67,22,10.1.1.11,18909,4464,5792,0,66368,66608,6,6,4,1448,320,1,16778212,256,33304,192,66608,0,52,0,1
i,0xb3eac7c8,1556709024.565358,10.1.1.67,22,10.1.1.11,18909,4464,5792,0,66368,66608,6,6,4,1448,320,1,16778212,256,33304,192,66608,0,192,0,1
i,0x0a633732,1556709024.565724,10.1.1.67,22,10.1.1.11,18909,4464,5792,0,66432,66608,6,6,4,1448,280,1,996,253,33304,0,66608,0,0,0,1
o,0x2697ff08,1556709024.671792,10.1.1.67,22,10.1.1.11,18909,4464,5792,0,66560,66608,6,6,4,1448,280,1,997,253,33304,0,66608,0,0,0,1
i,0x9222880d,1556709024.672050,10.1.1.67,22,10.1.1.11,18909,4464,5792,0,66560,66608,6,6,4,1448,280,1,996,253,33304,0,66608,0,0,0,1
o,0x28942378,1556709024.672091,10.1.1.67,22,10.1.1.11,18909,4464,5792,0,66560,66608,6,6,4,1448,280,1,16778212,253,33304,52,66608,0,0,0,1
i,0xef692986,1556709024.678101,10.1.1.67,22,10.1.1.11,18909,4464,5792,0,66560,66608,6,6,4,1448,280,1,16778212,253,33304,52,66608,0,52,0,1
o,0xa695563e,1556709024.678300,10.1.1.67,22,10.1.1.11,18909,4464,5792,0,66560,66608,6,6,4,1448,269,1,16778212,244,33304,88,66608,0,0,0,1
o,0xfdcd7853,1556709024.683987,10.1.1.67,22,10.1.1.11,18909,4464,5792,0,66560,66608,6,6,4,1448,269,1,16778212,244,33304,124,66608,0,88,0,1
o,0xc67947eb,1556709024.684050,10.1.1.67,22,10.1.1.11,18909,4464,5792,0,66560,66608,6,6,4,1448,269,1,16778212,244,33304,228,66608,0,124,0,1
i,0x6e1ba8e9,1556709024.684255,10.1.1.67,22,10.1.1.11,18909,4464,5792,0,66560,66608,6,6,4,1448,269,1,16778212,244,33304,228,66608,0,228,0,1
i,0x7c290092,1556709024.684620,10.1.1.67,22,10.1.1.11,18909,4464,5792,0,66560,66608,6,6,4,1448,260,1,996,237,33304,104,66608,0,104,0,1
i,0x4e6b33f5,1556709024.708783,10.1.1.67,22,10.1.1.11,18909,4464,5792,0,66560,66608,6,6,4,1448,232,1,996,236,33304,0,66608,0,0,0,1
o,0x602e5708,1556709024.708787,10.1.1.67,22,10.1.1.11,18909,4464,5792,0,66560,66608,6,6,5,1448,232,1,997,236,33304,0,66608,36,0,0,1
o,0x6dc14f88,1556709024.708910,10.1.1.67,22,10.1.1.11,18909,4464,5792,0,66560,66608,6,6,8,1448,232,1,996,236,33304,0,0,0,0,0,1
i,0x303b6b88,1556709024.709037,10.1.1.67,22,10.1.1.11,18909,4464,5792,0,66560,66608,6,6,8,1448,232,1,1012,236,33304,0,0,0,1,0,1
i,0xd7737701,1556709025.708245,10.1.1.67,22,10.1.1.11,59350,4344,5792,0,115712,66608,6,6,4,1448,120,1,996,230,33304,0,66608,0,0,0,1
o,0x5394df1d,1556709025.708279,10.1.1.67,22,10.1.1.11,59350,4344,5792,0,115712,66608,6,6,4,1448,120,1,16778212,230,33304,52,66608,0,0,0,1
i,0x3df5c5ea,1556709025.737639,10.1.1.67,22,10.1.1.11,59350,4344,5792,0,115712,66608,6,6,4,1448,120,1,16778212,230,33304,52,66608,0,52,0,1
o,0x4a038c14,1556709025.737727,10.1.1.67,22,10.1.1.11,59350,4344,5792,0,115712,66608,6,6,4,1448,225,1,16778212,247,33304,36,66608,0,0,0,31
i,0xb1920a84,1556709025.738409,10.1.1.67,22,10.1.1.11,59350,4344,5792,0,115712,66608,6,6,4,1448,225,1,16778212,247,33304,36,66608,0,36,0,31
o,0xa8852682,1556709025.738635,10.1.1.67,22,10.1.1.11,59350,4344,5792,0,115712,66608,6,6,4,1448,197,1,16778212,243,33304,88,66608,0,0,0,1
o,0x99c83a3c,1556709025.744186,10.1.1.67,22,10.1.1.11,59350,4344,5792,0,115712,66608,6,6,4,1448,197,1,16778212,243,33304,140,66608,0,88,0,1
i,0x86774109,1556709025.744453,10.1.1.67,22,10.1.1.11,59350,4344,5792,0,115712,66608,6,6,4,1448,197,1,16778212,243,33304,140,66608,0,140,0,1
o,0xb668d899,1556709025.844702,10.1.1.67,22,10.1.1.11,59350,4344,5792,0,115648,66608,6,6,4,1448,193,1,16778212,235,33304,52,66608,0,0,0,1
o,0x15dd7f5c,1556709025.845046,10.1.1.67,22,10.1.1.11,59350,4344,5792,0,115648,66608,6,6,4,1448,193,1,16778212,235,33304,192,66608,0,52,0,1
i,0xc9de3968,1556709025.845320,10.1.1.67,22,10.1.1.11,59350,4344,5792,0,115648,66608,6,6,4,1448,193,1,16778212,235,33304,192,66608,0,192,0,1
i,0xd479f7f2,1556709025.845680,10.1.1.67,22,10.1.1.11,59350,4344,5792,0,115584,66608,6,6,4,1448,169,1,996,233,33304,0,66608,0,0,0,1
o,0xc6dfa268,1556709025.951793,10.1.1.67,22,10.1.1.11,59350,4344,5792,0,115712,66608,6,6,4,1448,169,1,997,233,33304,0,66608,0,0,0,1
i,0xf72e574c,1556709025.952053,10.1.1.67,22,10.1.1.11,59350,4344,5792,0,115712,66608,6,6,4,1448,169,1,996,233,33304,0,66608,0,0,0,1
o,0xa7d0df7a,1556709025.952090,10.1.1.67,22,10.1.1.11,59350,4344,5792,0,115712,66608,6,6,4,1448,169,1,16778212,233,33304,52,66608,0,0,0,1
i,0x0a30ca90,1556709025.966759,10.1.1.67,22,10.1.1.11,59350,4344,5792,0,115712,66608,6,6,4,1448,169,1,16778212,233,33304,52,66608,0,52,0,1
o,0x3f14ca05,1556709025.966973,10.1.1.67,22,10.1.1.11,59350,4344,5792,0,115712,66608,6,6,4,1448,208,1,16778212,237,33304,88,66608,0,0,0,1
o,0x6c5998f1,1556709025.972646,10.1.1.67,22,10.1.1.11,59350,4344,5792,0,115712,66608,6,6,4,1448,208,1,16778212,237,33304,124,66608,0,88,0,1
o,0x8e4b1ecd,1556709025.972710,10.1.1.67,22,10.1.1.11,59350,4344,5792,0,115712,66608,6,6,4,1448,208,1,16778212,237,33304,228,66608,0,124,0,1
i,0x2e1527a8,1556709025.972912,10.1.1.67,22,10.1.1.11,59350,4344,5792,0,115712,66608,6,6,4,1448,208,1,16778212,237,33304,228,66608,0,228,0,1
i,0xdc6ec034,1556709025.973664,10.1.1.67,22,10.1.1.11,59350,4344,5792,0,115712,66608,6,6,4,1448,206,1,996,230,33304,104,66608,0,104,0,1
o,0x38402b49,1556709026.079792,10.1.1.67,22,10.1.1.11,59350,4344,5792,0,115712,66608,6,6,4,1448,185,1,997,230,33304,0,66608,0,0,0,1
i,0xc004dd08,1556709026.080049,10.1.1.67,22,10.1.1.11,59350,4344,5792,0,115712,66608,6,6,4,1448,185,1,996,230,33304,0,66608,0,0,0,1
o,0xab36f15e,1556709026.080089,10.1.1.67,22,10.1.1.11,59350,4344,5792,0,115712,66608,6,6,4,1448,185,1,16778212,230,33304,52,66608,0,0,0,1
i,0x4f2ff52d,1556709026.119039,10.1.1.67,22,10.1.1.11,59350,4344,5792,0,115712,66608,6,6,4,1448,185,1,16778212,230,33304,52,66608,0,52,0,1
o,0xb9e8ab31,1556709026.119122,10.1.1.67,22,10.1.1.11,59350,4344,5792,0,115712,66608,6,6,4,1448,318,1,16778212,260,33304,36,66608,0,0,0,40
i,0x8623afec,1556709026.119695,10.1.1.67,22,10.1.1.11,59350,4344,5792,0,115712,66608,6,6,4,1448,318,1,16778212,260,33304,36,66608,0,36,0,40
o,0x4b908104,1556709026.119899,10.1.1.67,22,10.1.1.11,59350,4344,5792,0,115712,66608,6,6,4,1448,283,1,16778212,255,33304,88,66608,0,0,0,2
o,0xf601051c,1556709026.125368,10.1.1.67,22,10.1.1.11,59350,4344,5792,0,115712,66608,6,6,4,1448,283,1,16778212,255,33304,140,66608,0,88,0,2
i,0x5d5769a8,1556709026.125630,10.1.1.67,22,10.1.1.11,59350,4344,5792,0,115712,66608,6,6,4,1448,283,1,16778212,255,33304,140,66608,0,140,0,2
o,0x96d5c85b,1556709026.232861,10.1.1.67,22,10.1.1.11,59350,4344,5792,0,115648,66608,6,6,4,1448,272,1,16778212,246,33304,52,66608,0,0,0,2
o,0x1661485b,1556709026.233198,10.1.1.67,22,10.1.1.11,59350,4344,5792,0,115648,66608,6,6,4,1448,272,1,16778212,246,33304,192,66608,0,52,0,2
i,0x75d18089,1556709026.233462,10.1.1.67,22,10.1.1.11,59350,4344,5792,0,115648,66608,6,6,4,1448,272,1,16778212,246,33304,192,66608,0,192,0,2
i,0x7b37a373,1556709026.233811,10.1.1.67,22,10.1.1.11,59350,4344,5792,0,115584,66608,6,6,4,1448,238,1,996,244,33304,0,66608,0,0,0,1
o,0x036bece8,1556709026.333620,10.1.1.67,22,10.1.1.11,59350,4344,5792,0,115712,66608,6,6,4,1448,238,1,997,244,33304,0,66608,0,0,0,1
i,0x7f8948cd,1556709026.333884,10.1.1.67,22,10.1.1.11,59350,4344,5792,0,115712,66608,6,6,4,1448,238,1,996,244,33304,0,66608,0,0,0,1
o,0xfda07858,1556709026.333919,10.1.1.67,22,10.1.1.11,59350,4344,5792,0,115712,66608,6,6,4,1448,238,1,16778212,244,33304,52,66608,0,0,0,1
i,0xf7939625,1556709026.337602,10.1.1.67,22,10.1.1.11,59350,4344,5792,0,115712,66608,6,6,4,1448,238,1,16778212,244,33304,52,66608,0,52,0,1
o,0x55555422,1556709026.337813,10.1.1.67,22,10.1.1.11,59350,4344,5792,0,115712,66608,6,6,4,1448,225,1,16778212,238,33304,88,66608,0,0,0,1
o,0xd1388f90,1556709026.343478,10.1.1.67,22,10.1.1.11,59350,4344,5792,0,115712,66608,6,6,4,1448,225,1,16778212,238,33304,124,66608,0,88,0,1
o,0xc5da8baa,1556709026.343536,10.1.1.67,22,10.1.1.11,59350,4344,5792,0,115712,66608,6,6,4,1448,225,1,16778212,238,33304,228,66608,0,124,0,1
i,0x98846ce8,1556709026.343743,10.1.1.67,22,10.1.1.11,59350,4344,5792,0,115712,66608,6,6,4,1448,225,1,16778212,238,33304,228,66608,0,228,0,1
i,0xc2aa0c53,1556709026.344110,10.1.1.67,22,10.1.1.11,59350,4344,5792,0,115712,66608,6,6,4,1448,221,1,996,231,33304,104,66608,0,104,0,2
o,0x898dfda8,1556709026.443619,10.1.1.67,22,10.1.1.11,59350,4344,5792,0,115712,66608,6,6,4,1448,198,1,997,230,33304,0,66608,0,0,0,2
i,0xa4d3efd3,1556709026.443873,10.1.1.67,22,10.1.1.11,59350,4344,5792,0,115712,66608,6,6,4,1448,198,1,996,230,33304,0,66608,0,0,0,2
o,0x34de36a8,1556709026.543620,10.1.1.67,22,10.1.1.11,59350,4344,5792,0,115712,66608,6,6,4,1448,198,1,997,230,33304,0,66608,0,0,0,2
o,0xece18c54,1556709030.986061,172.16.11.67,57195,172.16.10.65,5000,1073725440,1073725440,0,0,0,0,0,2,536,0,1,672,3000,1048576,0,1048576,0,0,0,0
i,0x6a53348f,1556709031.027846,172.16.11.67,57195,172.16.10.65,5000,1073725440,1073725440,0,0,0,0,0,2,536,0,1,672,3000,1048576,0,1048576,0,1,0,0
o,0xd1ee8fda,1556709031.027854,172.16.11.67,57195,172.16.10.65,5000,1073725440,14480,0,65535,1049800,6,6,4,1448,1376,1,16778209,329,1049800,0,1049800,0,0,0,0
o,0x579f3699,1556709031.027870,172.16.11.67,57195,172.16.10.65,5000,1073725440,14480,0,65535,1049800,6,6,4,1448,1376,1,16778208,329,1049800,28,1049800,0,0,0,0
o,0xe1b30003,1556709031.027898,172.16.11.67,57195,172.16.10.65,5000,1073725440,14480,0,65535,1049800,6,6,4,1448,1376,1,16778208,329,1049800,131100,1049800,0,28,0,0
o,0x8c492b61,1556709031.027903,172.16.11.67,57195,172.16.10.65,5000,1073725440,14480,0,65535,1049800,6,6,4,1448,1376,1,16778208,329,1049800,131100,1049800,0,1476,0,0
o,0xa145c5e1,1556709031.027906,172.16.11.67,57195,172.16.10.65,5000,1073725440,14480,0,65535,1049800,6,6,4,1448,1376,1,16778208,329,1049800,131100,1049800,0,2924,0,0
o,0x4f5cab61,1556709031.027910,172.16.11.67,57195,172.16.10.65,5000,1073725440,14480,0,65535,1049800,6,6,4,1448,1376,1,16778208,329,1049800,131100,1049800,0,4372,0,0
o,0x561c8ea1,1556709031.027914,172.16.11.67,57195,172.16.10.65,5000,1073725440,14480,0,65535,1049800,6,6,4,1448,1376,1,16778208,329,1049800,131100,1049800,0,5820,0,0
o,0xa8f03162,1556709031.027917,172.16.11.67,57195,172.16.10.65,5000,1073725440,14480,0,65535,1049800,6,6,4,1448,1376,1,16778208,329,1049800,131100,1049800,0,7268,0,0
o,0x7513c0e2,1556709031.027921,172.16.11.67,57195,172.16.10.65,5000,1073725440,14480,0,65535,1049800,6,6,4,1448,1376,1,16778208,329,1049800,131100,1049800,0,8716,0,0
o,0x7aadce22,1556709031.027924,172.16.11.67,57195,172.16.10.65,5000,1073725440,14480,0,65535,1049800,6,6,4,1448,1376,1,16778208,329,1049800,131100,1049800,0,10164,0,0
o,0x28c4b3a2,1556709031.027928,172.16.11.67,57195,172.16.10.65,5000,1073725440,14480,0,65535,1049800,6,6,4,1448,1376,1,16778208,329,1049800,131100,1049800,0,11612,0,0
i,0xe0ff2c5a,1556709031.069849,172.16.11.67,57195,172.16.10.65,5000,1073725440,14480,0,65535,1049800,6,6,4,1448,1376,1,16778208,329,1049800,1048604,1049800,0,13060,0,0
i,0x0bcb69b9,1556709031.071842,172.16.11.67,57195,172.16.10.65,5000,1073725440,14480,0,1049792,1049800,6,6,4,1448,1376,1,16778208,329,1049800,1048604,1049800,0,13060,0,0
o,0x8d972443,1556709031.071846,172.16.11.67,57195,172.16.10.65,5000,1073725440,14480,0,1048320,1049800,6,6,4,1448,1380,1,16778208,308,1049800,1047128,1049800,0,11584,0,45
o,0xb39b74a2,1556709031.071850,172.16.11.67,57195,172.16.10.65,5000,1073725440,14480,0,1048320,1049800,6,6,4,1448,1380,1,16778208,308,1049800,1047128,1049800,0,13032,0,45
i,0x3185b479,1556709031.076842,172.16.11.67,57195,172.16.10.65,5000,1073725440,14480,0,1048320,1049800,6,6,4,1448,1380,1,16778208,308,1049800,1049800,1049800,0,14480,0,45
o,0xace5df03,1556709031.076845,172.16.11.67,57195,172.16.10.65,5000,1073725440,14480,0,1048320,1049800,6,6,4,1448,1404,1,16778208,299,1049800,1046904,1049800,0,11584,0,50
o,0xc1e27983,1556709031.076849,172.16.11.67,57195,172.16.10.65,5000,1073725440,14480,0,1048320,1049800,6,6,4,1448,1404,1,16778208,299,1049800,1046904,1049800,0,13032,0,50
i,0xd240983a,1556709031.081843,172.16.11.67,57195,172.16.10.65,5000,1073725440,14480,0,1048320,1049800,6,6,4,1448,1404,1,16778208,299,1049800,1049800,1049800,0,14480,0,50
o,0xd8e70583,1556709031.081845,172.16.11.67,57195,172.16.10.65,5000,1073725440,14480,0,1048320,1049800,6,6,4,1448,1445,1,16778208,296,1049800,1046904,1049800,0,11584,0,55
o,0xb3cb1fe4,1556709031.081849,172.16.11.67,57195,172.16.10.65,5000,1073725440,14480,0,1048320,1049800,6,6,4,1448,1445,1,16778208,296,1049800,1046904,1049800,0,13032,0,55
i,0x57107e3a,1556709031.086843,172.16.11.67,57195,172.16.10.65,5000,1073725440,14480,0,1048320,1049800,6,6,4,1448,1445,1,16778208,296,1049800,1049800,1049800,0,14480,0,55
o,0x1658d864,1556709031.086845,172.16.11.67,57195,172.16.10.65,5000,1073725440,14480,0,1048320,1049800,6,6,4,1448,1501,1,16778208,299,1049800,1046904,1049800,0,11584,0,60
o,0x0e5830c3,1556709031.086849,172.16.11.67,57195,172.16.10.65,5000,1073725440,14480,0,1048320,1049800,6,6,4,1448,1501,1,16778208,299,1049800,1046904,1049800,0,13032,0,60
i,0x20001e3a,1556709031.090842,172.16.11.67,57195,172.16.10.65,5000,1073725440,14480,0,1048320,1049800,6,6,4,1448,1501,1,16778208,299,1049800,1049800,1049800,0,14480,0,60
o,0x08676924,1556709031.090844,172.16.11.67,57195,172.16.10.65,5000,1073725440,14480,0,1048320,1049800,6,6,4,1448,1566,1,16778208,304,1049800,1046904,1049800,0,11584,0,64
o,0xb67e4ea4,1556709031.090848,172.16.11.67,57195,172.16.10.65,5000,1073725440,14480,0,1048320,1049800,6,6,4,1448,1566,1,16778208,304,1049800,1046904,1049800,0,13032,0,64
i,0x8df3d3ba,1556709031.117843,172.16.11.67,57195,172.16.10.65,5000,1073725440,14480,0,1048320,1049800,6,6,4,1448,1566,1,16778208,304,1049800,1049800,1049800,0,14480,0,64
o,0x929ef703,1556709031.117847,172.16.11.67,57195,172.16.10.65,5000,1073725440,17376,0,1048320,1049800,6,6,4,1448,1555,1,16778208,293,1049800,1046904,1049800,0,11584,0,47
o,0x8cc77e83,1556709031.117850,172.16.11.67,57195,172.16.10.65,5000,1073725440,17376,0,1048320,1049800,6,6,4,1448,1555,1,16778208,293,1049800,1046904,1049800,0,13032,0,47
o,0x1dacb7e4,1556709031.117854,172.16.11.67,57195,172.16.10.65,5000,1073725440,17376,0,1048320,1049800,6,6,4,1448,1555,1,16778208,293,1049800,1046904,1049800,0,14480,0,47
o,0x5e851b43,1556709031.117858,172.16.11.67,57195,172.16.10.65,5000,1073725440,17376,0,1048320,1049800,6,6,4,1448,1555,1,16778208,293,1049800,1046904,1049800,0,15928,0,47
i,0x1d973019,1556709031.122846,172.16.11.67,57195,172.16.10.65,5000,1073725440,17376,0,1048320,1049800,6,6,4,1448,1555,1,16778208,293,1049800,1049800,1049800,0,17376,0,47
o,0x750131c3,1556709031.122849,172.16.11.67,57195,172.16.10.65,5000,1073725440,20272,0,1048320,1049800,6,6,4,1448,1545,1,16778208,284,1049800,1046904,1049800,0,14480,0,47
o,0x4fe54c24,1556709031.122853,172.16.11.67,57195,172.16.10.65,5000,1073725440,20272,0,1048320,1049800,6,6,4,1448,1545,1,16778208,284,1049800,1046904,1049800,0,15928,0,47
o,0x75e99c83,1556709031.122856,172.16.11.67,57195,172.16.10.65,5000,1073725440,20272,0,1048320,1049800,6,6,4,1448,1545,1,16778208,284,1049800,1046904,1049800,0,17376,0,47
o,0x06ced5e4,1556709031.122860,172.16.11.67,57195,172.16.10.65,5000,1073725440,20272,0,1048320,1049800,6,6,4,1448,1545,1,16778208,284,1049800,1046904,1049800,0,18824,0,47
i,0xd7b3ba1b,1556709031.127843,172.16.11.67,57195,172.16.10.65,5000,1073725440,20272,0,1048320,1049800,6,6,4,1448,1545,1,16778208,284,1049800,1049800,1049800,0,20272,0,47
o,0x8430a164,1556709031.127846,172.16.11.67,57195,172.16.10.65,5000,1073725440,23168,0,1048320,1049800,6,6,4,1448,1536,1,16778208,277,1049800,1046904,1049800,0,17376,0,47
o,0x5e234fc3,1556709031.127850,172.16.11.67,57195,172.16.10.65,5000,1073725440,23168,0,1048320,1049800,6,6,4,1448,1536,1,16778208,277,1049800,1046904,1049800,0,18824,0,47
o,0x7445c043,1556709031.127853,172.16.11.67,57195,172.16.10.65,5000,1073725440,23168,0,1048320,1049800,6,6,4,1448,1536,1,16778208,277,1049800,1046904,1049800,0,20272,0,47
o,0x5f0bba83,1556709031.127857,172.16.11.67,57195,172.16.10.65,5000,1073725440,23168,0,1048320,1049800,6,6,4,1448,1536,1,16778208,277,1049800,1046904,1049800,0,21720,0,47
i,0x2c1e7b5b,1556709031.132842,172.16.11.67,57195,172.16.10.65,5000,1073725440,23168,0,1048320,1049800,6,6,4,1448,1536,1,16778208,277,1049800,1049800,1049800,0,23168,0,47
o,0x93947b03,1556709031.132844,172.16.11.67,57195,172.16.10.65,5000,1073725440,26064,0,1048320,1049800,6,6,4,1448,1528,1,16778208,272,1049800,1046904,1049800,0,20272,0,47
o,0xa8911583,1556709031.132848,172.16.11.67,57195,172.16.10.65,5000,1073725440,26064,0,1048320,1049800,6,6,4,1448,1528,1,16778208,272,1049800,1046904,1049800,0,21720,0,47
o,0x47456dc3,1556709031.132852,172.16.11.67,57195,172.16.10.65,5000,1073725440,26064,0,1048320,1049800,6,6,4,1448,1528,1,16778208,272,1049800,1046904,1049800,0,23168,0,47
o,0x5d67de43,1556709031.132855,172.16.11.67,57195,172.16.10.65,5000,1073725440,26064,0,1048320,1049800,6,6,4,1448,1528,1,16778208,272,1049800,1046904,1049800,0,24616,0,47
i,0x023e9aba,1556709031.136842,172.16.11.67,57195,172.16.10.65,5000,1073725440,26064,0,1048320,1049800,6,6,4,1448,1528,1,16778208,272,1049800,1049800,1049800,0,26064,0,47
o,0x77e159c3,1556709031.136844,172.16.11.67,57195,172.16.10.65,5000,1073725440,28960,0,1048320,1049800,6,6,4,1448,1521,1,16778208,267,1049800,1046904,1049800,0,23168,0,47
o,0x34a25c03,1556709031.136848,172.16.11.67,57195,172.16.10.65,5000,1073725440,28960,0,1048320,1049800,6,6,4,1448,1521,1,16778208,267,1049800,1046904,1049800,0,24616,0,47
o,0x499ef683,1556709031.136852,172.16.11.67,57195,172.16.10.65,5000,1073725440,28960,0,1048320,1049800,6,6,4,1448,1521,1,16778208,267,1049800,1046904,1049800,0,26064,0,47
o,0xbc7785e4,1556709031.136855,172.16.11.67,57195,172.16.10.65,5000,1073725440,28960,0,1048320,1049800,6,6,4,1448,1521,1,16778208,267,1049800,1046904,1049800,0,27512,0,47
i,0xada2639b,1556709031.163848,172.16.11.67,57195,172.16.10.65,5000,1073725440,28960,0,1048320,1049800,6,6,4,1448,1521,1,16778208,267,1049800,1049800,1049800,0,28960,0,47
o,0x98982e43,1556709031.163853,172.16.11.67,57195,172.16.10.65,5000,1073725440,28960,0,1048320,1049800,6,6,4,1448,1515,1,16778208,263,1049800,1046904,1049800,0,26064,0,47
o,0x92c0b5c3,1556709031.163857,172.16.11.67,57195,172.16.10.65,5000,1073725440,28960,0,1048320,1049800,6,6,4,1448,1515,1,16778208,263,1049800,1046904,1049800,0,27512,0,47
i,0x3272499b,1556709031.168843,172.16.11.67,57195,172.16.10.65,5000,1073725440,28960,0,1048320,1049800,6,6,4,1448,1515,1,16778208,263,1049800,1049800,1049800,0,28960,0,47
o,0xc7497643,1556709031.168847,172.16.11.67,57195,172.16.10.65,5000,1073725440,28960,0,1048320,1049800,6,6,4,1448,1530,1,16778208,264,1049800,1046904,1049800,0,26064,0,52
o,0xcce38383,1556709031.168851,172.16.11.67,57195,172.16.10.65,5000,1073725440,28960,0,1048320,1049800,6,6,4,1448,1530,1,16778208,264,1049800,1046904,1049800,0,27512,0,52
i,0xc215a5fa,1556709031.173847,172.16.11.67,57195,172.16.10.65,5000,1073725440,28960,0,1048320,1049800,6,6,4,1448,1530,1,16778208,264,1049800,1049800,1049800,0,28960,0,52
o,0xe35f9a03,1556709031.173850,172.16.11.67,57195,172.16.10.65,5000,1073725440,28960,0,1048320,1049800,6,6,4,1448,1543,1,16778208,263,1049800,1046904,1049800,0,26064,0,52
o,0x095ad8c2,1556709031.173853,172.16.11.67,57195,172.16.10.65,5000,1073725440,28960,0,1048320,1049800,6,6,4,1448,1543,1,16778208,263,1049800,1046904,1049800,0,27512,0,52
i,0xac97559b,1556709031.178847,172.16.11.67,57195,172.16.10.65,5000,1073725440,28960,0,1048320,1049800,6,6,4,1448,1543,1,16778208,263,1049800,1049800,1049800,0,28960,0,52
o,0x5c860402,1556709031.178849,172.16.11.67,57195,172.16.10.65,5000,1073725440,28960,0,1048320,1049800,6,6,4,1448,1575,1,16778208,268,1049800,1046904,1049800,0,26064,0,57
o,0x28a99382,1556709031.178853,172.16.11.67,57195,172.16.10.65,5000,1073725440,28960,0,1048320,1049800,6,6,4,1448,1575,1,16778208,268,1049800,1046904,1049800,0,27512,0,57
i,0xdf70073a,1556709031.182844,172.16.11.67,57195,172.16.10.65,5000,1073725440,28960,0,1048320,1049800,6,6,4,1448,1575,1,16778208,268,1049800,1049800,1049800,0,28960,0,57
o,0x5df72202,1556709031.182846,172.16.11.67,57195,172.16.10.65,5000,1073725440,28960,0,1048320,1049800,6,6,4,1448,1599,1,16778208,270,1049800,1046904,1049800,0,26064,0,56
o,0xfcab7a42,1556709031.182850,172.16.11.67,57195,172.16.10.65,5000,1073725440,28960,0,1048320,1049800,6,6,4,1448,1599,1,16778208,270,1049800,1046904,1049800,0,27512,0,56
i,0xf61e6079,1556709031.187846,172.16.11.67,57195,172.16.10.65,5000,1073725440,28960,0,1048320,1049800,6,6,4,1448,1599,1,16778208,270,1049800,1049800,1049800,0,28960,0,56
o,0x7b331bc2,1556709031.187848,172.16.11.67,57195,172.16.10.65,5000,1073725440,28960,0,1048320,1049800,6,6,4,1448,1640,1,16778208,277,1049800,1046904,1049800,0,26064,0,61
o,0xce06be83,1556709031.187852,172.16.11.67,57195,172.16.10.65,5000,1073725440,28960,0,1048320,1049800,6,6,4,1448,1640,1,16778208,277,1049800,1046904,1049800,0,27512,0,61
i,0x4a8921b9,1556709031.192846,172.16.11.67,57195,172.16.10.65,5000,1073725440,28960,0,1048320,1049800,6,6,4,1448,1640,1,16778208,277,1049800,1049800,1049800,0,28960,0,61
o,0xf32cf1c3,1556709031.192849,172.16.11.67,57195,172.16.10.65,5000,1073725440,28960,0,1048320,1049800,6,6,4,1448,1675,1,16778208,280,1049800,1046904,1049800,0,26064,0,61
o,0x08298c43,1556709031.192853,172.16.11.67,57195,172.16.10.65,5000,1073725440,28960,0,1048320,1049800,6,6,4,1448,1675,1,16778208,280,1049800,1046904,1049800,0,27512,0,61
i,0x70436c79,1556709031.197848,172.16.11.67,57195,172.16.10.65,5000,1073725440,28960,0,1048320,1049800,6,6,4,1448,1675,1,16778208,280,1049800,1049800,1049800,0,28960,0,61
o,0x1ea5a2c3,1556709031.197850,172.16.11.67,57195,172.16.10.65,5000,1073725440,28960,0,1048320,1049800,6,6,4,1448,1726,1,16778208,287,1049800,1046904,1049800,0,26064,0,66
o,0x25658603,1556709031.197854,172.16.11.67,57195,172.16.10.65,5000,1073725440,28960,0,1048320,1049800,6,6,4,1448,1726,1,16778208,287,1049800,1046904,1049800,0,27512,0,66
i,0x67f59b79,1556709031.202847,172.16.11.67,57195,172.16.10.65,5000,1073725440,28960,0,1048320,1049800,6,6,4,1448,1726,1,16778208,287,1049800,1049800,1049800,0,28960,0,66
o,0x87f33e83,1556709031.202849,172.16.11.67,57195,172.16.10.65,5000,1073725440,28960,0,1048320,1049800,6,6,4,1448,1775,1,16778208,293,1049800,1046904,1049800,0,26064,0,67
o,0x5416ce03,1556709031.202853,172.16.11.67,57195,172.16.10.65,5000,1073725440,28960,0,1048320,1049800,6,6,4,1448,1775,1,16778208,293,1049800,1046904,1049800,0,27512,0,67
i,0x8ffad6b9,1556709031.206843,172.16.11.67,57195,172.16.10.65,5000,1073725440,28960,0,1048320,1049800,6,6,4,1448,1775,1,16778208,293,1049800,1049800,1049800,0,28960,0,67
o,0xb5402562,1556709031.206846,172.16.11.67,57195,172.16.10.65,5000,1073725440,28960,0,1048320,1049800,6,6,4,1448,1834,1,16778208,300,1049800,1046904,1049800,0,26064,0,71
o,0x2818b4c3,1556709031.206850,172.16.11.67,57195,172.16.10.65,5000,1073725440,28960,0,1048320,1049800,6,6,4,1448,1834,1,16778208,300,1049800,1046904,1049800,0,27512,0,71
i,0x7d2c8e39,1556709031.211844,172.16.11.67,57195,172.16.10.65,5000,1073725440,28960,0,1048320,1049800,6,6,4,1448,1834,1,16778208,300,1049800,1049800,1049800,0,28960,0,71
o,0xa6a05643,1556709031.211846,172.16.11.67,57195,172.16.10.65,5000,1073725440,28960,0,1048320,1049800,6,6,4,1448,1797,1,16778208,297,1049800,1046904,1049800,0,26064,0,49
o,0xcca4a6a2,1556709031.211850,172.16.11.67,57195,172.16.10.65,5000,1073725440,28960,0,1048320,1049800,6,6,4,1448,1797,1,16778208,297,1049800,1046904,1049800,0,27512,0,49
i,0xd1974f79,1556709031.216843,172.16.11.67,57195,172.16.10.65,5000,1073725440,28960,0,1048320,1049800,6,6,4,1448,1797,1,16778208,297,1049800,1049800,1049800,0,28960,0,49
o,0xc5ef1103,1556709031.216846,172.16.11.67,57195,172.16.10.65,5000,1073725440,28960,0,1048320,1049800,6,6,4,1448,1765,1,16778208,294,1049800,1046904,1049800,0,26064,0,49
o,0x06c77462,1556709031.216849,172.16.11.67,57195,172.16.10.65,5000,1073725440,28960,0,1048320,1049800,6,6,4,1448,1765,1,16778208,294,1049800,1046904,1049800,0,27512,0,49
i,0x260210b9,1556709031.221848,172.16.11.67,57195,172.16.10.65,5000,1073725440,28960,0,1048320,1049800,6,6,4,1448,1765,1,16778208,294,1049800,1049800,1049800,0,28960,0,49
o,0x1d438ae2,1556709031.221851,172.16.11.67,57195,172.16.10.65,5000,1073725440,28960,0,1048320,1049800,6,6,4,1448,1737,1,16778208,291,1049800,1046904,1049800,0,26064,0,49
o,0xf827a543,1556709031.221854,172.16.11.67,57195,172.16.10.65,5000,1073725440,28960,0,1048320,1049800,6,6,4,1448,1737,1,16778208,291,1049800,1046904,1049800,0,27512,0,49
i,0x1b5736b9,1556709031.226847,172.16.11.67,57195,172.16.10.65,5000,1073725440,28960,0,1048320,1049800,6,6,4,1448,1737,1,16778208,291,1049800,1049800,1049800,0,28960,0,49
o,0x869126a2,1556709031.226849,172.16.11.67,57195,172.16.10.65,5000,1073725440,28960,0,1048320,1049800,6,6,4,1448,1712,1,16778208,287,1049800,1046904,1049800,0,26064,0,49
o,0x52b4b622,1556709031.226853,172.16.11.67,57195,172.16.10.65,5000,1073725440,28960,0,1048320,1049800,6,6,4,1448,1712,1,16778208,287,1049800,1046904,1049800,0,27512,0,49
i,0xb63ebaf9,1556709031.230844,172.16.11.67,57195,172.16.10.65,5000,1073725440,28960,0,1048320,1049800,6,6,4,1448,1712,1,16778208,287,1049800,1049800,1049800,0,28960,0,49
o,0x4cc3ee83,1556709031.230846,172.16.11.67,57195,172.16.10.65,5000,1073725440,28960,0,1048320,1049800,6,6,4,1448,1690,1,16778208,283,1049800,1046904,1049800,0,26064,0,49
o,0x26b69ce2,1556709031.230850,172.16.11.67,57195,172.16.10.65,5000,1073725440,28960,0,1048320,1049800,6,6,4,1448,1690,1,16778208,283,1049800,1046904,1049800,0,27512,0,49
i,0x269479fa,1556709031.235843,172.16.11.67,57195,172.16.10.65,5000,1073725440,28960,0,1048320,1049800,6,6,4,1448,1690,1,16778208,283,1049800,1049800,1049800,0,28960,0,49
o,0xa53e3e62,1556709031.235845,172.16.11.67,57195,172.16.10.65,5000,1073725440,28960,0,1048320,1049800,6,6,4,1448,1671,1,16778208,280,1049800,1046904,1049800,0,26064,0,49
o,0x64286fc3,1556709031.235849,172.16.11.67,57195,172.16.10.65,5000,1073725440,28960,0,1048320,1049800,6,6,4,1448,1671,1,16778208,280,1049800,1046904,1049800,0,27512,0,49
i,0x1be99ffa,1556709031.240843,172.16.11.67,57195,172.16.10.65,5000,1073725440,28960,0,1048320,1049800,6,6,4,1448,1671,1,16778208,280,1049800,1049800,1049800,0,28960,0,49
o,0xc48cf922,1556709031.240846,172.16.11.67,57195,172.16.10.65,5000,1073725440,28960,0,1048320,1049800,6,6,4,1448,1655,1,16778208,276,1049800,1046904,1049800,0,26064,0,49
o,0xd98993a2,1556709031.240849,172.16.11.67,57195,172.16.10.65,5000,1073725440,28960,0,1048320,1049800,6,6,4,1448,1655,1,16778208,276,1049800,1046904,1049800,0,27512,0,49
i,0x7054613a,1556709031.245848,172.16.11.67,57195,172.16.10.65,5000,1073725440,28960,0,1048320,1049800,6,6,4,1448,1655,1,16778208,276,1049800,1049800,1049800,0,28960,0,49
o,0xb4c75403,1556709031.245850,172.16.11.67,57195,172.16.10.65,5000,1073725440,28960,0,1048320,1049800,6,6,4,1448,1641,1,16778208,273,1049800,1046904,1049800,0,26064,0,49
o,0xf6c58d62,1556709031.245854,172.16.11.67,57195,172.16.10.65,5000,1073725440,28960,0,1048320,1049800,6,6,4,1448,1641,1,16778208,273,1049800,1046904,1049800,0,27512,0,49
i,0xc4bf227a,1556709031.250847,172.16.11.67,57195,172.16.10.65,5000,1073725440,28960,0,1048320,1049800,6,6,4,1448,1641,1,16778208,273,1049800,1049800,1049800,0,28960,0,49
o,0x595345e2,1556709031.250850,172.16.11.67,57195,172.16.10.65,5000,1073725440,28960,0,1048320,1049800,6,6,4,1448,1628,1,16778208,270,1049800,1046904,1049800,0,26064,0,49
o,0xea387f43,1556709031.250854,172.16.11.67,57195,172.16.10.65,5000,1073725440,28960,0,1048320,1049800,6,6,4,1448,1628,1,16778208,270,1049800,1046904,1049800,0,27512,0,49
i,0x00910b7a,1556709031.254844,172.16.11.67,57195,172.16.10.65,5000,1073725440,28960,0,1048320,1049800,6,6,4,1448,1628,1,16778208,270,1049800,1049800,1049800,0,28960,0,49
o,0x4b61d6a2,1556709031.254847,172.16.11.67,57195,172.16.10.65,5000,1073725440,28960,0,1048320,1049800,6,6,4,1448,1617,1,16778208,268,1049800,1046904,1049800,0,26064,0,49
o,0xf978bc22,1556709031.254850,172.16.11.67,57195,172.16.10.65,5000,1073725440,28960,0,1048320,1049800,6,6,4,1448,1617,1,16778208,268,1049800,1046904,1049800,0,27512,0,49
i,0x54fbccba,1556709031.259843,172.16.11.67,57195,172.16.10.65,5000,1073725440,28960,0,1048320,1049800,6,6,4,1448,1617,1,16778208,268,1049800,1049800,1049800,0,28960,0,49
o,0x3cc20783,1556709031.259846,172.16.11.67,57195,172.16.10.65,5000,1073725440,28960,0,1048320,1049800,6,6,4,1448,1607,1,16778208,266,1049800,1046904,1049800,0,26064,0,49
o,0x62c657e2,1556709031.259849,172.16.11.67,57195,172.16.10.65,5000,1073725440,28960,0,1048320,1049800,6,6,4,1448,1607,1,16778208,266,1049800,1046904,1049800,0,27512,0,49
i,0xa9668dfa,1556709031.264843,172.16.11.67,57195,172.16.10.65,5000,1073725440,28960,0,1048320,1049800,6,6,4,1448,1607,1,16778208,266,1049800,1049800,1049800,0,28960,0,49
o,0x974f1862,1556709031.264845,172.16.11.67,57195,172.16.10.65,5000,1073725440,28960,0,1048320,1049800,6,6,4,1448,1599,1,16778208,263,1049800,1046904,1049800,0,26064,0,49
o,0x710d5cc3,1556709031.264849,172.16.11.67,57195,172.16.10.65,5000,1073725440,28960,0,1048320,1049800,6,6,4,1448,1599,1,16778208,263,1049800,1046904,1049800,0,27512,0,49
i,0x3909ea59,1556709031.269847,172.16.11.67,57195,172.16.10.65,5000,1073725440,28960,0,1048320,1049800,6,6,4,1448,1599,1,16778208,263,1049800,1049800,1049800,0,28960,0,49
o,0xb3653c22,1556709031.269850,172.16.11.67,57195,172.16.10.65,5000,1073725440,28960,0,1048320,1049800,6,6,4,1448,1592,1,16778208,262,1049800,1046904,1049800,0,26064,0,49
o,0xc987aca2,1556709031.269854,172.16.11.67,57195,172.16.10.65,5000,1073725440,28960,0,1048320,1049800,6,6,4,1448,1592,1,16778208,262,1049800,1046904,1049800,0,27512,0,49
i,0xf326753a,1556709031.274847,172.16.11.67,57195,172.16.10.65,5000,1073725440,28960,0,1048320,1049800,6,6,4,1448,1592,1,16778208,262,1049800,1049800,1049800,0,28960,0,49
o,0xf0d70f03,1556709031.274850,172.16.11.67,57195,172.16.10.65,5000,1073725440,28960,0,1048320,1049800,6,6,4,1448,1585,1,16778208,260,1049800,1046904,1049800,0,26064,0,49
o,0xe8d66762,1556709031.274854,172.16.11.67,57195,172.16.10.65,5000,1073725440,28960,0,1048320,1049800,6,6,4,1448,1585,1,16778208,260,1049800,1046904,1049800,0,27512,0,49
i,0xc9469499,1556709031.278843,172.16.11.67,57195,172.16.10.65,5000,1073725440,28960,0,1048320,1049800,6,6,4,1448,1585,1,16778208,260,1049800,1049800,1049800,0,28960,0,49
o,0x1e23f5e2,1556709031.278845,172.16.11.67,57195,172.16.10.65,5000,1073725440,28960,0,1048320,1049800,6,6,4,1448,1579,1,16778208,259,1049800,1046904,1049800,0,26064,0,49
o,0x90fc8543,1556709031.278849,172.16.11.67,57195,172.16.10.65,5000,1073725440,28960,0,1048320,1049800,6,6,4,1448,1579,1,16778208,259,1049800,1046904,1049800,0,27512,0,49
i,0x1db155d9,1556709031.283842,172.16.11.67,57195,172.16.10.65,5000,1073725440,28960,0,1048320,1049800,6,6,4,1448,1579,1,16778208,259,1049800,1049800,1049800,0,28960,0,49
o,0x4b38bde1,1556709031.283845,172.16.11.67,57195,172.16.10.65,5000,1073725440,28960,0,1048320,1049800,6,6,4,1448,1574,1,16778208,257,1049800,1046904,1049800,0,26064,0,49
o,0xaa98f843,1556709031.283849,172.16.11.67,57195,172.16.10.65,5000,1073725440,28960,0,1048320,1049800,6,6,4,1448,1574,1,16778208,257,1049800,1046904,1049800,0,27512,0,49
i,0xd7cde0ba,1556709031.288844,172.16.11.67,57195,172.16.10.65,5000,1073725440,28960,0,1048320,1049800,6,6,4,1448,1574,1,16778208,257,1049800,1049800,1049800,0,28960,0,49
o,0x008e48c2,1556709031.288846,172.16.11.67,57195,172.16.10.65,5000,1073725440,28960,0,1048320,1049800,6,6,4,1448,1570,1,16778208,256,1049800,1046904,1049800,0,26064,0,49
o,0xda80f721,1556709031.288850,172.16.11.67,57195,172.16.10.65,5000,1073725440,28960,0,1048320,1049800,6,6,4,1448,1570,1,16778208,256,1049800,1046904,1049800,0,27512,0,49
i,0xf94fb058,1556709031.293846,172.16.11.67,57195,172.16.10.65,5000,1073725440,28960,0,1048320,1049800,6,6,4,1448,1570,1,16778208,256,1049800,1049800,1049800,0,28960,0,49
o,0x590898a1,1556709031.293849,172.16.11.67,57195,172.16.10.65,5000,1073725440,28960,0,1048320,1049800,6,6,4,1448,1566,1,16778208,255,1049800,1046904,1049800,0,26064,0,49
o,0x43ce92e1,1556709031.293852,172.16.11.67,57195,172.16.10.65,5000,1073725440,28960,0,1048320,1049800,6,6,4,1448,1566,1,16778208,255,1049800,1046904,1049800,0,27512,0,49
i,0x4dba7198,1556709031.298848,172.16.11.67,57195,172.16.10.65,5000,1073725440,28960,0,1048320,1049800,6,6,4,1448,1566,1,16778208,255,1049800,1049800,1049800,0,28960,0,49
o,0xd1026ea2,1556709031.298851,172.16.11.67,57195,172.16.10.65,5000,1073725440,28960,0,1048320,1049800,6,6,4,1448,1563,1,16778208,254,1049800,1046904,1049800,0,26064,0,49
o,0xe5ff0922,1556709031.298854,172.16.11.67,57195,172.16.10.65,5000,1073725440,28960,0,1048320,1049800,6,6,4,1448,1563,1,16778208,254,1049800,1046904,1049800,0,27512,0,49
i,0x4e53bf79,1556709031.302844,172.16.11.67,57195,172.16.10.65,5000,1073725440,28960,0,1048320,1049800,6,6,4,1448,1563,1,16778208,254,1049800,1049800,1049800,0,28960,0,49
o,0xe042ab81,1556709031.302847,172.16.11.67,57195,172.16.10.65,5000,1073725440,28960,0,1048320,1049800,6,6,4,1448,1560,1,16778208,254,1049800,1046904,1049800,0,26064,0,49
o,0xbb26c5e2,1556709031.302850,172.16.11.67,57195,172.16.10.65,5000,1073725440,28960,0,1048320,1049800,6,6,4,1448,1560,1,16778208,254,1049800,1046904,1049800,0,27512,0,49
i,0xddf71bd8,1556709031.307843,172.16.11.67,57195,172.16.10.65,5000,1073725440,28960,0,1048320,1049800,6,6,4,1448,1560,1,16778208,254,1049800,1049800,1049800,0,28960,0,49
o,0x1db47e62,1556709031.307846,172.16.11.67,57195,172.16.10.65,5000,1073725440,28960,0,1048320,1049800,6,6,4,1448,1557,1,16778208,253,1049800,1046904,1049800,0,26064,0,49
o,0x15b3d6c1,1556709031.307850,172.16.11.67,57195,172.16.10.65,5000,1073725440,28960,0,1048320,1049800,6,6,4,1448,1557,1,16778208,253,1049800,1046904,1049800,0,27512,0,49
i,0x229e84b9,1556709031.312842,172.16.11.67,57195,172.16.10.65,5000,1073725440,28960,0,1048320,1049800,6,6,4,1448,1557,1,16778208,253,1049800,1049800,1049800,0,28960,0,49
o,0x430cd043,1556709031.312845,172.16.11.67,57195,172.16.10.65,5000,1073725440,28960,0,1048320,1049800,6,6,4,1448,1555,1,16778208,252,1049800,1046904,1049800,0,26064,0,49
o,0xf123b5c3,1556709031.312849,172.16.11.67,57195,172.16.10.65,5000,1073725440,28960,0,1048320,1049800,6,6,4,1448,1555,1,16778208,252,1049800,1046904,1049800,0,27512,0,49
i,0xdcbb0f9a,1556709031.317847,172.16.11.67,57195,172.16.10.65,5000,1073725440,28960,0,1048320,1049800,6,6,4,1448,1555,1,16778208,252,1049800,1049800,1049800,0,28960,0,49
o,0x9b872022,1556709031.317850,172.16.11.67,57195,172.16.10.65,5000,1073725440,28960,0,1048320,1049800,6,6,4,1448,1553,1,16778208,252,1049800,1046904,1049800,0,26064,0,49
o,0x5a715183,1556709031.317853,172.16.11.67,57195,172.16.10.65,5000,1073725440,28960,0,1048320,1049800,6,6,4,1448,1553,1,16778208,252,1049800,1046904,1049800,0,27512,0,49
i,0x6c5e6bf9,1556709031.322847,172.16.11.67,57195,172.16.10.65,5000,1073725440,28960,0,1048320,1049800,6,6,4,1448,1553,1,16778208,252,1049800,1049800,1049800,0,28960,0,49
o,0x8efa1203,1556709031.322850,172.16.11.67,57195,172.16.10.65,5000,1073725440,28960,0,1048320,1049800,6,6,4,1448,1551,1,16778208,251,1049800,1046904,1049800,0,26064,0,49
o,0xcfd27562,1556709031.322853,172.16.11.67,57195,172.16.10.65,5000,1073725440,28960,0,1048320,1049800,6,6,4,1448,1551,1,16778208,251,1049800,1046904,1049800,0,27512,0,49
i,0x0745f039,1556709031.326843,172.16.11.67,57195,172.16.10.65,5000,1073725440,28960,0,1048320,1049800,6,6,4,1448,1551,1,16778208,251,1049800,1049800,1049800,0,28960,0,49
o,0x62fbf8c3,1556709031.326846,172.16.11.67,57195,172.16.10.65,5000,1073725440,28960,0,1048320,1049800,6,6,4,1448,1550,1,16778208,251,1049800,1046904,1049800,0,26064,0,49
o,0x791e6943,1556709031.326850,172.16.11.67,57195,172.16.10.65,5000,1073725440,28960,0,1048320,1049800,6,6,4,1448,1550,1,16778208,251,1049800,1046904,1049800,0,27512,0,49
i,0xc1627b1a,1556709031.331842,172.16.11.67,57195,172.16.10.65,5000,1073725440,28960,0,1048320,1049800,6,6,4,1448,1550,1,16778208,251,1049800,1049800,1049800,0,28960,0,49
o,0x0787eaa2,1556709031.331845,172.16.11.67,57195,172.16.10.65,5000,1073725440,28960,0,1048320,1049800,6,6,4,1448,1549,1,16778208,250,1049800,1046904,1049800,0,26064,0,49
o,0x986d2403,1556709031.331849,172.16.11.67,57195,172.16.10.65,5000,1073725440,28960,0,1048320,1049800,6,6,4,1448,1549,1,16778208,250,1049800,1046904,1049800,0,27512,0,49
i,0x5105d779,1556709031.336845,172.16.11.67,57195,172.16.10.65,5000,1073725440,28960,0,1048320,1049800,6,6,4,1448,1549,1,16778208,250,1049800,1047880,1049800,0,28960,0,49
o,0x15ceef83,1556709031.336847,172.16.11.67,57195,172.16.10.65,5000,1073725440,28960,0,1048320,1049800,6,6,4,1448,1548,1,16778208,250,1049800,1044984,1049800,0,26064,0,49
o,0xefc19de2,1556709031.336851,172.16.11.67,57195,172.16.10.65,5000,1073725440,28960,0,1048320,1049800,6,6,4,1448,1548,1,16778208,250,1049800,1044984,1049800,0,27512,0,49
i,0xc15b967a,1556709031.341848,172.16.11.67,57195,172.16.10.65,5000,1073725440,28960,0,1048320,1049800,6,6,4,1448,1548,1,16778208,250,1049800,1049800,1049800,0,28960,0,49
o,0x07b795e4,1556709031.341850,172.16.11.67,57195,172.16.10.65,5000,1073725440,28960,0,1048320,1049800,6,6,4,1448,1547,1,16778208,250,1049800,1046904,1049800,0,26064,0,49
o,0x01e01d64,1556709031.341854,172.16.11.67,57195,172.16.10.65,5000,1073725440,28960,0,1048320,1049800,6,6,4,1448,1547,1,16778208,250,1049800,1046904,1049800,0,27512,0,49
i,0x15c657ba,1556709031.346847,172.16.11.67,57195,172.16.10.65,5000,1073725440,28960,0,1048320,1049800,6,6,4,1448,1547,1,16778208,250,1049800,1049800,1049800,0,28960,0,49
o,0x6244a6c3,1556709031.346850,172.16.11.67,57195,172.16.10.65,5000,1073725440,28960,0,1048320,1049800,6,6,4,1448,1546,1,16778208,250,1049800,1046904,1049800,0,26064,0,49
o,0x3c02eb24,1556709031.346853,172.16.11.67,57195,172.16.10.65,5000,1073725440,28960,0,1048320,1049800,6,6,4,1448,1546,1,16778208,250,1049800,1046904,1049800,0,27512,0,49
i,0x519840ba,1556709031.350844,172.16.11.67,57195,172.16.10.65,5000,1073725440,28960,0,1048320,1049800,6,6,4,1448,1546,1,16778208,250,1049800,1049800,1049800,0,28960,0,49
o,0x0a6ac4a4,1556709031.350846,172.16.11.67,57195,172.16.10.65,5000,1073725440,28960,0,1048320,1049800,6,6,4,1448,1545,1,16778208,250,1049800,1046904,1049800,0,26064,0,49
o,0x4c68fe03,1556709031.350850,172.16.11.67,57195,172.16.10.65,5000,1073725440,28960,0,1048320,1049800,6,6,4,1448,1545,1,16778208,250,1049800,1046904,1049800,0,27512,0,49
i,0xa60301fa,1556709031.355842,172.16.11.67,57195,172.16.10.65,5000,1073725440,28960,0,1048320,1049800,6,6,4,1448,1545,1,16778208,250,1049800,1049800,1049800,0,28960,0,49
o,0x73b86064,1556709031.355845,172.16.11.67,57195,172.16.10.65,5000,1073725440,28960,0,1048320,1049800,6,6,4,1448,1544,1,16778208,250,1049800,1046904,1049800,0,26064,0,49
o,0x3fdbefe4,1556709031.355849,172.16.11.67,57195,172.16.10.65,5000,1073725440,28960,0,1048320,1049800,6,6,4,1448,1544,1,16778208,250,1049800,1046904,1049800,0,27512,0,49
i,0x35a65e59,1556709031.360843,172.16.11.67,57195,172.16.10.65,5000,1073725440,28960,0,1048320,1049800,6,6,4,1448,1544,1,16778208,250,1049800,1049800,1049800,0,28960,0,49
o,0xe9198443,1556709031.360845,172.16.11.67,57195,172.16.10.65,5000,1073725440,28960,0,1048320,1049800,6,6,4,1448,1543,1,16778208,249,1049800,1046904,1049800,0,26064,0,49
o,0x5bf213a4,1556709031.360849,172.16.11.67,57195,172.16.10.65,5000,1073725440,28960,0,1048320,1049800,6,6,4,1448,1543,1,16778208,249,1049800,1046904,1049800,0,27512,0,49
i,0xefc2e93a,1556709031.365847,172.16.11.67,57195,172.16.10.65,5000,1073725440,28960,0,1048320,1049800,6,6,4,1448,1543,1,16778208,249,1049800,1049800,1049800,0,28960,0,49
o,0xda79b524,1556709031.365850,172.16.11.67,57195,172.16.10.65,5000,1073725440,28960,0,1048320,1049800,6,6,4,1448,1543,1,16778208,249,1049800,1046904,1049800,0,26064,0,49
o,0x007e0583,1556709031.365854,172.16.11.67,57195,172.16.10.65,5000,1073725440,28960,0,1048320,1049800,6,6,4,1448,1543,1,16778208,249,1049800,1046904,1049800,0,27512,0,49
i,0x442daa7a,1556709031.370847,172.16.11.67,57195,172.16.10.65,5000,1073725440,28960,0,1048320,1049800,6,6,4,1448,1543,1,16778208,249,1049800,1049800,1049800,0,28960,0,49
o,0xf9c86fe4,1556709031.370850,172.16.11.67,57195,172.16.10.65,5000,1073725440,28960,0,1048320,1049800,6,6,4,1448,1543,1,16778208,249,1049800,1046904,1049800,0,26064,0,49
o,0x3aa0d343,1556709031.370853,172.16.11.67,57195,172.16.10.65,5000,1073725440,28960,0,1048320,1049800,6,6,4,1448,1543,1,16778208,249,1049800,1046904,1049800,0,27512,0,49
i,0x1a4dc9d9,1556709031.374845,172.16.11.67,57195,172.16.10.65,5000,1073725440,28960,0,1048320,1049800,6,6,4,1448,1543,1,16778208,249,1049800,1049800,1049800,0,28960,0,49
o,0x0908acc3,1556709031.374848,172.16.11.67,57195,172.16.10.65,5000,1073725440,28960,0,1048320,1049800,6,6,4,1448,1543,1,16778208,249,1049800,1046904,1049800,0,26064,0,49
o,0xe3ecc724,1556709031.374851,172.16.11.67,57195,172.16.10.65,5000,1073725440,28960,0,1048320,1049800,6,6,4,1448,1543,1,16778208,249,1049800,1046904,1049800,0,27512,0,49
i,0xd46a54ba,1556709031.379844,172.16.11.67,57195,172.16.10.65,5000,1073725440,28960,0,1048320,1049800,6,6,4,1448,1543,1,16778208,249,1049800,1049800,1049800,0,28960,0,49
o,0x72564883,1556709031.379846,172.16.11.67,57195,172.16.10.65,5000,1073725440,28960,0,1048320,1049800,6,6,4,1448,1543,1,16778208,248,1049800,1046904,1049800,0,26064,0,49
o,0x3e79d803,1556709031.379850,172.16.11.67,57195,172.16.10.65,5000,1073725440,28960,0,1048320,1049800,6,6,4,1448,1543,1,16778208,248,1049800,1046904,1049800,0,27512,0,49
i,0x28d515fa,1556709031.384843,172.16.11.67,57195,172.16.10.65,5000,1073725440,28960,0,1048320,1049800,6,6,4,1448,1543,1,16778208,248,1049800,1049800,1049800,0,28960,0,49
o,0x809d4d64,1556709031.384845,172.16.11.67,57195,172.16.10.65,5000,1073725440,28960,0,1048320,1049800,6,6,4,1448,1543,1,16778208,248,1049800,1046904,1049800,0,26064,0,49
o,0x5a8ffbc3,1556709031.384850,172.16.11.67,57195,172.16.10.65,5000,1073725440,28960,0,1048320,1049800,6,6,4,1448,1543,1,16778208,248,1049800,1046904,1049800,0,27512,0,49
i,0xb878717a,1556709031.389847,172.16.11.67,57195,172.16.10.65,5000,1073725440,28960,0,1048320,1049800,6,6,4,1448,1543,1,16778208,248,1049800,1049800,1049800,0,28960,0,49
o,0xd9179d43,1556709031.389849,172.16.11.67,57195,172.16.10.65,5000,1073725440,28960,0,1048320,1049800,6,6,4,1448,1543,1,16778208,248,1049800,1046904,1049800,0,26064,0,49
o,0x9801cea4,1556709031.389853,172.16.11.67,57195,172.16.10.65,5000,1073725440,28960,0,1048320,1049800,6,6,4,1448,1543,1,16778208,248,1049800,1046904,1049800,0,27512,0,49
i,0x7294fc5b,1556709031.394846,172.16.11.67,57195,172.16.10.65,5000,1073725440,28960,0,1048320,1049800,6,6,4,1448,1543,1,16778208,248,1049800,1049800,1049800,0,28960,0,49
o,0x083f2642,1556709031.394848,172.16.11.67,57195,172.16.10.65,5000,1073725440,28960,0,1048320,1049800,6,6,4,1448,1543,1,16778208,248,1049800,1046904,1049800,0,26064,0,49
o,0x1d3bc0c2,1556709031.394852,172.16.11.67,57195,172.16.10.65,5000,1073725440,28960,0,1048320,1049800,6,6,4,1448,1543,1,16778208,248,1049800,1046904,1049800,0,27512,0,49
i,0x0d7c809b,1556709031.398846,172.16.11.67,57195,172.16.10.65,5000,1073725440,28960,0,1048320,1049800,6,6,4,1448,1543,1,16778208,248,1049800,1049800,1049800,0,28960,0,49
o,0xeba39a42,1556709031.398849,172.16.11.67,57195,172.16.10.65,5000,1073725440,28960,0,1048320,1049800,6,6,4,1448,1543,1,16778208,248,1049800,1046904,1049800,0,26064,0,49
o,0xf2637d82,1556709031.398853,172.16.11.67,57195,172.16.10.65,5000,1073725440,28960,0,1048320,1049800,6,6,4,1448,1543,1,16778208,248,1049800,1046904,1049800,0,27512,0,49
i,0x2efe5039,1556709031.403844,172.16.11.67,57195,172.16.10.65,5000,1073725440,28960,0,1048320,1049800,6,6,4,1448,1543,1,16778208,248,1049800,1049800,1049800,0,28960,0,49
o,0x54f13602,1556709031.403847,172.16.11.67,57195,172.16.10.65,5000,1073725440,28960,0,1048320,1049800,6,6,4,1448,1543,1,16778208,248,1049800,1046904,1049800,0,26064,0,49
o,0x79bfe0c3,1556709031.403850,172.16.11.67,57195,172.16.10.65,5000,1073725440,28960,0,1048320,1049800,6,6,4,1448,1543,1,16778208,248,1049800,1046904,1049800,0,27512,0,49
i,0xe91adb1a,1556709031.408842,172.16.11.67,57195,172.16.10.65,5000,1073725440,28960,0,1048320,1049800,6,6,4,1448,1543,1,16778208,248,1049800,1049800,1049800,0,28960,0,49
o,0xe7bf1f03,1556709031.408845,172.16.11.67,57195,172.16.10.65,5000,1073725440,28960,0,1048320,1049800,6,6,4,1448,1543,1,16778208,248,1049800,1046904,1049800,0,26064,0,49
o,0x95d60483,1556709031.408849,172.16.11.67,57195,172.16.10.65,5000,1073725440,28960,0,1048320,1049800,6,6,4,1448,1543,1,16778208,248,1049800,1046904,1049800,0,27512,0,49
i,0x3d859c5a,1556709031.413847,172.16.11.67,57195,172.16.10.65,5000,1073725440,28960,0,1048320,1049800,6,6,4,1448,1543,1,16778208,248,1049800,1049800,1049800,0,28960,0,49
o,0x145da603,1556709031.413850,172.16.11.67,57195,172.16.10.65,5000,1073725440,28960,0,1048320,1049800,6,6,4,1448,1543,1,16778208,248,1049800,1046904,1049800,0,26064,0,49
o,0xff23a043,1556709031.413854,172.16.11.67,57195,172.16.10.65,5000,1073725440,28960,0,1048320,1049800,6,6,4,1448,1543,1,16778208,248,1049800,1046904,1049800,0,27512,0,49
i,0xcd28f8b9,1556709031.418847,172.16.11.67,57195,172.16.10.65,5000,1073725440,28960,0,1048320,1049800,6,6,4,1448,1543,1,16778208,248,1049800,1049800,1049800,0,28960,0,49
o,0x33ac60c3,1556709031.418849,172.16.11.67,57195,172.16.10.65,5000,1073725440,28960,0,1048320,1049800,6,6,4,1448,1543,1,16778208,248,1049800,1046904,1049800,0,26064,0,49
o,0x48a8fb43,1556709031.418853,172.16.11.67,57195,172.16.10.65,5000,1073725440,28960,0,1048320,1049800,6,6,4,1448,1543,1,16778208,248,1049800,1046904,1049800,0,27512,0,49
i,0x68107cf9,1556709031.422844,172.16.11.67,57195,172.16.10.65,5000,1073725440,28960,0,1048320,1049800,6,6,4,1448,1543,1,16778208,248,1049800,1049800,1049800,0,28960,0,49
o,0x07ae4783,1556709031.422846,172.16.11.67,57195,172.16.10.65,5000,1073725440,28960,0,1048320,1049800,6,6,4,1448,1543,1,16778208,248,1049800,1046904,1049800,0,26064,0,49
o,0x1dd0b803,1556709031.422850,172.16.11.67,57195,172.16.10.65,5000,1073725440,28960,0,1048320,1049800,6,6,4,1448,1543,1,16778208,248,1049800,1046904,1049800,0,27512,0,49
i,0x222d07da,1556709031.427842,172.16.11.67,57195,172.16.10.65,5000,1073725440,28960,0,1048320,1049800,6,6,4,1448,1543,1,16778208,248,1049800,1049800,1049800,0,28960,0,49
o,0x805e7083,1556709031.427844,172.16.11.67,57195,172.16.10.65,5000,1073725440,28960,0,1048320,1049800,6,6,4,1448,1543,1,16778208,248,1049800,1046904,1049800,0,26064,0,49
o,0x3d1f72c3,1556709031.427848,172.16.11.67,57195,172.16.10.65,5000,1073725440,28960,0,1048320,1049800,6,6,4,1448,1543,1,16778208,248,1049800,1046904,1049800,0,27512,0,49
i,0xb1d06439,1556709031.432843,172.16.11.67,57195,172.16.10.65,5000,1073725440,28960,0,1048320,1049800,6,6,4,1448,1543,1,16778208,248,1049800,1049800,1049800,0,28960,0,49
o,0xba813e43,1556709031.432846,172.16.11.67,57195,172.16.10.65,5000,1073725440,28960,0,1048320,1049800,6,6,4,1448,1543,1,16778208,248,1049800,1046904,1049800,0,26064,0,49
o,0x689823c3,1556709031.432850,172.16.11.67,57195,172.16.10.65,5000,1073725440,28960,0,1048320,1049800,6,6,4,1448,1543,1,16778208,248,1049800,1046904,1049800,0,27512,0,49
i,0x063b2579,1556709031.437850,172.16.11.67,57195,172.16.10.65,5000,1073725440,28960,0,1048320,1049800,6,6,4,1448,1543,1,16778208,248,1049800,1049800,1049800,0,28960,0,49
o,0xd7bd3803,1556709031.437852,172.16.11.67,57195,172.16.10.65,5000,1073725440,28960,0,1048320,1049800,6,6,4,1448,1543,1,16778208,248,1049800,1046904,1049800,0,26064,0,49
o,0xd1e5bf83,1556709031.437856,172.16.11.67,57195,172.16.10.65,5000,1073725440,28960,0,1048320,1049800,6,6,4,1448,1543,1,16778208,248,1049800,1046904,1049800,0,27512,0,49
i,0xc057b05a,1556709031.442848,172.16.11.67,57195,172.16.10.65,5000,1073725440,28960,0,1048320,1049800,6,6,4,1448,1543,1,16778208,248,1049800,1049800,1049800,0,28960,0,49
o,0x066e8003,1556709031.442851,172.16.11.67,57195,172.16.10.65,5000,1073725440,28960,0,1048320,1049800,6,6,4,1448,1543,1,16778208,248,1049800,1046904,1049800,0,26064,0,49
o,0x0c088d43,1556709031.442855,172.16.11.67,57195,172.16.10.65,5000,1073725440,28960,0,1048320,1049800,6,6,4,1448,1543,1,16778208,248,1049800,1046904,1049800,0,27512,0,49
i,0x9677cfb9,1556709031.446843,172.16.11.67,57195,172.16.10.65,5000,1073725440,28960,0,1048320,1049800,6,6,4,1448,1543,1,16778208,248,1049800,1049800,1049800,0,28960,0,49
o,0xda7066c3,1556709031.446846,172.16.11.67,57195,172.16.10.65,5000,1073725440,28960,0,1048320,1049800,6,6,4,1448,1543,1,16778208,248,1049800,1046904,1049800,0,26064,0,49
o,0x1c6ea022,1556709031.446850,172.16.11.67,57195,172.16.10.65,5000,1073725440,28960,0,1048320,1049800,6,6,4,1448,1543,1,16778208,248,1049800,1046904,1049800,0,27512,0,49
i,0x06cd8eba,1556709031.451843,172.16.11.67,57195,172.16.10.65,5000,1073725440,28960,0,1048320,1049800,6,6,4,1448,1543,1,16778208,248,1049800,1049800,1049800,0,28960,0,49
o,0x43be0283,1556709031.451846,172.16.11.67,57195,172.16.10.65,5000,1073725440,28960,0,1048320,1049800,6,6,4,1448,1543,1,16778208,248,1049800,1046904,1049800,0,26064,0,49
o,0x0fe19203,1556709031.451850,172.16.11.67,57195,172.16.10.65,5000,1073725440,28960,0,1048320,1049800,6,6,4,1448,1543,1,16778208,248,1049800,1046904,1049800,0,27512,0,49
i,0xfc22b4ba,1556709031.456842,172.16.11.67,57195,172.16.10.65,5000,1073725440,28960,0,1048320,1049800,6,6,4,1448,1543,1,16778208,248,1049800,1049800,1049800,0,28960,0,49
o,0xb91f2662,1556709031.456845,172.16.11.67,57195,172.16.10.65,5000,1073725440,28960,0,1048320,1049800,6,6,4,1448,1543,1,16778208,248,1049800,1046904,1049800,0,26064,0,49
o,0x2bf7b5c3,1556709031.456849,172.16.11.67,57195,172.16.10.65,5000,1073725440,28960,0,1048320,1049800,6,6,4,1448,1543,1,16778208,248,1049800,1046904,1049800,0,27512,0,49
i,0x508d75fa,1556709031.461848,172.16.11.67,57195,172.16.10.65,5000,1073725440,28960,0,1048320,1049800,6,6,4,1448,1543,1,16778208,248,1049800,1049800,1049800,0,28960,0,49
o,0xaa7f5743,1556709031.461851,172.16.11.67,57195,172.16.10.65,5000,1073725440,28960,0,1048320,1049800,6,6,4,1448,1543,1,16778208,248,1049800,1046904,1049800,0,26064,0,49
o,0xd083a7a2,1556709031.461854,172.16.11.67,57195,172.16.10.65,5000,1073725440,28960,0,1048320,1049800,6,6,4,1448,1543,1,16778208,248,1049800,1046904,1049800,0,27512,0,49
i,0xa4f8373a,1556709031.466847,172.16.11.67,57195,172.16.10.65,5000,1073725440,28960,0,1048320,1049800,6,6,4,1448,1543,1,16778208,248,1049800,1049800,1049800,0,28960,0,49
o,0xc9ce1203,1556709031.466850,172.16.11.67,57195,172.16.10.65,5000,1073725440,28960,0,1048320,1049800,6,6,4,1448,1543,1,16778208,248,1049800,1046904,1049800,0,26064,0,49
o,0xdecaac83,1556709031.466853,172.16.11.67,57195,172.16.10.65,5000,1073725440,28960,0,1048320,1049800,6,6,4,1448,1543,1,16778208,248,1049800,1046904,1049800,0,27512,0,49
i,0xe0ca203a,1556709031.470843,172.16.11.67,57195,172.16.10.65,5000,1073725440,28960,0,1048320,1049800,6,6,4,1448,1543,1,16778208,248,1049800,1049800,1049800,0,28960,0,49
o,0xd90e4ee2,1556709031.470846,172.16.11.67,57195,172.16.10.65,5000,1073725440,28960,0,1048320,1049800,6,6,4,1448,1543,1,16778208,248,1049800,1046904,1049800,0,26064,0,49
o,0xb3f26943,1556709031.470849,172.16.11.67,57195,172.16.10.65,5000,1073725440,28960,0,1048320,1049800,6,6,4,1448,1543,1,16778208,248,1049800,1046904,1049800,0,27512,0,49
i,0x3534e17a,1556709031.475842,172.16.11.67,57195,172.16.10.65,5000,1073725440,28960,0,1048320,1049800,6,6,4,1448,1543,1,16778208,248,1049800,1049800,1049800,0,28960,0,49
o,0x168021c3,1556709031.475845,172.16.11.67,57195,172.16.10.65,5000,1073725440,28960,0,1048320,1049800,6,6,4,1448,1543,1,16778208,248,1049800,1046904,1049800,0,26064,0,49
o,0x0e7f7a22,1556709031.475849,172.16.11.67,57195,172.16.10.65,5000,1073725440,28960,0,1048320,1049800,6,6,4,1448,1543,1,16778208,248,1049800,1046904,1049800,0,27512,0,49
i,0x899fa2ba,1556709031.480843,172.16.11.67,57195,172.16.10.65,5000,1073725440,28960,0,1048320,1049800,6,6,4,1448,1543,1,16778208,248,1049800,1049800,1049800,0,28960,0,49
o,0x50a2ef83,1556709031.480845,172.16.11.67,57195,172.16.10.65,5000,1073725440,28960,0,1048320,1049800,6,6,4,1448,1543,1,16778208,248,1049800,1046904,1049800,0,26064,0,49
o,0xfeb9d503,1556709031.480849,172.16.11.67,57195,172.16.10.65,5000,1073725440,28960,0,1048320,1049800,6,6,4,1448,1543,1,16778208,248,1049800,1046904,1049800,0,27512,0,49
i,0x7ef4c8ba,1556709031.485846,172.16.11.67,57195,172.16.10.65,5000,1073725440,28960,0,1048320,1049800,6,6,4,1448,1543,1,16778208,248,1049800,1049800,1049800,0,28960,0,49
o,0xa91d3f62,1556709031.485849,172.16.11.67,57195,172.16.10.65,5000,1073725440,28960,0,1048320,1049800,6,6,4,1448,1543,1,16778208,248,1049800,1046904,1049800,0,26064,0,49
o,0x680770c3,1556709031.485852,172.16.11.67,57195,172.16.10.65,5000,1073725440,28960,0,1048320,1049800,6,6,4,1448,1543,1,16778208,248,1049800,1046904,1049800,0,27512,0,49
i,0xd35f89fa,1556709031.490847,172.16.11.67,57195,172.16.10.65,5000,1073725440,28960,0,1048320,1049800,6,6,4,1448,1543,1,16778208,248,1049800,1049800,1049800,0,28960,0,49
o,0x9c903143,1556709031.490850,172.16.11.67,57195,172.16.10.65,5000,1073725440,28960,0,1048320,1049800,6,6,4,1448,1543,1,16778208,248,1049800,1046904,1049800,0,26064,0,49
